City,Neighbourhood,Neighbourhood Latitude,Neighbourhood Longitude,Venue Id,Venue,Venue Latitude,Venue Longitude,Venue Category Id,Venue Category Name
Rome,Monti,41.896080700000006,12.4902875,4bd73fba09ecb7130975467c,Ai Tre Scalini,41.896347818830705,12.490418011337228,4bf58dd8d48988d123941735,Wine Bar
Rome,Monti,41.896080700000006,12.4902875,4be44735cf200f4719b7113c,Piazza della Madonna dei Monti,41.89496345347221,12.490824535721918,4bf58dd8d48988d164941735,Plaza
Rome,Monti,41.896080700000006,12.4902875,4bd09194462cb713ed9fd807,Al Vino! Al Vino!,41.895609147857485,12.49039722294778,4bf58dd8d48988d123941735,Wine Bar
Rome,Monti,41.896080700000006,12.4902875,53f8fe8c498ecb81e43b7c38,Temakinho,41.89548557417076,12.490374056068802,4bf58dd8d48988d1d2941735,Sushi Restaurant
Rome,Monti,41.896080700000006,12.4902875,5634f784498eb65f5196e9dd,Analemma Cafe,41.894762822684086,12.491535579845296,4bf58dd8d48988d116941735,Bar
Rome,Monti,41.896080700000006,12.4902875,536ea370498ea6d9bc0fbdd8,Gelateria dell'Angeletto,41.894814914313436,12.491430848078114,4bf58dd8d48988d1c9941735,Ice Cream Shop
Rome,Monti,41.896080700000006,12.4902875,59998168a795bd460e93bae8,Fuorinorma,41.894375012338976,12.490892716915157,4bf58dd8d48988d1c5941735,Sandwich Place
Rome,Monti,41.896080700000006,12.4902875,4daf45b55da3f2f3d2a2673f,"Ristorante Tipico ""Tavernelle""",41.896354,12.490539,4bf58dd8d48988d110941735,Italian Restaurant
Rome,Monti,41.896080700000006,12.4902875,4d1cca45c50e6ea8998ed5b8,La Barrique,41.898143516333896,12.490215613471113,4bf58dd8d48988d123941735,Wine Bar
Rome,Monti,41.896080700000006,12.4902875,4fca3346e4b0e1d3a31b740f,Fatamorgana,41.89561,12.493304,4bf58dd8d48988d1c9941735,Ice Cream Shop
Rome,Monti,41.896080700000006,12.4902875,4bcf7cd20ffdce72078ab2c0,Hotel Artorius Rome,41.89715148178503,12.490384370853322,4bf58dd8d48988d1fa931735,Hotel
Rome,Monti,41.896080700000006,12.4902875,4d2f6a1996fe6ea8dcd50b44,Libreria Caffè Bohemien,41.89544404942036,12.492862758239918,4bf58dd8d48988d11e941735,Cocktail Bar
Rome,Monti,41.896080700000006,12.4902875,58dc0effaf5c147525a6a093,Osteria Oliva,41.896604,12.489945,55a5a1ebe4b013909087cb8c,Romagna Restaurant
Rome,Monti,41.896080700000006,12.4902875,4c339146ed37a59352926d03,Fafiuché,41.894145854731434,12.489318129228842,4bf58dd8d48988d123941735,Wine Bar
Rome,Monti,41.896080700000006,12.4902875,576e94cd498e9e879c5282cb,Wonderful Ice Cream,41.89683260096804,12.487052997189435,4bf58dd8d48988d1c9941735,Ice Cream Shop
Rome,Monti,41.896080700000006,12.4902875,57409fca498e93d605dcd51f,Pastachef,41.894749,12.489673,4bf58dd8d48988d110941735,Italian Restaurant
Rome,Monti,41.896080700000006,12.4902875,4bc4e48f74a9a5932b84d6f6,Il Gelatone,41.895906336085396,12.490376548158379,4bf58dd8d48988d1c9941735,Ice Cream Shop
Rome,Monti,41.896080700000006,12.4902875,50e985b9e4b04fa56da9bb69,Zia Rosetta,41.89556237535561,12.493392095918264,4bf58dd8d48988d1c5941735,Sandwich Place
Rome,Monti,41.896080700000006,12.4902875,4bc394e6abf4952141f8c393,Palazzo delle Esposizioni,41.899056132679235,12.490554209014324,4bf58dd8d48988d18f941735,Art Museum
Rome,Monti,41.896080700000006,12.4902875,57d2698c498e076196cbbacc,Montipalace Hotel,41.895384364784455,12.493839451725908,4bf58dd8d48988d1fa931735,Hotel
Rome,Monti,41.896080700000006,12.4902875,4cc08dd99ca854815025bd16,Da Valentino,41.89817368296107,12.490165804934612,4bf58dd8d48988d110941735,Italian Restaurant
Rome,Monti,41.896080700000006,12.4902875,4ba7e9fbf964a52038be39e3,La Taverna dei Fori Imperiali,41.89398899985174,12.488527714599032,4bf58dd8d48988d110941735,Italian Restaurant
Rome,Monti,41.896080700000006,12.4902875,57729794498e491f856f37c9,Rome Glam Hotel,41.89888335784556,12.490504343541469,4bf58dd8d48988d1fa931735,Hotel
Rome,Monti,41.896080700000006,12.4902875,4e81b3936c2587afae481a48,Mercati di Traiano - Museo dei Fori Imperiali,41.8962879734008,12.485972954465614,4bf58dd8d48988d190941735,History Museum
Rome,Monti,41.896080700000006,12.4902875,4adcdac9f964a520005421e3,Via dei Fori Imperiali,41.89403641354607,12.487227868195786,4bf58dd8d48988d1f9931735,Road
Rome,Monti,41.896080700000006,12.4902875,51cc0f35498e453415cde4ef,Strisciala Pizza,41.89856770348699,12.490571008915028,4bf58dd8d48988d1ca941735,Pizza Place
Rome,Monti,41.896080700000006,12.4902875,534ffee6498e48ae85854661,Grezzo,41.896680635444525,12.494535122108115,5744ccdfe4b0c0459246b4e2,Pastry Shop
Rome,Monti,41.896080700000006,12.4902875,59d3dceeccad6b028b51cdb6,The K Boutique Hotel,41.894849,12.493646,4bf58dd8d48988d1fa931735,Hotel
Rome,Monti,41.896080700000006,12.4902875,56a676a2498ee1253bbdeb37,Trieste,41.89630535268204,12.494131922317711,4bf58dd8d48988d1ca941735,Pizza Place
Rome,Monti,41.896080700000006,12.4902875,5496ed41498e9ae3de1a7aa2,Mosè di Michelangelo,41.89368063217808,12.492548363953658,507c8c4091d498d9fc8c67a9,Public Art
Rome,Monti,41.896080700000006,12.4902875,534a9a52498e30ac349c93cb,The Public House,41.89661914884962,12.485864341047838,4bf58dd8d48988d11b941735,Pub
Rome,Monti,41.896080700000006,12.4902875,4ea2c59b7ee52a35dd062479,Foro di Augusto,41.894070470964216,12.48648309475234,4deefb944765f83613cdba6e,Historic Site
Rome,Monti,41.896080700000006,12.4902875,4cb892bfa33bb1f77a3c82fd,La Taverna dei Monti,41.89819783598727,12.490175101400801,4bf58dd8d48988d110941735,Italian Restaurant
Rome,Monti,41.896080700000006,12.4902875,4adcdac9f964a520415421e3,Scuderie del Quirinale,41.898525,12.486526,4bf58dd8d48988d181941735,Museum
Rome,Monti,41.896080700000006,12.4902875,4ed92b6f0e011b46ece44d53,Aromaticus,41.89684013633517,12.494610536335058,4bf58dd8d48988d1bd941735,Salad Place
Rome,Monti,41.896080700000006,12.4902875,4c5db20c6ebe2d7f989cd32e,Shamrock Irish Pub,41.89332747883192,12.488783831360118,4bf58dd8d48988d11b941735,Pub
Rome,Monti,41.896080700000006,12.4902875,55990b6a498e7e81846b533f,All Bi One,41.893408522211956,12.488286238826202,4bf58dd8d48988d10b941735,Falafel Restaurant
Rome,Monti,41.896080700000006,12.4902875,519e8884498e12c15bc8b879,Rome Times Hotel,41.89859642776549,12.490463851323739,4bf58dd8d48988d1fa931735,Hotel
Rome,Monti,41.896080700000006,12.4902875,55ebf3ac498e3c52310d3724,Relais Monti,41.896605955497336,12.494636891088142,4bf58dd8d48988d1f8931735,Bed & Breakfast
Rome,Monti,41.896080700000006,12.4902875,4c41fd5c520fa593517ccaac,Foro di Traiano,41.89472893619501,12.4848713109981,4deefb944765f83613cdba6e,Historic Site
Rome,Monti,41.896080700000006,12.4902875,4eb4072902d5f33e91f1edbe,Piazza del Quirinale,41.899294578473324,12.486820794047116,4bf58dd8d48988d164941735,Plaza
Rome,Monti,41.896080700000006,12.4902875,4e2859d5ae60078b2fca37e1,Foro di Cesare,41.894128094003264,12.485232435795742,4deefb944765f83613cdba6e,Historic Site
Rome,Monti,41.896080700000006,12.4902875,4adcdacff964a520975521e3,"Angelino ""ai Fori"" dal 1947",41.893154328120836,12.48796839836952,4bf58dd8d48988d110941735,Italian Restaurant
Rome,Monti,41.896080700000006,12.4902875,4adcdad0f964a520fd5521e3,Teatro Eliseo e Piccolo Eliseo,41.8979492601697,12.48902979483964,4bf58dd8d48988d137941735,Theater
Rome,Monti,41.896080700000006,12.4902875,4adcdac9f964a520ff5321e3,Zuil van Trajanus (Colonna Traiana),41.895816378556574,12.48427614569664,4bf58dd8d48988d12d941735,Monument / Landmark
Rome,Monti,41.896080700000006,12.4902875,5058bef3e4b0dcc7a789e090,Gelateria S.M. Maggiore,41.89725955408444,12.495790756959973,4bf58dd8d48988d1c9941735,Ice Cream Shop
Rome,Monti,41.896080700000006,12.4902875,54d5bb66498e254c1e7b6d58,The Fifteen Keys Hotel,41.89764633028538,12.495529271431463,4bf58dd8d48988d1fa931735,Hotel
Rome,Monti,41.896080700000006,12.4902875,4bc88aebdc55eee1808ae8ac,Hotel Raffaello,41.89776997207932,12.495622349856664,4bf58dd8d48988d1fa931735,Hotel
Rome,Monti,41.896080700000006,12.4902875,4bd81c99e914a593236e52fa,Doozo,41.898732660202334,12.491907106774221,4bf58dd8d48988d111941735,Japanese Restaurant
Rome,Monti,41.896080700000006,12.4902875,4bebdf0061aca5931c7a8500,Open Colonna,41.899821581043454,12.489497240263269,4bf58dd8d48988d110941735,Italian Restaurant
Rome,Monti,41.896080700000006,12.4902875,4dd81222c65bee535ac2c57c,Hostaria Al Boschetto,41.897806,12.489967,4bf58dd8d48988d110941735,Italian Restaurant
Rome,Monti,41.896080700000006,12.4902875,4df5fca8aeb7170aa2f906e6,Kiko Store,41.89924434024532,12.490926608441073,4bf58dd8d48988d10c951735,Cosmetics Shop
Rome,Monti,41.896080700000006,12.4902875,52584d2f11d2da0c18a6b6ab,Trattoria Monti Il Girasole,41.89790171148158,12.49050132029116,55a5a1ebe4b013909087cb7f,Trattoria/Osteria
Rome,Monti,41.896080700000006,12.4902875,4e5576e145dd0a4826e699f5,Villa Spalletti Trivelli,41.89932,12.48852,4bf58dd8d48988d1fa931735,Hotel
Rome,Monti,41.896080700000006,12.4902875,52cd035011d21295ccdc23c9,Rome Life Hotel,41.89867432006242,12.49148670940313,4bf58dd8d48988d1fa931735,Hotel
Rome,Monti,41.896080700000006,12.4902875,4e1af3b41838a3f391d51d7f,Sa Tanca Crostaceria,41.89888206332771,12.49195741311427,4bf58dd8d48988d110941735,Italian Restaurant
Rome,Monti,41.896080700000006,12.4902875,55df6256498e44d120c8edfa,Il Nido del Pettirosso,41.899408,12.492986,4bf58dd8d48988d110941735,Italian Restaurant
Rome,Monti,41.896080700000006,12.4902875,5752f270498e6dcfe581cc28,La Nazionale Gelateria,41.90007570892474,12.492316698269317,4bf58dd8d48988d1c9941735,Ice Cream Shop
Rome,Monti,41.896080700000006,12.4902875,4b3660a4f964a5200e3425e3,Ristorante Tema,41.89709683047729,12.494439756768008,4bf58dd8d48988d110941735,Italian Restaurant
Rome,Monti,41.896080700000006,12.4902875,522b5385498eb2b23312112e,Nazionale 51,41.899863662946984,12.492116909051425,4bf58dd8d48988d1f8931735,Bed & Breakfast
Rome,Monti,41.896080700000006,12.4902875,4adcdacbf964a520dc5421e3,Ricci,41.89896,12.49251,4bf58dd8d48988d1ca941735,Pizza Place
Rome,Monti,41.896080700000006,12.4902875,51456ccae4b0b3bba8668b77,Maratona di Roma,41.89871740694105,12.490425409455709,4bf58dd8d48988d1f4931735,Racetrack
Rome,Monti,41.896080700000006,12.4902875,4bcc607faeaaeee10bf53d6d,Hotel Galatea,41.8994855764514,12.492568476036832,4bf58dd8d48988d1fa931735,Hotel
Rome,Monti,41.896080700000006,12.4902875,5081c58be4b0a74e51e94691,Rinaldi al Quirinale,41.89898,12.48899,4bf58dd8d48988d110941735,Italian Restaurant
Rome,Monti,41.896080700000006,12.4902875,526d044811d2e1256e15896d,LasaGnaM,41.89801500850572,12.489113373236991,4bf58dd8d48988d16e941735,Fast Food Restaurant
Rome,Monti,41.896080700000006,12.4902875,4ccb1cc672106dcb97ea9199,Matermatuta,41.89846998,12.49061741,4bf58dd8d48988d110941735,Italian Restaurant
Rome,Monti,41.896080700000006,12.4902875,4cb4741adb32f04d3fbadd4d,Bar Dolci E Dolcezze,41.89921333775851,12.492297716707599,4bf58dd8d48988d16d941735,Café
Rome,Monti,41.896080700000006,12.4902875,4d83af778de9721ede8a2151,Hotel Virgilio,41.89902092166087,12.492121797692901,4bf58dd8d48988d1fa931735,Hotel
Rome,Monti,41.896080700000006,12.4902875,56081708498ecb20462d1f09,hespresso,41.89949898869446,12.491966464838141,52e81612bcbc57f1066b7a00,Comfort Food Restaurant
Rome,Monti,41.896080700000006,12.4902875,4adcdac6f964a5202c5321e3,Domus Aurea,41.89403329585962,12.495642775024427,4deefb944765f83613cdba6e,Historic Site
Rome,Monti,41.896080700000006,12.4902875,4d3d7978d2c8f04d565a6a72,L'Antica Fraschetta,41.89996438011894,12.492887590197977,4bf58dd8d48988d110941735,Italian Restaurant
Rome,Monti,41.896080700000006,12.4902875,50559dcae4b09a662ddd1c64,Domus Alberti,41.89998958507953,12.493012627536055,4bf58dd8d48988d1fa931735,Hotel
Rome,Monti,41.896080700000006,12.4902875,4dcd4280d22deadedd3422a6,Via Urbana,41.89407582020093,12.495628404481696,4d4b7105d754a06377d81259,Outdoors & Recreation
Rome,Monti,41.896080700000006,12.4902875,4bc88989dc55eee17789e8ac,Hotel Picasso Rome,41.899418,12.492826,4bf58dd8d48988d1fa931735,Hotel
Rome,Monti,41.896080700000006,12.4902875,521c9c3a11d2624bc64ed465,Caravaggio Hotel,41.89961934767045,12.492995827229391,4bf58dd8d48988d1fa931735,Hotel
Rome,Monti,41.896080700000006,12.4902875,520512a011d2f8850aa5637c,Hotel Relais De L'Opera,41.89966136649885,12.493052506564704,4bf58dd8d48988d1fa931735,Hotel
Rome,Monti,41.896080700000006,12.4902875,4e301ed5d4c058fdbefa6c00,Hotel Boutique Nazionale,41.89938055599245,12.491199064531111,4bf58dd8d48988d1fa931735,Hotel
Rome,Monti,41.896080700000006,12.4902875,4adcdac7f964a5209a5321e3,Parco del Colle Oppio,41.89403201478621,12.495647278340954,4bf58dd8d48988d163941735,Park
Rome,Monti,41.896080700000006,12.4902875,4d2b36d06e27a143d2b03524,Arion Esposizioni,41.89912285456905,12.489971812331582,4bf58dd8d48988d114951735,Bookstore
Rome,Monti,41.896080700000006,12.4902875,4adcdac1f964a520c75121e3,Hotel Colosseum,41.89605,12.49607,4bf58dd8d48988d1fa931735,Hotel
Rome,Monti,41.896080700000006,12.4902875,4e9d4b1f6da163facd50ad91,Le Vesti Di Messalina,41.89404629030679,12.495624952592559,4bf58dd8d48988d104951735,Boutique
Rome,Trevi,41.9009778,12.483284973816568,56dd7b20498ebb7ab96350ee,Pane e Salame,41.900604,12.481798,4bf58dd8d48988d1c5941735,Sandwich Place
Rome,Trevi,41.9009778,12.483284973816568,4adcdac6f964a5202b5321e3,Trevi-fontein (Fontana di Trevi),41.900844313166985,12.483251782820536,56aa371be4b08b9a8d573547,Fountain
Rome,Trevi,41.9009778,12.483284973816568,4e324217814d60c5e3bc5795,La Sandwicheria,41.902900704985406,12.48333596416448,4bf58dd8d48988d1c5941735,Sandwich Place
Rome,Trevi,41.9009778,12.483284973816568,53ce8a93498e9707065baed5,Venchi,41.90004164812426,12.480883171716998,4bf58dd8d48988d1c9941735,Ice Cream Shop
Rome,Trevi,41.9009778,12.483284973816568,52fa76ba498ebc45669803ce,La Prosciutteria,41.90188821230828,12.484467183172217,4bf58dd8d48988d110941735,Italian Restaurant
Rome,Trevi,41.9009778,12.483284973816568,4e10abe6b0fbfef99b8b104f,Gelateria Valentino,41.90144898581466,12.484980643840828,4bf58dd8d48988d1c9941735,Ice Cream Shop
Rome,Trevi,41.9009778,12.483284973816568,4cc48ef001fb236a29aaacba,Gelati Melograno,41.90091248765276,12.483220580748352,4bf58dd8d48988d1c9941735,Ice Cream Shop
Rome,Trevi,41.9009778,12.483284973816568,4be93f86ee96c928b8ecfebf,Vineria Il Chianti,41.90105083141092,12.484178044162327,4bf58dd8d48988d110941735,Italian Restaurant
Rome,Trevi,41.9009778,12.483284973816568,4e6e0a748998a706cdbef1c1,B&B Trevi Hotel,41.90116012937608,12.484237651913228,4bf58dd8d48988d1fa931735,Hotel
Rome,Trevi,41.9009778,12.483284973816568,4adcdac6f964a5203a5321e3,Colonna di Marco Aurelio,41.90093027400436,12.480185023524555,4bf58dd8d48988d12d941735,Monument / Landmark
Rome,Trevi,41.9009778,12.483284973816568,4e677734183850162854a4c3,Gelato In Trevi,41.900886029572604,12.48326237474708,4bf58dd8d48988d1c9941735,Ice Cream Shop
Rome,Trevi,41.9009778,12.483284973816568,4cd6a9e0b2a4370425ed8544,Sant'Andrea,41.90319720155637,12.48325206630795,4bf58dd8d48988d110941735,Italian Restaurant
Rome,Trevi,41.9009778,12.483284973816568,4db4729fa86e8d27078532ac,Il Piccolo Buco,41.90125384233247,12.484686075436722,4bf58dd8d48988d110941735,Italian Restaurant
Rome,Trevi,41.9009778,12.483284973816568,4c2f0235213c2d7f8f2b305d,Fendi,41.90270995448773,12.484491811799137,4bf58dd8d48988d104951735,Boutique
Rome,Trevi,41.9009778,12.483284973816568,4ea9edb56c250fcc73f883ef,Piazza di Trevi,41.90086548690147,12.483276302886882,4bf58dd8d48988d164941735,Plaza
Rome,Trevi,41.9009778,12.483284973816568,53884d4a498eff32833eaaeb,Panino Ricco,41.9015809883258,12.484707977667222,4bf58dd8d48988d1c5941735,Sandwich Place
Rome,Trevi,41.9009778,12.483284973816568,4fcb6a88e4b0596a53b964fc,Oysho,41.90155788830792,12.481009370967799,4bf58dd8d48988d109951735,Lingerie Store
Rome,Trevi,41.9009778,12.483284973816568,4da1913ad686b60c5d79a728,Piccolo Arancio,41.9008097496047,12.48482840547224,4bf58dd8d48988d110941735,Italian Restaurant
Rome,Trevi,41.9009778,12.483284973816568,59e04279c876c838cc75a8ef,Louis Vuitton Roma Rinascente,41.9027011,12.4845339,4bf58dd8d48988d104951735,Boutique
Rome,Trevi,41.9009778,12.483284973816568,528e920d11d2e88f6a01b6b2,Relais Trevi 95,41.90146198478547,12.48484273158848,4f4530a74b9074f6e4fb0100,Boarding House
Rome,Trevi,41.9009778,12.483284973816568,4dbb2ecef7b1ab37dd3e5456,Relais Fontana di Trevi,41.900925927328686,12.483902757820442,4bf58dd8d48988d1fa931735,Hotel
Rome,Trevi,41.9009778,12.483284973816568,59d89a7115173e1a65c0fbfb,La Rinascente,41.90300673525451,12.484461245758686,4bf58dd8d48988d1fd941735,Shopping Mall
Rome,Trevi,41.9009778,12.483284973816568,4ec51bdd9adf1067523e180b,Fontana di Venere,41.900581,12.484441,4bf58dd8d48988d110941735,Italian Restaurant
Rome,Trevi,41.9009778,12.483284973816568,59e9fc947564f74cb2843c74,ViVi Bistrot,41.90264622367388,12.48468055355248,4bf58dd8d48988d112941735,Juice Bar
Rome,Trevi,41.9009778,12.483284973816568,4d455cb2c3e5f04dfe08a420,Angelina a Trevi,41.90119,12.48281,4bf58dd8d48988d110941735,Italian Restaurant
Rome,Trevi,41.9009778,12.483284973816568,4bf4885d13a6b713f8385d33,San Marcello al Corso,41.89859386692398,12.481445831084763,4bf58dd8d48988d132941735,Church
Rome,Trevi,41.9009778,12.483284973816568,4bee65ef35dc0f470bcc3f5b,Piazza Colonna,41.901027637203924,12.480237051514422,4bf58dd8d48988d164941735,Plaza
Rome,Trevi,41.9009778,12.483284973816568,4bfe88ecb68d0f47b950ea57,La Feltrinelli,41.90107761060972,12.480884025583986,4bf58dd8d48988d114951735,Bookstore
Rome,Trevi,41.9009778,12.483284973816568,5be9885ea35f4600254d392a,Pompi,41.900714248581835,12.481629782729124,4bf58dd8d48988d1d0941735,Dessert Shop
Rome,Trevi,41.9009778,12.483284973816568,4bff689688e795216bf67d8f,Fondazione Roma Museo - Palazzo Cipolla,41.89973816242706,12.481016290281692,4bf58dd8d48988d18f941735,Art Museum
Rome,Trevi,41.9009778,12.483284973816568,59df7baef0ca95791f9d5094,Temakinho,41.90297155070563,12.48449215631192,4bf58dd8d48988d16b941735,Brazilian Restaurant
Rome,Trevi,41.9009778,12.483284973816568,4d022f6057e2a0935479d436,Zara,41.901666618067935,12.480356778790485,4bf58dd8d48988d103951735,Clothing Store
Rome,Trevi,41.9009778,12.483284973816568,4c3459017cc0c9b67221f39a,Piazza San Silvestro,41.90259290971248,12.481097321937163,4bf58dd8d48988d164941735,Plaza
Rome,Trevi,41.9009778,12.483284973816568,5725ccd0498eb1720d74768c,Rome Style Hotel,41.90331004865928,12.485086231738164,4bf58dd8d48988d1fa931735,Hotel
Rome,Trevi,41.9009778,12.483284973816568,4d87b5951508a143507ae91d,Melogrando,41.90094573,12.483168,4bf58dd8d48988d1ca941735,Pizza Place
Rome,Trevi,41.9009778,12.483284973816568,5516b0b9498efa5147ff8430,Il Panino Ingegnoso,41.89998191151652,12.479194782088841,4bf58dd8d48988d1c5941735,Sandwich Place
Rome,Trevi,41.9009778,12.483284973816568,4dd8f1e4d22d38ef430d12f9,That's amore,41.90225632647425,12.48600100680841,4bf58dd8d48988d110941735,Italian Restaurant
Rome,Trevi,41.9009778,12.483284973816568,59df60aca4b51b5998432c94,Up Sunset Bar,41.9030701823907,12.484423226004656,4bf58dd8d48988d1c4941735,Restaurant
Rome,Trevi,41.9009778,12.483284973816568,4e72207cd22dbd6261895e1b,Largo Del Nazareno,41.90287194392127,12.483392357826233,4bf58dd8d48988d164941735,Plaza
Rome,Trevi,41.9009778,12.483284973816568,4f805a0de4b0a458b9dfb83b,Il Falchetto,41.89971378048012,12.480805905639757,4bf58dd8d48988d1c4941735,Restaurant
Rome,Trevi,41.9009778,12.483284973816568,4c138d5bb7b9c9286daca937,Piazza di Pietra,41.900053374587394,12.479294207804463,4bf58dd8d48988d164941735,Plaza
Rome,Trevi,41.9009778,12.483284973816568,51967fb5498efc42662791f7,Chic & town - luxury rooms,41.90345628638856,12.484472044128855,4bf58dd8d48988d1f8931735,Bed & Breakfast
Rome,Trevi,41.9009778,12.483284973816568,4eb4072902d5f33e91f1edbe,Piazza del Quirinale,41.899294578473324,12.486820794047116,4bf58dd8d48988d164941735,Plaza
Rome,Trevi,41.9009778,12.483284973816568,5b7bc1373731ee002c1be9dc,la panetteria,41.90191,12.484507,4bf58dd8d48988d110941735,Italian Restaurant
Rome,Trevi,41.9009778,12.483284973816568,4adcdacaf964a520ad5421e3,Hamasei,41.903421771450915,12.482469625853788,4bf58dd8d48988d111941735,Japanese Restaurant
Rome,Trevi,41.9009778,12.483284973816568,4b9f97acf964a5208a2d37e3,Il Gelato di San Crispino,41.9015278434275,12.484682803408386,4bf58dd8d48988d1c9941735,Ice Cream Shop
Rome,Trevi,41.9009778,12.483284973816568,54848b5a498ef51e69c5601d,don nino fontana di trevi,41.901083,12.483445,4bf58dd8d48988d1c9941735,Ice Cream Shop
Rome,Trevi,41.9009778,12.483284973816568,4bdb27ecc79cc928e56681e9,Salotto 42,41.900048515738646,12.479425482842286,4bf58dd8d48988d121941735,Lounge
Rome,Trevi,41.9009778,12.483284973816568,4d8b02267139b1f76458d6d4,Gelateria di Noto,41.901037651059816,12.480136105259286,4bf58dd8d48988d1d0941735,Dessert Shop
Rome,Trevi,41.9009778,12.483284973816568,4bdc8c253904a5930bb14e9e,Spiriti & Forme,41.901124753406705,12.484113550094108,4bf58dd8d48988d110941735,Italian Restaurant
Rome,Trevi,41.9009778,12.483284973816568,4c7ce7b13e90a1cd8e9f43be,Tempio di Adriano,41.9000294461593,12.479352089158516,4bf58dd8d48988d12d941735,Monument / Landmark
Rome,Trevi,41.9009778,12.483284973816568,4adcdac9f964a520415421e3,Scuderie del Quirinale,41.898525,12.486526,4bf58dd8d48988d181941735,Museum
Rome,Trevi,41.9009778,12.483284973816568,555c8175498ebc6394eec575,Gelateria La Strega Nocciola,41.90414314197103,12.482596124462976,4bf58dd8d48988d1c9941735,Ice Cream Shop
Rome,Trevi,41.9009778,12.483284973816568,4c869f6174d7b60cc8bba5d8,Bartolucci,41.89982012622285,12.478811776928012,4bf58dd8d48988d1f3941735,Toy / Game Store
Rome,Trevi,41.9009778,12.483284973816568,4adcdacaf964a520675421e3,Galleria Doria Pamphilj,41.89804760497847,12.481598031797589,4bf58dd8d48988d1e2931735,Art Gallery
Rome,Trevi,41.9009778,12.483284973816568,564c78dc498ed4083476844f,tiger,41.90229586622414,12.483147181135259,4bf58dd8d48988d128951735,Gift Shop
Rome,Trevi,41.9009778,12.483284973816568,4c83de5874d7b60c71998dd8,Ristorante Sacro e Profano,41.90213245520063,12.484604491070128,4bf58dd8d48988d110941735,Italian Restaurant
Rome,Trevi,41.9009778,12.483284973816568,4df270d97d8b18e1722b4058,Palazzo Doria Pamphili,41.897846696599686,12.481533745858204,4deefb944765f83613cdba6e,Historic Site
Rome,Trevi,41.9009778,12.483284973816568,4e620f14e4cdf1e2bf1e97a0,Pizza in Trevi,41.900676166842146,12.483653388067092,4bf58dd8d48988d1ca941735,Pizza Place
Rome,Trevi,41.9009778,12.483284973816568,4bc0c562461576b00abb7a32,L'Antica Birreria Peroni,41.89901,12.4824,50327c8591d4c4b30a586d5d,Brewery
Rome,Trevi,41.9009778,12.483284973816568,51f170bc498ed0db5a651f20,Pinocchietto,41.901407170749096,12.48476768649416,4bf58dd8d48988d1f3941735,Toy / Game Store
Rome,Trevi,41.9009778,12.483284973816568,51ad048e498e65ee3ac6b5c6,The Albert,41.902327384591544,12.486102856598656,4bf58dd8d48988d116941735,Bar
Rome,Trevi,41.9009778,12.483284973816568,5618f1d2498ec636c21e115c,Giaroma,41.90195550213223,12.481824977702116,4bf58dd8d48988d110941735,Italian Restaurant
Rome,Trevi,41.9009778,12.483284973816568,4adcdad7f964a520625721e3,Galleria Alberto Sordi,41.90098822782426,12.480997958124295,4bf58dd8d48988d1fd941735,Shopping Mall
Rome,Trevi,41.9009778,12.483284973816568,4adcdacaf964a520cc5421e3,Al Moro,41.9005,12.48227,4bf58dd8d48988d110941735,Italian Restaurant
Rome,Trevi,41.9009778,12.483284973816568,4adcdac2f964a520115221e3,Gregory's Jazz Club,41.90427431856524,12.48526484295094,4bf58dd8d48988d1e7931735,Jazz Club
Rome,Trevi,41.9009778,12.483284973816568,51768972e4b090f99a3a28dc,Illy Shop,41.90447165903796,12.48356673905414,4bf58dd8d48988d16d941735,Café
Rome,Trevi,41.9009778,12.483284973816568,5adb78be35d3fc1c9d8bc165,L'antica Pizzeria Da Michele,41.899573,12.48402,4bf58dd8d48988d1ca941735,Pizza Place
Rome,Trevi,41.9009778,12.483284973816568,4f47e887e4b0525939a26931,Sofia,41.903929546980734,12.484857042124508,4bf58dd8d48988d110941735,Italian Restaurant
Rome,Trevi,41.9009778,12.483284973816568,4d43f220bbb1a143e8844072,SEPHORA,41.90309602,12.48574441,4bf58dd8d48988d10c951735,Cosmetics Shop
Rome,Trevi,41.9009778,12.483284973816568,4de8b128fa76fd1168a5fedd,Sora Lucia,41.90179085319178,12.484510851805014,4bf58dd8d48988d147941735,Diner
Rome,Trevi,41.9009778,12.483284973816568,4adcdacff964a520b25521e3,Ristorante Mario,41.90386608346594,12.48175333255579,4bf58dd8d48988d110941735,Italian Restaurant
Rome,Trevi,41.9009778,12.483284973816568,4efc8fb74690a04b140dff1e,Palazzo Sciarra,41.89977293168217,12.481073346826337,4bf58dd8d48988d18f941735,Art Museum
Rome,Trevi,41.9009778,12.483284973816568,4ca8b3d3a6e08cfaa7bc9194,Tech It Easy,41.90280723927854,12.480418692140274,4bf58dd8d48988d128951735,Gift Shop
Rome,Trevi,41.9009778,12.483284973816568,5257241b11d29fcd4e99090b,Infinity Hotel,41.90338496572945,12.47994802917426,4bf58dd8d48988d1fa931735,Hotel
Rome,Trevi,41.9009778,12.483284973816568,4adcdabff964a520595121e3,Hotel Trevi,41.90027531268503,12.48409568381232,4bf58dd8d48988d1fa931735,Hotel
Rome,Trevi,41.9009778,12.483284973816568,4cc40db838aaa0934ebb1062,Piazza di Sant'Ignazio,41.899288738456924,12.479704086178932,4bf58dd8d48988d164941735,Plaza
Rome,Trevi,41.9009778,12.483284973816568,4adcdac6f964a520395321e3,Obelisco di Monte Citorio,41.90061113044338,12.478559157770919,4bf58dd8d48988d164941735,Plaza
Rome,Trevi,41.9009778,12.483284973816568,4bf0312a7077952180593e7c,Giardino del Quirinale,41.900889593561594,12.487911214702763,4bf58dd8d48988d15a941735,Garden
Rome,Trevi,41.9009778,12.483284973816568,5601a0fa498ec7753f2131f4,da brunello restaurant,41.90003917207404,12.48025017448475,4bf58dd8d48988d110941735,Italian Restaurant
Rome,Trevi,41.9009778,12.483284973816568,5127a1b3e4b03d4580ddcf36,HQH Trevi,41.90291649430433,12.485695784679363,4bf58dd8d48988d1fa931735,Hotel
Rome,Trevi,41.9009778,12.483284973816568,4f218a1be4b0b69d78a4f6ff,Louis Vuitton,41.9038492,12.4788223,4bf58dd8d48988d104951735,Boutique
Rome,Trevi,41.9009778,12.483284973816568,50b10563e4b0d8a9f0b8d1d7,Pandora Concept Store,41.90383686425977,12.47958425035727,4bf58dd8d48988d111951735,Jewelry Store
Rome,Trevi,41.9009778,12.483284973816568,51b1be1f498e876c9fe71c62,Relais Roma Centro,41.902751,12.486311,4bf58dd8d48988d1f8931735,Bed & Breakfast
Rome,Trevi,41.9009778,12.483284973816568,4c8e960c1992a1cd4ff4defb,Hostaria Romana,41.902347,12.48729,4bf58dd8d48988d110941735,Italian Restaurant
Rome,Trevi,41.9009778,12.483284973816568,4adcdabff964a520695121e3,Pincio,41.90395953008208,12.484785055863014,4bf58dd8d48988d1fa931735,Hotel
Rome,Trevi,41.9009778,12.483284973816568,4e5a56ebaeb7d78d9f82b361,Fellini Inn,41.90226530709787,12.486567138581954,4bf58dd8d48988d1f8931735,Bed & Breakfast
Rome,Trevi,41.9009778,12.483284973816568,4e3fb8d08877b00cfc640dcc,Piazza Di S Marcello,41.89863279609275,12.481403883818434,4bf58dd8d48988d164941735,Plaza
Rome,Trevi,41.9009778,12.483284973816568,4e04cdab6284ff36f0396dc2,Palazzo Valentini,41.896691233968916,12.483806430363723,4deefb944765f83613cdba6e,Historic Site
Rome,Trevi,41.9009778,12.483284973816568,4adcdaccf964a5203f5521e3,Osteria dell'Ingegno,41.90006515418468,12.479572331183842,55a5a1ebe4b013909087cb7f,Trattoria/Osteria
Rome,Trevi,41.9009778,12.483284973816568,534579be498e4a04b7b352b9,Colonna dell'Immacolata,41.9049997437675,12.482881235923966,4bf58dd8d48988d12d941735,Monument / Landmark
Rome,Trevi,41.9009778,12.483284973816568,56464788498ef3dc0aad512b,Locanda Giulietta e Romeo,41.90114074047382,12.484356098562039,4bf58dd8d48988d1c4941735,Restaurant
Rome,Trevi,41.9009778,12.483284973816568,4b9d574ef964a52018a536e3,Ristorante Crispi 19,41.90336262328362,12.485544948485508,4bf58dd8d48988d110941735,Italian Restaurant
Rome,Trevi,41.9009778,12.483284973816568,4ea9aaeb29c2152deb00975a,Capranica Enoteca & Taverna,41.89998895197112,12.477761886284533,4bf58dd8d48988d110941735,Italian Restaurant
Rome,Trevi,41.9009778,12.483284973816568,546ce692498e774b5c830981,COS,41.904525776294385,12.480328130841318,4bf58dd8d48988d103951735,Clothing Store
Rome,Trevi,41.9009778,12.483284973816568,500af7ece4b02a36ea0f8f68,"Antica Trattoria ""Al Gallinaccio""",41.90230099689459,12.485731244087217,55a5a1ebe4b013909087cb7f,Trattoria/Osteria
Rome,Trevi,41.9009778,12.483284973816568,4dcc0d4dae60f205441cc474,Albergo Cesari,41.89994632427153,12.479833346650803,4bf58dd8d48988d1fa931735,Hotel
Rome,Trevi,41.9009778,12.483284973816568,5151e433e4b0b55cd32cfcbe,Tartufi & Friends,41.90440393645368,12.479728046627088,4bf58dd8d48988d110941735,Italian Restaurant
Rome,Trevi,41.9009778,12.483284973816568,4ca735c5b0b8236acda1a6e6,Gagosian Gallery,41.90341497755179,12.485562708794157,4bf58dd8d48988d1e2931735,Art Gallery
Rome,Trevi,41.9009778,12.483284973816568,4be6ed40bcef2d7fc39a05e5,Disney Store,41.90333139131454,12.479510004523503,4bf58dd8d48988d1f3941735,Toy / Game Store
Rome,Colonna,41.833718,12.753184,530b3f73498e7dc8f1164f6b,PAUSE - Beer Restaurant & Burger House,41.83238220214844,12.751518249511719,56aa371ce4b08b9a8d57356c,Beer Bar
Rome,Colonna,41.833718,12.753184,4e57efada8096558610ff3ee,Da Ciro,41.833313,12.752981,4bf58dd8d48988d1c4941735,Restaurant
Rome,Colonna,41.833718,12.753184,4d734d1f5838a09321c317db,Ristorante Taverna Antica Colonna,41.834396917496,12.750838225798699,4bf58dd8d48988d1df931735,BBQ Joint
Rome,Colonna,41.833718,12.753184,4ecaad77cc21b428e6c1a40b,Centro Sportivo Sant'Andrea,41.8304177764685,12.75445839228371,4bf58dd8d48988d15e941735,Pool
Rome,Campo Marzio,41.9046467,12.477055153077067,4f218a1be4b0b69d78a4f6ff,Louis Vuitton,41.9038492,12.4788223,4bf58dd8d48988d104951735,Boutique
Rome,Campo Marzio,41.9046467,12.477055153077067,5270d78011d2254b153c4b0a,J.K. Place Roma,41.904499929870205,12.476964038685278,4bf58dd8d48988d1fa931735,Hotel
Rome,Campo Marzio,41.9046467,12.477055153077067,57123127498ea9ddf6846517,Zuma Roma,41.90462399361811,12.478445931681245,4bf58dd8d48988d111941735,Japanese Restaurant
Rome,Campo Marzio,41.9046467,12.477055153077067,4ccc3941aa25a35d3b31130f,Piazza San Lorenzo in Lucina,41.90362723614342,12.478240702893375,4bf58dd8d48988d164941735,Plaza
Rome,Campo Marzio,41.9046467,12.477055153077067,4adcdac8f964a520f55321e3,Via del Corso,41.90499198925327,12.478752136230469,4bf58dd8d48988d1f9931735,Road
Rome,Campo Marzio,41.9046467,12.477055153077067,5a085618e7a2373bbff51dbb,Osteria Siciliana,41.90416,12.47805,4bf58dd8d48988d147941735,Diner
Rome,Campo Marzio,41.9046467,12.477055153077067,4adcdacff964a520be5521e3,Taverna Ripetta,41.904225040883446,12.475341650584397,55a5a1ebe4b013909087cb7f,Trattoria/Osteria
Rome,Campo Marzio,41.9046467,12.477055153077067,5a16bd2de179105d3ae25993,Lego Store,41.904789792757924,12.477454495980952,4bf58dd8d48988d1f3941735,Toy / Game Store
Rome,Campo Marzio,41.9046467,12.477055153077067,4f8183f4e4b0fdf50259430b,Ginger sapori e salute,41.904177516887934,12.479481697082518,4bf58dd8d48988d112941735,Juice Bar
Rome,Campo Marzio,41.9046467,12.477055153077067,5151e433e4b0b55cd32cfcbe,Tartufi & Friends,41.90440393645368,12.479728046627088,4bf58dd8d48988d110941735,Italian Restaurant
Rome,Campo Marzio,41.9046467,12.477055153077067,50b10563e4b0d8a9f0b8d1d7,Pandora Concept Store,41.90383686425977,12.47958425035727,4bf58dd8d48988d111951735,Jewelry Store
Rome,Campo Marzio,41.9046467,12.477055153077067,4c973ef5533aa0939e15d845,Museo dell'Ara Pacis,41.90574447228617,12.475521042915416,4bf58dd8d48988d18f941735,Art Museum
Rome,Campo Marzio,41.9046467,12.477055153077067,4adcdac3f964a520695221e3,Ciampini,41.90364057578211,12.478072152890318,4bf58dd8d48988d16d941735,Café
Rome,Campo Marzio,41.9046467,12.477055153077067,4c44b4c5dcd61b8dd0b77b56,Ponte Cavour,41.90496004935624,12.47424602508545,4bf58dd8d48988d1df941735,Bridge
Rome,Campo Marzio,41.9046467,12.477055153077067,4df3880c7d8b18e1722f3125,Venchi Cioccogelateria,41.9063173665377,12.480129222603694,4bf58dd8d48988d1c9941735,Ice Cream Shop
Rome,Campo Marzio,41.9046467,12.477055153077067,4adcdad3f964a520175721e3,Hermès,41.90516229475895,12.480582184216109,4bf58dd8d48988d102951735,Accessories Store
Rome,Campo Marzio,41.9046467,12.477055153077067,4be6ed40bcef2d7fc39a05e5,Disney Store,41.90333139131454,12.479510004523503,4bf58dd8d48988d1f3941735,Toy / Game Store
Rome,Campo Marzio,41.9046467,12.477055153077067,4eef417c93add02fce2d708c,Pompi,41.90641833068196,12.480571319300683,4bf58dd8d48988d1d0941735,Dessert Shop
Rome,Campo Marzio,41.9046467,12.477055153077067,4adcdac2f964a520025221e3,Giolitti,41.90110820957347,12.477202186270606,4bf58dd8d48988d1c9941735,Ice Cream Shop
Rome,Campo Marzio,41.9046467,12.477055153077067,4cca7b2ac010f04d2167efcc,Emporio Armani Roma,41.907328316371064,12.480253171543664,4bf58dd8d48988d104951735,Boutique
Rome,Campo Marzio,41.9046467,12.477055153077067,4d0a793427f8a35d9e982613,Ad Hoc,41.908048137418284,12.475930413897421,4bf58dd8d48988d110941735,Italian Restaurant
Rome,Campo Marzio,41.9046467,12.477055153077067,4adcdac6f964a520295321e3,Piazza di Spagna,41.9060459968911,12.482056617736816,4bf58dd8d48988d164941735,Plaza
Rome,Campo Marzio,41.9046467,12.477055153077067,5b2fa144610f04002c060e48,Cipasso,41.901772,12.473529,4bf58dd8d48988d123941735,Wine Bar
Rome,Campo Marzio,41.9046467,12.477055153077067,4da0bf5e0f578cfa235e7b18,La Tavernetta 48,41.90109,12.47558,4bf58dd8d48988d110941735,Italian Restaurant
Rome,Campo Marzio,41.9046467,12.477055153077067,5b0fa11f1f8ed6002cdac45d,Salvatore Di Matteo Le Gourmet,41.90514370354592,12.471955418586731,4bf58dd8d48988d1ca941735,Pizza Place
Rome,Campo Marzio,41.9046467,12.477055153077067,5283eabf498e1b50fb918173,Stella D'Oro,41.90572630298952,12.473273974577312,4bf58dd8d48988d145941735,Chinese Restaurant
Rome,Campo Marzio,41.9046467,12.477055153077067,5641f1b6498ee1ed9429e24f,Le carré français,41.905235529751195,12.47201488644283,52e81612bcbc57f1066b79f1,Bistro
Rome,Campo Marzio,41.9046467,12.477055153077067,4c3459017cc0c9b67221f39a,Piazza San Silvestro,41.90259290971248,12.481097321937163,4bf58dd8d48988d164941735,Plaza
Rome,Campo Marzio,41.9046467,12.477055153077067,4adcdac2f964a520165221e3,Antico Caffè Greco,41.90557515777896,12.481655805734745,4bf58dd8d48988d16d941735,Café
Rome,Campo Marzio,41.9046467,12.477055153077067,4adcdac9f964a520355421e3,Fontana della Barcaccia,41.905762760394836,12.48228261130683,56aa371be4b08b9a8d573547,Fountain
Rome,Campo Marzio,41.9046467,12.477055153077067,4adcdac6f964a5203a5321e3,Colonna di Marco Aurelio,41.90093027400436,12.480185023524555,4bf58dd8d48988d12d941735,Monument / Landmark
Rome,Campo Marzio,41.9046467,12.477055153077067,4df60a6e18386ecb4e38e1b2,The First Luxury Art Hotel Roma,41.90866060616259,12.475566182621264,4bf58dd8d48988d1fa931735,Hotel
Rome,Campo Marzio,41.9046467,12.477055153077067,555c8175498ebc6394eec575,Gelateria La Strega Nocciola,41.90414314197103,12.482596124462976,4bf58dd8d48988d1c9941735,Ice Cream Shop
Rome,Campo Marzio,41.9046467,12.477055153077067,4aabd1cff964a5203c5a20e3,Scalinata di Trinità dei Monti,41.90597413328674,12.482646703720091,4deefb944765f83613cdba6e,Historic Site
Rome,Campo Marzio,41.9046467,12.477055153077067,4adcdac3f964a520855221e3,Caffè Canova-Tadolini,41.907839190602125,12.47969095404611,4bf58dd8d48988d110941735,Italian Restaurant
Rome,Campo Marzio,41.9046467,12.477055153077067,4d022f6057e2a0935479d436,Zara,41.901666618067935,12.480356778790485,4bf58dd8d48988d103951735,Clothing Store
Rome,Campo Marzio,41.9046467,12.477055153077067,51c766d5498e90f6d4160cc3,Fatamorgana,41.90871481113162,12.477814354818594,4bf58dd8d48988d1c9941735,Ice Cream Shop
Rome,Campo Marzio,41.9046467,12.477055153077067,4adcdac2f964a520fd5121e3,Enoteca Buccone,41.909051895049075,12.476108388255481,4bf58dd8d48988d119951735,Wine Shop
Rome,Campo Marzio,41.9046467,12.477055153077067,4bee65ef35dc0f470bcc3f5b,Piazza Colonna,41.901027637203924,12.480237051514422,4bf58dd8d48988d164941735,Plaza
Rome,Campo Marzio,41.9046467,12.477055153077067,4adcdacaf964a520ad5421e3,Hamasei,41.903421771450915,12.482469625853788,4bf58dd8d48988d111941735,Japanese Restaurant
Rome,Campo Marzio,41.9046467,12.477055153077067,5190d9e8498ef32210cde4a1,Antica Osteria Brunetti,41.909131251194346,12.476649412051898,55a5a1ebe4b013909087cb7f,Trattoria/Osteria
Rome,Campo Marzio,41.9046467,12.477055153077067,4d0f829cc3dc3704eafb3274,LUSH,41.90883044404498,12.477117054488026,4bf58dd8d48988d10c951735,Cosmetics Shop
Rome,Campo Marzio,41.9046467,12.477055153077067,4ced00ee4cd4236ae876a563,Pupina,41.905917415894464,12.471606378442749,4bf58dd8d48988d1c4941735,Restaurant
Rome,Campo Marzio,41.9046467,12.477055153077067,4adcdaccf964a5203a5521e3,Edy,41.90883535270867,12.479010378784688,4bf58dd8d48988d110941735,Italian Restaurant
Rome,Campo Marzio,41.9046467,12.477055153077067,4e442b1dae605a14b7e33cda,Ristorante Brunetti,41.909096721828035,12.476622510619377,4bf58dd8d48988d110941735,Italian Restaurant
Rome,Campo Marzio,41.9046467,12.477055153077067,4c5136620ef3a5934d099e7b,Ristorante La Francescana,41.90557495246202,12.47120595081414,4bf58dd8d48988d110941735,Italian Restaurant
Rome,Campo Marzio,41.9046467,12.477055153077067,4bd1fa6ea8b3a5936fd9665f,Hostaria Dell'orso,41.90220014972487,12.472193347084515,4bf58dd8d48988d110941735,Italian Restaurant
Rome,Campo Marzio,41.9046467,12.477055153077067,4bf48a5a13a6b71364395d33,Piazza Mignanelli,41.905016353919,12.482992475843789,4bf58dd8d48988d164941735,Plaza
Rome,Campo Marzio,41.9046467,12.477055153077067,4ca0a2f77c096dcbde96e8d1,Taverna del Corso,41.90872615531645,12.477170634544736,4bf58dd8d48988d110941735,Italian Restaurant
Rome,Campo Marzio,41.9046467,12.477055153077067,4ce3f20a05f7a0933120a328,Jo Malone,41.90882578908592,12.478497134495209,4bf58dd8d48988d10c951735,Cosmetics Shop
Rome,Campo Marzio,41.9046467,12.477055153077067,57e9520ecd10e174a239993a,AS Roma Official Store,41.90868000172754,12.477180606166774,4bf58dd8d48988d1f2941735,Sporting Goods Shop
Rome,Campo Marzio,41.9046467,12.477055153077067,4adcdabef964a5201b5121e3,Hotel Dei Mellini,41.9074092172743,12.472376039793248,4bf58dd8d48988d1fa931735,Hotel
Rome,Campo Marzio,41.9046467,12.477055153077067,4c9404dc58d4b60cc7d42429,Cabala,41.90200776212773,12.472312623014998,4bf58dd8d48988d11f941735,Nightclub
Rome,Campo Marzio,41.9046467,12.477055153077067,4c4f081b92b6a5938eebe870,la Feltrinelli,41.908968217809395,12.47835719756373,4bf58dd8d48988d114951735,Bookstore
Rome,Campo Marzio,41.9046467,12.477055153077067,4d9094d33bfef04dd037c686,Duegi,41.90902551,12.47825129,4bf58dd8d48988d110941735,Italian Restaurant
Rome,Parione,41.89735765,12.471102470129265,557c6c08498e4837f65cbf4b,G-Rough,41.897786881969076,12.47227954638726,4bf58dd8d48988d1fa931735,Hotel
Rome,Parione,41.89735765,12.471102470129265,4c49fab99c8d2d7f9e69e668,Frigidarium,41.89829373805058,12.470566970920304,4bf58dd8d48988d1c9941735,Ice Cream Shop
Rome,Parione,41.89735765,12.471102470129265,58da9ead7220e62a2580bb4a,Two Sizes,41.89804758670326,12.471558376859273,4bf58dd8d48988d1d0941735,Dessert Shop
Rome,Parione,41.89735765,12.471102470129265,4e68b4a7d22df5c11f6b54bd,PanDivino,41.8965308965701,12.472999617402747,4bf58dd8d48988d1c5941735,Sandwich Place
Rome,Parione,41.89735765,12.471102470129265,4adcdac8f964a520e55321e3,Campo de' Fiori,41.895702283600706,12.4720196946437,4bf58dd8d48988d164941735,Plaza
Rome,Parione,41.89735765,12.471102470129265,4bbb84013de8c9b6f0d899ad,Barnum Cafè,41.897079,12.469898,4bf58dd8d48988d16d941735,Café
Rome,Parione,41.89735765,12.471102470129265,50be6475e4b018b4ed9a01b5,Baguetteria Del Fico,41.89915,12.47074,4bf58dd8d48988d1c5941735,Sandwich Place
Rome,Parione,41.89735765,12.471102470129265,59ced9972bf9a92cf2f7576c,Pantaleo,41.897083328924786,12.472776215971166,4bf58dd8d48988d121941735,Lounge
Rome,Parione,41.89735765,12.471102470129265,4e51864dd164978659e7ad5a,Mimì e Cocò,41.89808329489454,12.471409615464415,4bf58dd8d48988d123941735,Wine Bar
Rome,Parione,41.89735765,12.471102470129265,4c7d3ec2d598a0933945c262,Palazzo Olivia,41.89736690569441,12.471569831646494,4bf58dd8d48988d1fa931735,Hotel
Rome,Parione,41.89735765,12.471102470129265,4adcdac9f964a520f95321e3,Fontana del Moro,41.8980612615042,12.473235634793305,56aa371be4b08b9a8d573547,Fountain
Rome,Parione,41.89735765,12.471102470129265,4d84a28b8de9721e0fa23451,Cantina e Cucina,41.8980017968182,12.471656830324028,4bf58dd8d48988d110941735,Italian Restaurant
Rome,Parione,41.89735765,12.471102470129265,5377a1e5498eda27e043a8e7,My Ale,41.89686794616527,12.46989976946625,4bf58dd8d48988d1c5941735,Sandwich Place
Rome,Parione,41.89735765,12.471102470129265,4adcdad2f964a520c55621e3,Forno Campo de' Fiori,41.895807535774246,12.471559156578298,4bf58dd8d48988d16a941735,Bakery
Rome,Parione,41.89735765,12.471102470129265,55bfb41e498e2c78a78289f7,Da Simo,41.89864187679503,12.470838880139095,55a5a1ebe4b013909087cb92,Roman Restaurant
Rome,Parione,41.89735765,12.471102470129265,4adcdac9f964a520055421e3,Fontana dei Quattro Fiumi,41.89896683723093,12.473131782782303,56aa371be4b08b9a8d573547,Fountain
Rome,Parione,41.89735765,12.471102470129265,4f993931e4b0c6c0284fbe46,Osteria da Fortunata,41.8961382845701,12.471767219809147,55a5a1ebe4b013909087cb7f,Trattoria/Osteria
Rome,Parione,41.89735765,12.471102470129265,4adcdacff964a520b85521e3,Pierluigi,41.89668157460224,12.46867850225854,4bf58dd8d48988d110941735,Italian Restaurant
Rome,Parione,41.89735765,12.471102470129265,4c508d3fd797e21eb756a07a,Altroquando,41.89795186323171,12.47187422582372,4bf58dd8d48988d114951735,Bookstore
Rome,Parione,41.89735765,12.471102470129265,54246436498eaeaf64ccc7a7,Space 23,41.896650833988076,12.473301970244552,4bf58dd8d48988d1f2941735,Sporting Goods Shop
Rome,Parione,41.89735765,12.471102470129265,4adcdac6f964a520285321e3,Piazza Navona,41.89923909819951,12.473184388488416,4bf58dd8d48988d164941735,Plaza
Rome,Parione,41.89735765,12.471102470129265,4be6a68b910020a13c7ed414,Da Francesco,41.89937864811634,12.470429012861235,4bf58dd8d48988d110941735,Italian Restaurant
Rome,Parione,41.89735765,12.471102470129265,4fa2d149e4b08c046b5116fc,Piazza di S. Pantaleo,41.897000528196784,12.472738623619078,4bf58dd8d48988d164941735,Plaza
Rome,Parione,41.89735765,12.471102470129265,4ba54993f964a5205ef638e3,Etabli,41.89961755963721,12.470518819298157,4bf58dd8d48988d123941735,Wine Bar
Rome,Parione,41.89735765,12.471102470129265,58aed607ec980f4401c3257c,La Prosciutteria Navona,41.89905144282323,12.46939041968273,4bf58dd8d48988d146941735,Deli / Bodega
Rome,Parione,41.89735765,12.471102470129265,4adcdacff964a520a25521e3,Hostaria Costanza,41.89597,12.47351,4bf58dd8d48988d110941735,Italian Restaurant
Rome,Parione,41.89735765,12.471102470129265,4adcdac6f964a520035321e3,Basilica di Sant'Andrea della Valle,41.89628,12.474383,4bf58dd8d48988d132941735,Church
Rome,Parione,41.89735765,12.471102470129265,536fb52e498eddbbc8a75236,Caffè Braschi by Vivi Bistrot,41.8980227900141,12.47305463105932,52e81612bcbc57f1066b79f1,Bistro
Rome,Parione,41.89735765,12.471102470129265,4d0114f9202e224b340db72a,Hotel Campo De' Fiori,41.89555772587295,12.472915604389609,4bf58dd8d48988d1fa931735,Hotel
Rome,Parione,41.89735765,12.471102470129265,57d17645498e6c37e41140e2,Pizzeria Romana al taglio,41.899299,12.469132,4bf58dd8d48988d1ca941735,Pizza Place
Rome,Parione,41.89735765,12.471102470129265,4ecdab27e3007feb7a637f9a,The Jerry Thomas Project,41.89798434899642,12.468002657768388,4bf58dd8d48988d1d4941735,Speakeasy
Rome,Parione,41.89735765,12.471102470129265,56749cb8498eb9c89c409673,Per Me - Giulio Terrinoni,41.89726509705172,12.467463201444918,4bf58dd8d48988d1c4941735,Restaurant
Rome,Parione,41.89735765,12.471102470129265,526d66cf11d274c038eb915d,SeC Sedie E Cantine,41.89987749464118,12.47005451877619,4bf58dd8d48988d1c4941735,Restaurant
Rome,Parione,41.89735765,12.471102470129265,4c01491cd715c92875d9fce3,Il Goccetto,41.8978224266521,12.467379882074916,4bf58dd8d48988d123941735,Wine Bar
Rome,Parione,41.89735765,12.471102470129265,4adcdacaf964a520895421e3,Chiostro del Bramante,41.9001004374591,12.471533898156158,4bf58dd8d48988d18f941735,Art Museum
Rome,Parione,41.89735765,12.471102470129265,4adcdacaf964a520c25421e3,Ristorante Baires,41.896905515704944,12.474285617017292,4bf58dd8d48988d107941735,Argentinian Restaurant
Rome,Parione,41.89735765,12.471102470129265,51322482e4b01d3a6a9bcf09,Pasticceria De Bellis,41.896282607250406,12.47396569907103,4bf58dd8d48988d1d0941735,Dessert Shop
Rome,Parione,41.89735765,12.471102470129265,5434ebb2498ec648be180148,Palazzo Navona Hotel,41.89768677069511,12.474483992927807,4bf58dd8d48988d1fa931735,Hotel
Rome,Parione,41.89735765,12.471102470129265,56f7143bcd10b3ee14eab800,ZUM,41.89621415807527,12.47275060339053,4bf58dd8d48988d1bc941735,Cupcake Shop
Rome,Parione,41.89735765,12.471102470129265,4adcdac9f964a520065421e3,Fontana del Nettuno,41.899729589074305,12.473060601200002,56aa371be4b08b9a8d573547,Fountain
Rome,Parione,41.89735765,12.471102470129265,5804e89238faa014648b52ad,H eitch Borromini,41.898869,12.472745,4bf58dd8d48988d1fa931735,Hotel
Rome,Parione,41.89735765,12.471102470129265,4adcdac2f964a5200a5221e3,Bar del Fico,41.89945587530815,12.47065106047182,4bf58dd8d48988d11e941735,Cocktail Bar
Rome,Parione,41.89735765,12.471102470129265,4cab9c802f08236afdc58761,Osteria Del Pegno,41.90014747328393,12.470888502407412,4bf58dd8d48988d110941735,Italian Restaurant
Rome,Parione,41.89735765,12.471102470129265,4dd81369d1647fcf3e5b2431,Antica Trattoria Polese,41.89828486903483,12.4677230494677,55a5a1ebe4b013909087cb7f,Trattoria/Osteria
Rome,Parione,41.89735765,12.471102470129265,4c3abc73be4620a1fc4c0b13,Wonderfool,41.89926782825417,12.467923520447219,4bf58dd8d48988d1ed941735,Spa
Rome,Parione,41.89735765,12.471102470129265,4b4e3495f964a52035e526e3,Gelateria del Teatro,41.900463,12.469451,4bf58dd8d48988d1c9941735,Ice Cream Shop
Rome,Parione,41.89735765,12.471102470129265,59249e4e175562798d408ff5,Terrazza Borromini,41.898942,12.472663,4bf58dd8d48988d16d941735,Café
Rome,Parione,41.89735765,12.471102470129265,4ecd61e8f790d07035063b71,Made Creative Bakery,41.900500473548114,12.471060323767018,52e81612bcbc57f1066b7a0a,Pie Shop
Rome,Parione,41.89735765,12.471102470129265,573b987a498e4ff77644fb1b,Bread-in,41.90048311593216,12.47285904721448,4bf58dd8d48988d1c5941735,Sandwich Place
Rome,Parione,41.89735765,12.471102470129265,4e6a152f52b1c1205fa368ee,Grom,41.90006267405074,12.473147215610672,4bf58dd8d48988d1c9941735,Ice Cream Shop
Rome,Parione,41.89735765,12.471102470129265,4bf7c6e95317a593958bfe7e,"Osteria ""La Quercia""",41.894557,12.471702,4bf58dd8d48988d110941735,Italian Restaurant
Rome,Parione,41.89735765,12.471102470129265,53de4276498ed10c9eaeb9b7,Chiquita Fruit Bar,41.89752830698608,12.474158640990996,4bf58dd8d48988d112941735,Juice Bar
Rome,Parione,41.89735765,12.471102470129265,4adcdaccf964a5202a5521e3,L'Insalata Ricca - Largo dei Chiavari,41.89638069488245,12.474085404589497,4bf58dd8d48988d1bd941735,Salad Place
Rome,Parione,41.89735765,12.471102470129265,5536a122498efb6c9c73d18c,Mamma Roma,41.897686914254315,12.474094605365499,4bf58dd8d48988d110941735,Italian Restaurant
Rome,Parione,41.89735765,12.471102470129265,4c3b7412def90f4723f9fd2d,Ponte e Parione,41.89940552969532,12.472294145194109,4bf58dd8d48988d110941735,Italian Restaurant
Rome,Parione,41.89735765,12.471102470129265,4adcdac0f964a520915121e3,Raphaël Hotel,41.899968223418384,12.47204725714038,4bf58dd8d48988d1fa931735,Hotel
Rome,Parione,41.89735765,12.471102470129265,4db7c1f3fa8c377d83af9c8d,Albergo Lunetta,41.89596048807989,12.473514699343342,4bf58dd8d48988d1fa931735,Hotel
Rome,Parione,41.89735765,12.471102470129265,50cf8a80e4b0262ef456e605,Pietro Valentini Ristorante,41.90008270319971,12.473632319637968,4bf58dd8d48988d110941735,Italian Restaurant
Rome,Parione,41.89735765,12.471102470129265,4c27b781ed0ac9b6cd265faa,La Focaccia,41.8995725856852,12.471428392179341,4bf58dd8d48988d1ca941735,Pizza Place
Rome,Parione,41.89735765,12.471102470129265,4bdeba5fffdec9283a5de9a1,Antico Forno Roscioli,41.894624313352836,12.474326707965298,4bf58dd8d48988d16a941735,Bakery
Rome,Parione,41.89735765,12.471102470129265,4bb04ca3f964a52037403ce3,Da Pancrazio,41.895473,12.473,4bf58dd8d48988d110941735,Italian Restaurant
Rome,Parione,41.89735765,12.471102470129265,4be375cd2fc7d13a2d8d083a,Ristorante Fiammetta,41.90091702454193,12.472246227337685,4bf58dd8d48988d110941735,Italian Restaurant
Rome,Parione,41.89735765,12.471102470129265,4c6eb36106ed6dcbd372a722,Osteria dell' Anima,41.899713377126176,12.472202490935077,4bf58dd8d48988d110941735,Italian Restaurant
Rome,Parione,41.89735765,12.471102470129265,5a4cfe28f96b2c69e299ba69,I Dolci Di Nonna Vincenza,41.89408981458509,12.473106772549862,4bf58dd8d48988d1d0941735,Dessert Shop
Rome,Parione,41.89735765,12.471102470129265,4d07d63d14b73704803ad750,La Pollarola,41.89593171604396,12.473133239715127,4bf58dd8d48988d1c4941735,Restaurant
Rome,Parione,41.89735765,12.471102470129265,4f79d2a1e4b025cca4fdf2dd,Piazza di Sant'Andrea della Valle,41.896574823377456,12.474227747698233,4bf58dd8d48988d164941735,Plaza
Rome,Parione,41.89735765,12.471102470129265,4adcdacaf964a5207b5421e3,Palazzo Altemps,41.90076984019772,12.473156392850095,4bf58dd8d48988d18f941735,Art Museum
Rome,Parione,41.89735765,12.471102470129265,4af867d8f964a520f10c22e3,Sant'Eustachio Il Caffè,41.89827,12.475379,4bf58dd8d48988d16d941735,Café
Rome,Parione,41.89735765,12.471102470129265,58f36492a87921558c62b443,Risotteria Melotti,41.899912,12.469996,4bf58dd8d48988d110941735,Italian Restaurant
Rome,Parione,41.89735765,12.471102470129265,4dc3e01d922e0c63b7341c76,Roscioli,41.89425,12.47431,4bf58dd8d48988d1f5941735,Gourmet Shop
Rome,Parione,41.89735765,12.471102470129265,569ce053498e49ebb4008aa8,Roscioli CAFFè - pasticceria,41.894206258050566,12.474553676709009,4bf58dd8d48988d16d941735,Café
Rome,Parione,41.89735765,12.471102470129265,5388df60498e1afc163697b8,Emma,41.89475814792712,12.475082357778922,4bf58dd8d48988d1ca941735,Pizza Place
Rome,Parione,41.89735765,12.471102470129265,5940530d340a58645f3c3aa6,Cucina Del Teatro,41.900425,12.469434,4bf58dd8d48988d110941735,Italian Restaurant
Rome,Parione,41.89735765,12.471102470129265,517ad2f6e4b080db98bc4ab6,Il Ritrovo del Gusto,41.900526185181484,12.470806287698926,4bf58dd8d48988d110941735,Italian Restaurant
Rome,Parione,41.89735765,12.471102470129265,4d5128c5529dcbffdb2eddc4,Trattoria da Alfredo e Ada,41.899669120696515,12.46723167290152,55a5a1ebe4b013909087cb7f,Trattoria/Osteria
Rome,Parione,41.89735765,12.471102470129265,4d9623fc647d8cfa563db23d,Ristorante Archimede,41.89811976303226,12.475624265942646,4bf58dd8d48988d110941735,Italian Restaurant
Rome,Parione,41.89735765,12.471102470129265,4e5c06e3e4cd6fcf27eb735f,Ristorante Il San Lorenzo,41.89524479241537,12.474180435660857,4bf58dd8d48988d1ce941735,Seafood Restaurant
Rome,Parione,41.89735765,12.471102470129265,522c6ac411d2036be3b24150,Pasta Imperiale,41.900604,12.46859,4bf58dd8d48988d110941735,Italian Restaurant
Rome,Parione,41.89735765,12.471102470129265,4adcdac4f964a520895221e3,Casa Bleve,41.89753281062618,12.475041814504669,4bf58dd8d48988d123941735,Wine Bar
Rome,Parione,41.89735765,12.471102470129265,50666c3de4b0da4f1f74f149,Rome River Inn,41.89742100151468,12.465609908700793,4bf58dd8d48988d1f8931735,Bed & Breakfast
Rome,Parione,41.89735765,12.471102470129265,500c467aebca2b447b182ed6,Coromandel,41.89965415791285,12.469897619541065,4bf58dd8d48988d143941735,Breakfast Spot
Rome,Parione,41.89735765,12.471102470129265,4adcdacff964a520c15521e3,Santa Lucia,41.90010881456604,12.472258288835134,4bf58dd8d48988d1ce941735,Seafood Restaurant
Rome,Parione,41.89735765,12.471102470129265,4f7f72b0e4b077c18146cb80,Antica Salumeria,41.899209,12.476511,4bf58dd8d48988d1c5941735,Sandwich Place
Rome,Parione,41.89735765,12.471102470129265,4adcdacbf964a520d95421e3,Eau Vive (L'),41.89769179793449,12.475737619649937,4bf58dd8d48988d10c941735,French Restaurant
Rome,Parione,41.89735765,12.471102470129265,4fd8a54ee4b0a8876244db0a,Punto Gelato,41.89317883516482,12.471797019880892,4bf58dd8d48988d1c9941735,Ice Cream Shop
Rome,Parione,41.89735765,12.471102470129265,57af13ef498e2bf4f18ac9a7,La Salumeria,41.89991163459097,12.466622131262136,4bf58dd8d48988d110941735,Italian Restaurant
Rome,Parione,41.89735765,12.471102470129265,52c15f2f498ec7812e37fc00,Likeat,41.899707944593736,12.466326961263242,4bf58dd8d48988d1c5941735,Sandwich Place
Rome,Parione,41.89735765,12.471102470129265,4e823de561af88d2d7b02b1c,Via Di Panico,41.900262283257604,12.467601365008523,4bf58dd8d48988d164941735,Plaza
Rome,Parione,41.89735765,12.471102470129265,5136562ae4b0a9c8faae7c17,La Ciambella,41.89686733953095,12.476912252384432,4bf58dd8d48988d1c4941735,Restaurant
Rome,Parione,41.89735765,12.471102470129265,51e3c812498e7d225eaba75a,Regola Suite,41.8934108342694,12.4731068225922,4bf58dd8d48988d1fa931735,Hotel
Rome,Parione,41.89735765,12.471102470129265,57489cb1498e2fafe5578b86,Rooftop Restaurant Raphaël Hotel,41.899828,12.472054,4bf58dd8d48988d110941735,Italian Restaurant
Rome,Parione,41.89735765,12.471102470129265,4b815a15f964a520ffa030e3,Open Baladin,41.89362735616544,12.474441362237012,56aa371ce4b08b9a8d57356c,Beer Bar
Rome,Parione,41.89735765,12.471102470129265,4adcdabff964a520755121e3,Hotel Napoleon Roma,41.89629,12.47562,4bf58dd8d48988d1fa931735,Hotel
Rome,Parione,41.89735765,12.471102470129265,50eec85ae4b03df11b9e0413,Vini & Cucina,41.89683982987756,12.476408635318691,4bf58dd8d48988d1ca941735,Pizza Place
Rome,Parione,41.89735765,12.471102470129265,4b064e94f964a5209fea22e3,La Feltrinelli,41.89608030265462,12.476668846042841,4bf58dd8d48988d114951735,Bookstore
Rome,Parione,41.89735765,12.471102470129265,4c0296a8413bb7131e599921,sangallo ai coronari,41.9006069038693,12.469284717331817,4bf58dd8d48988d110941735,Italian Restaurant
Rome,Parione,41.89735765,12.471102470129265,4ee903615c5c99a2dca56d8f,Il Vinaietto,41.89459271235853,12.474943399429321,4bf58dd8d48988d123941735,Wine Bar
Rome,Parione,41.89735765,12.471102470129265,4c9105867f3b8cfa9e39991e,Dar Filettaro A Santa Barbara,41.8946054087672,12.47350443702365,4bf58dd8d48988d1ce941735,Seafood Restaurant
Rome,Parione,41.89735765,12.471102470129265,54be62b8498e0cca7c532481,Solopasta,41.900140984475655,12.469892148635418,4bf58dd8d48988d110941735,Italian Restaurant
Rome,Parione,41.89735765,12.471102470129265,4cacc81997c8a1cde2dfa3a5,Ristorante Montevecchio,41.900131,12.470962,4bf58dd8d48988d110941735,Italian Restaurant
Rome,Regola,41.894375,12.471030186272873,4adcdac8f964a520e55321e3,Campo de' Fiori,41.895702283600706,12.4720196946437,4bf58dd8d48988d164941735,Plaza
Rome,Regola,41.894375,12.471030186272873,5a4cfe28f96b2c69e299ba69,I Dolci Di Nonna Vincenza,41.89408981458509,12.473106772549862,4bf58dd8d48988d1d0941735,Dessert Shop
Rome,Regola,41.894375,12.471030186272873,4adcdad2f964a520c55621e3,Forno Campo de' Fiori,41.895807535774246,12.471559156578298,4bf58dd8d48988d16a941735,Bakery
Rome,Regola,41.894375,12.471030186272873,53922bea498ee0e5e0b0360e,Pianostrada Laboratorio di Cucina,41.892849684553134,12.472046613693237,4bf58dd8d48988d110941735,Italian Restaurant
Rome,Regola,41.894375,12.471030186272873,4f993931e4b0c6c0284fbe46,Osteria da Fortunata,41.8961382845701,12.471767219809147,55a5a1ebe4b013909087cb7f,Trattoria/Osteria
Rome,Regola,41.894375,12.471030186272873,4fd8a54ee4b0a8876244db0a,Punto Gelato,41.89317883516482,12.471797019880892,4bf58dd8d48988d1c9941735,Ice Cream Shop
Rome,Regola,41.894375,12.471030186272873,4d0114f9202e224b340db72a,Hotel Campo De' Fiori,41.89555772587295,12.472915604389609,4bf58dd8d48988d1fa931735,Hotel
Rome,Regola,41.894375,12.471030186272873,4bf7c6e95317a593958bfe7e,"Osteria ""La Quercia""",41.894557,12.471702,4bf58dd8d48988d110941735,Italian Restaurant
Rome,Regola,41.894375,12.471030186272873,51e3c812498e7d225eaba75a,Regola Suite,41.8934108342694,12.4731068225922,4bf58dd8d48988d1fa931735,Hotel
Rome,Regola,41.894375,12.471030186272873,4bdeba5fffdec9283a5de9a1,Antico Forno Roscioli,41.894624313352836,12.474326707965298,4bf58dd8d48988d16a941735,Bakery
Rome,Regola,41.894375,12.471030186272873,4dc3e01d922e0c63b7341c76,Roscioli,41.89425,12.47431,4bf58dd8d48988d1f5941735,Gourmet Shop
Rome,Regola,41.894375,12.471030186272873,569ce053498e49ebb4008aa8,Roscioli CAFFè - pasticceria,41.894206258050566,12.474553676709009,4bf58dd8d48988d16d941735,Café
Rome,Regola,41.894375,12.471030186272873,4e68b4a7d22df5c11f6b54bd,PanDivino,41.8965308965701,12.472999617402747,4bf58dd8d48988d1c5941735,Sandwich Place
Rome,Regola,41.894375,12.471030186272873,4adcdacff964a520a25521e3,Hostaria Costanza,41.89597,12.47351,4bf58dd8d48988d110941735,Italian Restaurant
Rome,Regola,41.894375,12.471030186272873,4ba8e59ef964a5201ff839e3,Piazza Trilussa,41.89182965100398,12.469993198021283,4bf58dd8d48988d164941735,Plaza
Rome,Regola,41.894375,12.471030186272873,5377a1e5498eda27e043a8e7,My Ale,41.89686794616527,12.46989976946625,4bf58dd8d48988d1c5941735,Sandwich Place
Rome,Regola,41.894375,12.471030186272873,59d07a95dee77042f8861b9a,Trapizzino Trilussa,41.89164109701531,12.470058018151445,4bf58dd8d48988d1c5941735,Sandwich Place
Rome,Regola,41.894375,12.471030186272873,4bbb84013de8c9b6f0d899ad,Barnum Cafè,41.897079,12.469898,4bf58dd8d48988d16d941735,Café
Rome,Regola,41.894375,12.471030186272873,4b815a15f964a520ffa030e3,Open Baladin,41.89362735616544,12.474441362237012,56aa371ce4b08b9a8d57356c,Beer Bar
Rome,Regola,41.894375,12.471030186272873,4b157a56f964a52071ad23e3,Ma Che Siete Venuti A Fà,41.891743486258214,12.469147502251712,4bf58dd8d48988d11b941735,Pub
Rome,Regola,41.894375,12.471030186272873,4adcdac6f964a520035321e3,Basilica di Sant'Andrea della Valle,41.89628,12.474383,4bf58dd8d48988d132941735,Church
Rome,Regola,41.894375,12.471030186272873,4adcdacff964a520b85521e3,Pierluigi,41.89668157460224,12.46867850225854,4bf58dd8d48988d110941735,Italian Restaurant
Rome,Regola,41.894375,12.471030186272873,59ced9972bf9a92cf2f7576c,Pantaleo,41.897083328924786,12.472776215971166,4bf58dd8d48988d121941735,Lounge
Rome,Regola,41.894375,12.471030186272873,4bb04ca3f964a52037403ce3,Da Pancrazio,41.895473,12.473,4bf58dd8d48988d110941735,Italian Restaurant
Rome,Regola,41.894375,12.471030186272873,5388df60498e1afc163697b8,Emma,41.89475814792712,12.475082357778922,4bf58dd8d48988d1ca941735,Pizza Place
Rome,Regola,41.894375,12.471030186272873,4c7d3ec2d598a0933945c262,Palazzo Olivia,41.89736690569441,12.471569831646494,4bf58dd8d48988d1fa931735,Hotel
Rome,Regola,41.894375,12.471030186272873,559524af498e0f11be76499b,Sto bene,41.893393037730036,12.472798049287737,4bf58dd8d48988d1c5941735,Sandwich Place
Rome,Regola,41.894375,12.471030186272873,54246436498eaeaf64ccc7a7,Space 23,41.896650833988076,12.473301970244552,4bf58dd8d48988d1f2941735,Sporting Goods Shop
Rome,Regola,41.894375,12.471030186272873,51322482e4b01d3a6a9bcf09,Pasticceria De Bellis,41.896282607250406,12.47396569907103,4bf58dd8d48988d1d0941735,Dessert Shop
Rome,Regola,41.894375,12.471030186272873,56f7143bcd10b3ee14eab800,ZUM,41.89621415807527,12.47275060339053,4bf58dd8d48988d1bc941735,Cupcake Shop
Rome,Regola,41.894375,12.471030186272873,4b428edcf964a5207dd625e3,Pimm's Good,41.89197,12.4684,4bf58dd8d48988d116941735,Bar
Rome,Regola,41.894375,12.471030186272873,4b7937a6f964a52075ef2ee3,Bir & Fud,41.891761,12.468928,4bf58dd8d48988d155941735,Gastropub
Rome,Regola,41.894375,12.471030186272873,4be948c3d837c9b6c933a606,La Boccaccia,41.891993443740766,12.468485437579647,4bf58dd8d48988d1ca941735,Pizza Place
Rome,Regola,41.894375,12.471030186272873,4fa2d149e4b08c046b5116fc,Piazza di S. Pantaleo,41.897000528196784,12.472738623619078,4bf58dd8d48988d164941735,Plaza
Rome,Regola,41.894375,12.471030186272873,557c6c08498e4837f65cbf4b,G-Rough,41.897786881969076,12.47227954638726,4bf58dd8d48988d1fa931735,Hotel
Rome,Regola,41.894375,12.471030186272873,5749c702cd1031dbb9dc5406,Essenza,41.891814336074454,12.467821302026593,52e81612bcbc57f1066b79f1,Bistro
Rome,Regola,41.894375,12.471030186272873,50f1c922e4b0419675ce50b9,Tastevere Km0,41.89127161712304,12.470006753798478,50327c8591d4c4b30a586d5d,Brewery
Rome,Regola,41.894375,12.471030186272873,4c9105867f3b8cfa9e39991e,Dar Filettaro A Santa Barbara,41.8946054087672,12.47350443702365,4bf58dd8d48988d1ce941735,Seafood Restaurant
Rome,Regola,41.894375,12.471030186272873,56819d98498ebbbf582e570c,Tiepolo,41.89356284546283,12.475659230121913,52e81612bcbc57f1066b79f1,Bistro
Rome,Regola,41.894375,12.471030186272873,4e5c06e3e4cd6fcf27eb735f,Ristorante Il San Lorenzo,41.89524479241537,12.474180435660857,4bf58dd8d48988d1ce941735,Seafood Restaurant
Rome,Regola,41.894375,12.471030186272873,4d9225439d0f721e57812673,Enoteca Ferrara,41.891332,12.470277,4bf58dd8d48988d1c4941735,Restaurant
Rome,Regola,41.894375,12.471030186272873,58da9ead7220e62a2580bb4a,Two Sizes,41.89804758670326,12.471558376859273,4bf58dd8d48988d1d0941735,Dessert Shop
Rome,Regola,41.894375,12.471030186272873,4bf717cdb182c9b69221755a,"Rivendita Libri, Cioccolata e Vino",41.89079728889894,12.46937577243714,4bf58dd8d48988d11a941735,Other Nightlife
Rome,Regola,41.894375,12.471030186272873,4b463a89f964a520c21a26e3,Taverna Trilussa,41.890683094660616,12.471348158697301,4bf58dd8d48988d110941735,Italian Restaurant
Rome,Regola,41.894375,12.471030186272873,4db7c1f3fa8c377d83af9c8d,Albergo Lunetta,41.89596048807989,12.473514699343342,4bf58dd8d48988d1fa931735,Hotel
Rome,Regola,41.894375,12.471030186272873,4d84a28b8de9721e0fa23451,Cantina e Cucina,41.8980017968182,12.471656830324028,4bf58dd8d48988d110941735,Italian Restaurant
Rome,Regola,41.894375,12.471030186272873,4adcdacaf964a520c25421e3,Ristorante Baires,41.896905515704944,12.474285617017292,4bf58dd8d48988d107941735,Argentinian Restaurant
Rome,Regola,41.894375,12.471030186272873,4e51864dd164978659e7ad5a,Mimì e Cocò,41.89808329489454,12.471409615464415,4bf58dd8d48988d123941735,Wine Bar
Rome,Regola,41.894375,12.471030186272873,4d07d63d14b73704803ad750,La Pollarola,41.89593171604396,12.473133239715127,4bf58dd8d48988d1c4941735,Restaurant
Rome,Regola,41.894375,12.471030186272873,56749cb8498eb9c89c409673,Per Me - Giulio Terrinoni,41.89726509705172,12.467463201444918,4bf58dd8d48988d1c4941735,Restaurant
Rome,Regola,41.894375,12.471030186272873,4c49fab99c8d2d7f9e69e668,Frigidarium,41.89829373805058,12.470566970920304,4bf58dd8d48988d1c9941735,Ice Cream Shop
Rome,Regola,41.894375,12.471030186272873,4ee903615c5c99a2dca56d8f,Il Vinaietto,41.89459271235853,12.474943399429321,4bf58dd8d48988d123941735,Wine Bar
Rome,Regola,41.894375,12.471030186272873,500b24a2e4b0e95404810275,Gelateria del Teatro,41.89173927243407,12.473857386372664,4bf58dd8d48988d1c9941735,Ice Cream Shop
Rome,Regola,41.894375,12.471030186272873,4c508d3fd797e21eb756a07a,Altroquando,41.89795186323171,12.47187422582372,4bf58dd8d48988d114951735,Bookstore
Rome,Regola,41.894375,12.471030186272873,5921957c8c35dc7bbd2b141a,La Tavernetta Di Tony E Andrea,41.89041780646583,12.470331890676478,4bf58dd8d48988d1c4941735,Restaurant
Rome,Regola,41.894375,12.471030186272873,4adcdaccf964a5202a5521e3,L'Insalata Ricca - Largo dei Chiavari,41.89638069488245,12.474085404589497,4bf58dd8d48988d1bd941735,Salad Place
Rome,Regola,41.894375,12.471030186272873,54a9304f498e51ca1dbd9ee7,La Prosciutteria,41.890663353051025,12.468548293973516,4bf58dd8d48988d110941735,Italian Restaurant
Rome,Regola,41.894375,12.471030186272873,4adcdac9f964a520f95321e3,Fontana del Moro,41.8980612615042,12.473235634793305,56aa371be4b08b9a8d573547,Fountain
Rome,Regola,41.894375,12.471030186272873,4fca816de4b00af05084c2b2,Kuriya,41.89224984577419,12.474745076378627,4bf58dd8d48988d142941735,Asian Restaurant
Rome,Regola,41.894375,12.471030186272873,4c01491cd715c92875d9fce3,Il Goccetto,41.8978224266521,12.467379882074916,4bf58dd8d48988d123941735,Wine Bar
Rome,Regola,41.894375,12.471030186272873,50897a66e4b0e290320e95bd,Osteria Romana,41.89320135824218,12.473413952982366,4bf58dd8d48988d110941735,Italian Restaurant
Rome,Regola,41.894375,12.471030186272873,51ab0cb7498e5a9d443ed433,Vizi Capitali,41.8905229784808,12.471280700769029,4bf58dd8d48988d1ce941735,Seafood Restaurant
Rome,Regola,41.894375,12.471030186272873,4b6c9ac3f964a520f5452ce3,Bar del Cinque,41.89047999857089,12.469117455098672,4bf58dd8d48988d11e941735,Cocktail Bar
Rome,Regola,41.894375,12.471030186272873,55bfb41e498e2c78a78289f7,Da Simo,41.89864187679503,12.470838880139095,55a5a1ebe4b013909087cb92,Roman Restaurant
Rome,Regola,41.894375,12.471030186272873,4adcdacff964a520ce5521e3,Glass,41.89046986318982,12.469102318831368,4bf58dd8d48988d1c4941735,Restaurant
Rome,Regola,41.894375,12.471030186272873,4ecdab27e3007feb7a637f9a,The Jerry Thomas Project,41.89798434899642,12.468002657768388,4bf58dd8d48988d1d4941735,Speakeasy
Rome,Regola,41.894375,12.471030186272873,53c2d702498e0bc6cc880002,DanEl Tavernae,41.89514025799527,12.475121703383627,4bf58dd8d48988d110941735,Italian Restaurant
Rome,Regola,41.894375,12.471030186272873,5434ebb2498ec648be180148,Palazzo Navona Hotel,41.89768677069511,12.474483992927807,4bf58dd8d48988d1fa931735,Hotel
Rome,Regola,41.894375,12.471030186272873,4cfe2a79084f548118fc8e09,Pizzeria Florida,41.894819,12.476838,4bf58dd8d48988d1ca941735,Pizza Place
Rome,Regola,41.894375,12.471030186272873,4f79d2a1e4b025cca4fdf2dd,Piazza di Sant'Andrea della Valle,41.896574823377456,12.474227747698233,4bf58dd8d48988d164941735,Plaza
Rome,Regola,41.894375,12.471030186272873,56c1dcc4cd106e68d1114826,Dar Poeta alla Scala,41.890595286694335,12.468578998645643,4bf58dd8d48988d1ca941735,Pizza Place
Rome,Regola,41.894375,12.471030186272873,4bfe6e104cf820a1c9d4edf4,OldBridge Gelateria,41.89319716937253,12.475015318184179,4bf58dd8d48988d1c9941735,Ice Cream Shop
Rome,Regola,41.894375,12.471030186272873,536fb52e498eddbbc8a75236,Caffè Braschi by Vivi Bistrot,41.8980227900141,12.47305463105932,52e81612bcbc57f1066b79f1,Bistro
Rome,Regola,41.894375,12.471030186272873,4da47ffc2939b1f76ec73357,Piazza Benedetto Cairoli,41.893746555284565,12.4755000642316,4bf58dd8d48988d163941735,Park
Rome,Regola,41.894375,12.471030186272873,590c326d59fe5c461e2b6768,Hotel Dei Barbeiri,41.895122,12.475897,4bf58dd8d48988d1fa931735,Hotel
Rome,Regola,41.894375,12.471030186272873,4adcdacbf964a520db5421e3,Sora Margherita,41.89274075403826,12.476531706118218,4bf58dd8d48988d110941735,Italian Restaurant
Rome,Regola,41.894375,12.471030186272873,53de4276498ed10c9eaeb9b7,Chiquita Fruit Bar,41.89752830698608,12.474158640990996,4bf58dd8d48988d112941735,Juice Bar
Rome,Regola,41.894375,12.471030186272873,4b4f8e13f964a520410b27e3,Renato e Luisa,41.895160779731555,12.475900918575658,4bf58dd8d48988d110941735,Italian Restaurant
Rome,Regola,41.894375,12.471030186272873,4f0c374fe4b0f72c81365eed,Urbani Antico Forno del Ghetto,41.893255010433336,12.47667829819568,4bf58dd8d48988d16a941735,Bakery
Rome,Regola,41.894375,12.471030186272873,4e4d90147d8b4ee35c62b168,Nanní,41.89085441741843,12.47277495298755,4bf58dd8d48988d117941735,Beer Garden
Rome,Regola,41.894375,12.471030186272873,4adcdabff964a520755121e3,Hotel Napoleon Roma,41.89629,12.47562,4bf58dd8d48988d1fa931735,Hotel
Rome,Regola,41.894375,12.471030186272873,55ab93eb498ec4f8ab1ad8b4,Catinari,41.893540260764446,12.476059701156105,55a5a1ebe4b013909087cb92,Roman Restaurant
Rome,Regola,41.894375,12.471030186272873,5536a122498efb6c9c73d18c,Mamma Roma,41.897686914254315,12.474094605365499,4bf58dd8d48988d110941735,Italian Restaurant
Rome,Regola,41.894375,12.471030186272873,4fa51b52e4b052ea29604709,As Roma Store,41.89405867691207,12.475982640272044,4bf58dd8d48988d1f2941735,Sporting Goods Shop
Rome,Regola,41.894375,12.471030186272873,4adcdad0f964a520f95521e3,Teatro Argentina,41.89560904804407,12.476401483159647,4bf58dd8d48988d137941735,Theater
Rome,Regola,41.894375,12.471030186272873,5a6f396bf1fdaf2a3c63af07,Gran Caffè Rione VIII,41.8936,12.476273,4bf58dd8d48988d16d941735,Café
Rome,Regola,41.894375,12.471030186272873,4b50ca8ef964a520b83227e3,Al Pompiere,41.89325,12.47574,4bf58dd8d48988d110941735,Italian Restaurant
Rome,Regola,41.894375,12.471030186272873,52ac41c2498e0c21e0d9bb70,Tiger,41.8940809402724,12.47492544605106,4bf58dd8d48988d1f8941735,Furniture / Home Store
Rome,Regola,41.894375,12.471030186272873,4adcdacbf964a520de5421e3,Piperno,41.8924,12.47577,4bf58dd8d48988d110941735,Italian Restaurant
Rome,Regola,41.894375,12.471030186272873,4adcdac4f964a520895221e3,Casa Bleve,41.89753281062618,12.475041814504669,4bf58dd8d48988d123941735,Wine Bar
Rome,Regola,41.894375,12.471030186272873,4d78f9214b30a143001e9ccb,Beppe e i Suoi Formaggi,41.89338101148419,12.476401557391364,4bf58dd8d48988d11e951735,Cheese Shop
Rome,Regola,41.894375,12.471030186272873,50c36100e4b076c8e3c1d5d0,Bocca di Dama,41.89382045430449,12.47568228587721,4bf58dd8d48988d1dc931735,Tea Room
Rome,Regola,41.894375,12.471030186272873,4bdea0b66198c9b6775814ff,Boccione - il Forno del Ghetto,41.89314945491826,12.476845377471905,4bf58dd8d48988d16a941735,Bakery
Rome,Sant'Eustachio,41.898244,12.4753209,4adcdac9f964a520055421e3,Fontana dei Quattro Fiumi,41.89896683723093,12.473131782782303,56aa371be4b08b9a8d573547,Fountain
Rome,Sant'Eustachio,41.898244,12.4753209,4adcdac6f964a5202f5321e3,Pantheon,41.89913348171708,12.47680466523532,4bf58dd8d48988d12d941735,Monument / Landmark
Rome,Sant'Eustachio,41.898244,12.4753209,4adcdac6f964a520285321e3,Piazza Navona,41.89923909819951,12.473184388488416,4bf58dd8d48988d164941735,Plaza
Rome,Sant'Eustachio,41.898244,12.4753209,4be05668358fef3b6858648a,Piazza della Rotonda,41.89925302095499,12.476778774611859,4bf58dd8d48988d164941735,Plaza
Rome,Sant'Eustachio,41.898244,12.4753209,5420af88498e07904383c23d,Fontana del Pantheon,41.899337310617085,12.476774477395674,56aa371be4b08b9a8d573547,Fountain
Rome,Sant'Eustachio,41.898244,12.4753209,4f7f72b0e4b077c18146cb80,Antica Salumeria,41.899209,12.476511,4bf58dd8d48988d1c5941735,Sandwich Place
Rome,Sant'Eustachio,41.898244,12.4753209,4adcdac9f964a520f95321e3,Fontana del Moro,41.8980612615042,12.473235634793305,56aa371be4b08b9a8d573547,Fountain
Rome,Sant'Eustachio,41.898244,12.4753209,4adcdac4f964a5208a5221e3,Tazza d'Oro,41.89943500478219,12.477359207618287,4bf58dd8d48988d1e0931735,Coffee Shop
Rome,Sant'Eustachio,41.898244,12.4753209,4adcdac6f964a520035321e3,Basilica di Sant'Andrea della Valle,41.89628,12.474383,4bf58dd8d48988d132941735,Church
Rome,Sant'Eustachio,41.898244,12.4753209,4bd842eae914a5935ac352fa,Fiocco Di Neve at the Pantheon,41.89988462037772,12.476702018879315,4bf58dd8d48988d1c9941735,Ice Cream Shop
Rome,Sant'Eustachio,41.898244,12.4753209,4c0236e19a7920a1a12ace79,Albergo Del Senato,41.899185603061476,12.476947545598017,4bf58dd8d48988d1fa931735,Hotel
Rome,Sant'Eustachio,41.898244,12.4753209,4adcdac8f964a520d95321e3,Basilica di Santa Maria sopra Minerva,41.897892395979135,12.477571732523685,4bf58dd8d48988d132941735,Church
Rome,Sant'Eustachio,41.898244,12.4753209,4adcdacaf964a520c25421e3,Ristorante Baires,41.896905515704944,12.474285617017292,4bf58dd8d48988d107941735,Argentinian Restaurant
Rome,Sant'Eustachio,41.898244,12.4753209,5434ebb2498ec648be180148,Palazzo Navona Hotel,41.89768677069511,12.474483992927807,4bf58dd8d48988d1fa931735,Hotel
Rome,Sant'Eustachio,41.898244,12.4753209,5136562ae4b0a9c8faae7c17,La Ciambella,41.89686733953095,12.476912252384432,4bf58dd8d48988d1c4941735,Restaurant
Rome,Sant'Eustachio,41.898244,12.4753209,557c6c08498e4837f65cbf4b,G-Rough,41.897786881969076,12.47227954638726,4bf58dd8d48988d1fa931735,Hotel
Rome,Sant'Eustachio,41.898244,12.4753209,59ced9972bf9a92cf2f7576c,Pantaleo,41.897083328924786,12.472776215971166,4bf58dd8d48988d121941735,Lounge
Rome,Sant'Eustachio,41.898244,12.4753209,4e68b4a7d22df5c11f6b54bd,PanDivino,41.8965308965701,12.472999617402747,4bf58dd8d48988d1c5941735,Sandwich Place
Rome,Sant'Eustachio,41.898244,12.4753209,4af867d8f964a520f10c22e3,Sant'Eustachio Il Caffè,41.89827,12.475379,4bf58dd8d48988d16d941735,Café
Rome,Sant'Eustachio,41.898244,12.4753209,4adcdac9f964a520065421e3,Fontana del Nettuno,41.899729589074305,12.473060601200002,56aa371be4b08b9a8d573547,Fountain
Rome,Sant'Eustachio,41.898244,12.4753209,4d9623fc647d8cfa563db23d,Ristorante Archimede,41.89811976303226,12.475624265942646,4bf58dd8d48988d110941735,Italian Restaurant
Rome,Sant'Eustachio,41.898244,12.4753209,50cf8a80e4b0262ef456e605,Pietro Valentini Ristorante,41.90008270319971,12.473632319637968,4bf58dd8d48988d110941735,Italian Restaurant
Rome,Sant'Eustachio,41.898244,12.4753209,54246436498eaeaf64ccc7a7,Space 23,41.896650833988076,12.473301970244552,4bf58dd8d48988d1f2941735,Sporting Goods Shop
Rome,Sant'Eustachio,41.898244,12.4753209,536fb52e498eddbbc8a75236,Caffè Braschi by Vivi Bistrot,41.8980227900141,12.47305463105932,52e81612bcbc57f1066b79f1,Bistro
Rome,Sant'Eustachio,41.898244,12.4753209,51cace42498eb06f107ca80e,La Casa Del Cafe,41.89939827116926,12.477389574050903,4bf58dd8d48988d16d941735,Café
Rome,Sant'Eustachio,41.898244,12.4753209,51322482e4b01d3a6a9bcf09,Pasticceria De Bellis,41.896282607250406,12.47396569907103,4bf58dd8d48988d1d0941735,Dessert Shop
Rome,Sant'Eustachio,41.898244,12.4753209,50eec85ae4b03df11b9e0413,Vini & Cucina,41.89683982987756,12.476408635318691,4bf58dd8d48988d1ca941735,Pizza Place
Rome,Sant'Eustachio,41.898244,12.4753209,4e6a152f52b1c1205fa368ee,Grom,41.90006267405074,12.473147215610672,4bf58dd8d48988d1c9941735,Ice Cream Shop
Rome,Sant'Eustachio,41.898244,12.4753209,4bf9366ed4cdb71381e984fe,Grano,41.89995204111427,12.47585734847098,4bf58dd8d48988d110941735,Italian Restaurant
Rome,Sant'Eustachio,41.898244,12.4753209,4adcdac9f964a520025421e3,Piazza della Maddalena,41.90012956653841,12.476582928171622,4bf58dd8d48988d164941735,Plaza
Rome,Sant'Eustachio,41.898244,12.4753209,51eaac8b498e9caed1d195d1,Lindt,41.9002245178682,12.476590492265661,52f2ab2ebcbc57f1066b8b31,Chocolate Shop
Rome,Sant'Eustachio,41.898244,12.4753209,58da9ead7220e62a2580bb4a,Two Sizes,41.89804758670326,12.471558376859273,4bf58dd8d48988d1d0941735,Dessert Shop
Rome,Sant'Eustachio,41.898244,12.4753209,4adcdac9f964a520365421e3,Largo di Torre Argentina,41.895797054670886,12.476851876633738,4bf58dd8d48988d164941735,Plaza
Rome,Sant'Eustachio,41.898244,12.4753209,52643cd211d29a41e5268164,Ciucculá,41.89930125028298,12.477157557865493,4bf58dd8d48988d1c9941735,Ice Cream Shop
Rome,Sant'Eustachio,41.898244,12.4753209,573b987a498e4ff77644fb1b,Bread-in,41.90048311593216,12.47285904721448,4bf58dd8d48988d1c5941735,Sandwich Place
Rome,Sant'Eustachio,41.898244,12.4753209,50e43f98e4b0b781c2362b32,Pizza e Mozzarella,41.89759761479189,12.479097450483923,4bf58dd8d48988d1ca941735,Pizza Place
Rome,Sant'Eustachio,41.898244,12.4753209,4adcdacff964a520b15521e3,La Sacrestia,41.89904431490425,12.477562891102794,4bf58dd8d48988d110941735,Italian Restaurant
Rome,Sant'Eustachio,41.898244,12.4753209,4fa2d149e4b08c046b5116fc,Piazza di S. Pantaleo,41.897000528196784,12.472738623619078,4bf58dd8d48988d164941735,Plaza
Rome,Sant'Eustachio,41.898244,12.4753209,4ea9aaeb29c2152deb00975a,Capranica Enoteca & Taverna,41.89998895197112,12.477761886284533,4bf58dd8d48988d110941735,Italian Restaurant
Rome,Sant'Eustachio,41.898244,12.4753209,4adcdacff964a520a25521e3,Hostaria Costanza,41.89597,12.47351,4bf58dd8d48988d110941735,Italian Restaurant
Rome,Sant'Eustachio,41.898244,12.4753209,4bd4c7337b1876b037cc8986,L'Angoletto,41.89992530734818,12.475963764525334,4bf58dd8d48988d110941735,Italian Restaurant
Rome,Sant'Eustachio,41.898244,12.4753209,4adcdac3f964a520605221e3,Armando al Pantheon,41.89899471760667,12.476243037028656,4bf58dd8d48988d110941735,Italian Restaurant
Rome,Sant'Eustachio,41.898244,12.4753209,53de4276498ed10c9eaeb9b7,Chiquita Fruit Bar,41.89752830698608,12.474158640990996,4bf58dd8d48988d112941735,Juice Bar
Rome,Sant'Eustachio,41.898244,12.4753209,4adcdacbf964a520d95421e3,Eau Vive (L'),41.89769179793449,12.475737619649937,4bf58dd8d48988d10c941735,French Restaurant
Rome,Sant'Eustachio,41.898244,12.4753209,4b064e94f964a5209fea22e3,La Feltrinelli,41.89608030265462,12.476668846042841,4bf58dd8d48988d114951735,Bookstore
Rome,Sant'Eustachio,41.898244,12.4753209,4d84a28b8de9721e0fa23451,Cantina e Cucina,41.8980017968182,12.471656830324028,4bf58dd8d48988d110941735,Italian Restaurant
Rome,Sant'Eustachio,41.898244,12.4753209,4adcdacaf964a520aa5421e3,La Rosetta,41.89968161345601,12.47653922507542,4bf58dd8d48988d1ce941735,Seafood Restaurant
Rome,Sant'Eustachio,41.898244,12.4753209,4cbdbc677148f04db9aeeeab,Piazza della Minerva,41.89791319790584,12.477421262870187,4bf58dd8d48988d164941735,Plaza
Rome,Sant'Eustachio,41.898244,12.4753209,4c508d3fd797e21eb756a07a,Altroquando,41.89795186323171,12.47187422582372,4bf58dd8d48988d114951735,Bookstore
Rome,Sant'Eustachio,41.898244,12.4753209,4cefaa663b03f04daaea3fdc,Antica Trattoria da Pietro al Pantheon,41.89948701392108,12.477778981188784,4bf58dd8d48988d110941735,Italian Restaurant
Rome,Sant'Eustachio,41.898244,12.4753209,5479b49b498e8f49363232c2,I Vicini Bistrot,41.896681,12.476356,52e81612bcbc57f1066b79f1,Bistro
Rome,Sant'Eustachio,41.898244,12.4753209,5479fb8e498eb0840a398218,Don Nino Pantheon,41.899381498663416,12.477339461889606,4bf58dd8d48988d1c9941735,Ice Cream Shop
Rome,Sant'Eustachio,41.898244,12.4753209,5a059d634420d83e4cc1a3ad,Gelato Sicily,41.899985,12.476124,55a5a1ebe4b013909087cb86,Sicilian Restaurant
Rome,Sant'Eustachio,41.898244,12.4753209,4c869f6174d7b60cc8bba5d8,Bartolucci,41.89982012622285,12.478811776928012,4bf58dd8d48988d1f3941735,Toy / Game Store
Rome,Sant'Eustachio,41.898244,12.4753209,4adcdac2f964a5201c5221e3,Gelateria della Palma,41.90055093098359,12.47656016882902,4bf58dd8d48988d1c9941735,Ice Cream Shop
Rome,Sant'Eustachio,41.898244,12.4753209,4b9be853f964a520603436e3,Cul de Sac,41.89783908384543,12.47222389457509,4bf58dd8d48988d110941735,Italian Restaurant
Rome,Sant'Eustachio,41.898244,12.4753209,4e51864dd164978659e7ad5a,Mimì e Cocò,41.89808329489454,12.471409615464415,4bf58dd8d48988d123941735,Wine Bar
Rome,Sant'Eustachio,41.898244,12.4753209,5536a122498efb6c9c73d18c,Mamma Roma,41.897686914254315,12.474094605365499,4bf58dd8d48988d110941735,Italian Restaurant
Rome,Sant'Eustachio,41.898244,12.4753209,4c7d3ec2d598a0933945c262,Palazzo Olivia,41.89736690569441,12.471569831646494,4bf58dd8d48988d1fa931735,Hotel
Rome,Sant'Eustachio,41.898244,12.4753209,4adcdaccf964a5202a5521e3,L'Insalata Ricca - Largo dei Chiavari,41.89638069488245,12.474085404589497,4bf58dd8d48988d1bd941735,Salad Place
Rome,Sant'Eustachio,41.898244,12.4753209,4adcdacaf964a5207b5421e3,Palazzo Altemps,41.90076984019772,12.473156392850095,4bf58dd8d48988d18f941735,Art Museum
Rome,Sant'Eustachio,41.898244,12.4753209,54b2b221498e05ece87975ae,Locanda del Prosciutto,41.89723,12.47864,4bf58dd8d48988d110941735,Italian Restaurant
Rome,Sant'Eustachio,41.898244,12.4753209,4da0bf5e0f578cfa235e7b18,La Tavernetta 48,41.90109,12.47558,4bf58dd8d48988d110941735,Italian Restaurant
Rome,Sant'Eustachio,41.898244,12.4753209,5804e89238faa014648b52ad,H eitch Borromini,41.898869,12.472745,4bf58dd8d48988d1fa931735,Hotel
Rome,Sant'Eustachio,41.898244,12.4753209,4dfe32fc1f6e1ee122e60fa1,Piazza Capranica,41.8999699593652,12.477708961954779,4bf58dd8d48988d164941735,Plaza
Rome,Sant'Eustachio,41.898244,12.4753209,4e1457a9483bfda2e0a4b221,Gelateria Quinto,41.89922146542422,12.472074061152393,4bf58dd8d48988d1c9941735,Ice Cream Shop
Rome,Sant'Eustachio,41.898244,12.4753209,5516b0b9498efa5147ff8430,Il Panino Ingegnoso,41.89998191151652,12.479194782088841,4bf58dd8d48988d1c5941735,Sandwich Place
Rome,Sant'Eustachio,41.898244,12.4753209,56d1d038498e7ef4ffb3f47a,solo Gastronomia & vineria,41.89936532908245,12.472276431661058,55a5a1ebe4b013909087cb92,Roman Restaurant
Rome,Sant'Eustachio,41.898244,12.4753209,4f79d2a1e4b025cca4fdf2dd,Piazza di Sant'Andrea della Valle,41.896574823377456,12.474227747698233,4bf58dd8d48988d164941735,Plaza
Rome,Sant'Eustachio,41.898244,12.4753209,4c9dd3ebca44236a0d742499,Trattoria Antonio,41.899482994800145,12.477716973141687,4bf58dd8d48988d110941735,Italian Restaurant
Rome,Sant'Eustachio,41.898244,12.4753209,4adcdaccf964a5203d5521e3,Maccheroni,41.90063261023389,12.475968122521227,4bf58dd8d48988d110941735,Italian Restaurant
Rome,Sant'Eustachio,41.898244,12.4753209,4adcdabff964a520755121e3,Hotel Napoleon Roma,41.89629,12.47562,4bf58dd8d48988d1fa931735,Hotel
Rome,Sant'Eustachio,41.898244,12.4753209,51476e73e4b0702d38c76718,Sapore di Mare,41.89737111325406,12.478758033028319,4bf58dd8d48988d1ce941735,Seafood Restaurant
Rome,Sant'Eustachio,41.898244,12.4753209,4adcdac2f964a520025221e3,Giolitti,41.90110820957347,12.477202186270606,4bf58dd8d48988d1c9941735,Ice Cream Shop
Rome,Sant'Eustachio,41.898244,12.4753209,4bfdaddaf7c82d7f1a908e04,Osteria Del Sostegno,41.899986517217734,12.477312909044919,55a5a1ebe4b013909087cb7f,Trattoria/Osteria
Rome,Sant'Eustachio,41.898244,12.4753209,4adcdac4f964a520895221e3,Casa Bleve,41.89753281062618,12.475041814504669,4bf58dd8d48988d123941735,Wine Bar
Rome,Sant'Eustachio,41.898244,12.4753209,5add59051953f3476a70e97e,"The Pantheon Iconic Rome Hotel, Autograph Collection",41.898034,12.475947,4bf58dd8d48988d1fa931735,Hotel
Rome,Sant'Eustachio,41.898244,12.4753209,51b4880f498e7b6cd72b965c,Casa Museo Mario Praz,41.89928723047136,12.472142955379267,4bf58dd8d48988d181941735,Museum
Rome,Sant'Eustachio,41.898244,12.4753209,4adcdacaf964a520895421e3,Chiostro del Bramante,41.9001004374591,12.471533898156158,4bf58dd8d48988d18f941735,Art Museum
Rome,Sant'Eustachio,41.898244,12.4753209,59249e4e175562798d408ff5,Terrazza Borromini,41.898942,12.472663,4bf58dd8d48988d16d941735,Café
Rome,Sant'Eustachio,41.898244,12.4753209,4c138d5bb7b9c9286daca937,Piazza di Pietra,41.900053374587394,12.479294207804463,4bf58dd8d48988d164941735,Plaza
Rome,Sant'Eustachio,41.898244,12.4753209,505e14b4e4b0fae5e948b53d,PanePiù Bistrot,41.8950670329996,12.477221431608962,4bf58dd8d48988d1c5941735,Sandwich Place
Rome,Sant'Eustachio,41.898244,12.4753209,4c49fab99c8d2d7f9e69e668,Frigidarium,41.89829373805058,12.470566970920304,4bf58dd8d48988d1c9941735,Ice Cream Shop
Rome,Sant'Eustachio,41.898244,12.4753209,5958fe8fb1538e23f94b91fc,Damaso Hotel,41.8967855174137,12.47225737702679,4bf58dd8d48988d1fa931735,Hotel
Rome,Sant'Eustachio,41.898244,12.4753209,4adcdac8f964a520e55321e3,Campo de' Fiori,41.895702283600706,12.4720196946437,4bf58dd8d48988d164941735,Plaza
Rome,Sant'Eustachio,41.898244,12.4753209,4be375cd2fc7d13a2d8d083a,Ristorante Fiammetta,41.90091702454193,12.472246227337685,4bf58dd8d48988d110941735,Italian Restaurant
Rome,Sant'Eustachio,41.898244,12.4753209,55bfb41e498e2c78a78289f7,Da Simo,41.89864187679503,12.470838880139095,55a5a1ebe4b013909087cb92,Roman Restaurant
Rome,Sant'Eustachio,41.898244,12.4753209,4d0114f9202e224b340db72a,Hotel Campo De' Fiori,41.89555772587295,12.472915604389609,4bf58dd8d48988d1fa931735,Hotel
Rome,Sant'Eustachio,41.898244,12.4753209,50be6475e4b018b4ed9a01b5,Baguetteria Del Fico,41.89915,12.47074,4bf58dd8d48988d1c5941735,Sandwich Place
Rome,Sant'Eustachio,41.898244,12.4753209,5388df60498e1afc163697b8,Emma,41.89475814792712,12.475082357778922,4bf58dd8d48988d1ca941735,Pizza Place
Rome,Sant'Eustachio,41.898244,12.4753209,507723cae4b051090689fb64,Osteria delle Coppelle,41.900890315013946,12.476069355265263,4bf58dd8d48988d11e941735,Cocktail Bar
Rome,Sant'Eustachio,41.898244,12.4753209,51f8013a498ed9e704bccfdb,Enoteca Novecento,41.90070101340039,12.47582720774805,4bf58dd8d48988d11e941735,Cocktail Bar
Rome,Sant'Eustachio,41.898244,12.4753209,535ce8e4498e876ea3cc9d86,ice c rome,41.897965,12.471796,4bf58dd8d48988d1d0941735,Dessert Shop
Rome,Sant'Eustachio,41.898244,12.4753209,4bdeba5fffdec9283a5de9a1,Antico Forno Roscioli,41.894624313352836,12.474326707965298,4bf58dd8d48988d16a941735,Bakery
Rome,Sant'Eustachio,41.898244,12.4753209,4f993931e4b0c6c0284fbe46,Osteria da Fortunata,41.8961382845701,12.471767219809147,55a5a1ebe4b013909087cb7f,Trattoria/Osteria
Rome,Sant'Eustachio,41.898244,12.4753209,4c0fedc1f1b6a593f1137b27,Casa Coppelle,41.900849421774964,12.475976912593842,55a5a1ebe4b013909087cb92,Roman Restaurant
Rome,Sant'Eustachio,41.898244,12.4753209,4c7ce7b13e90a1cd8e9f43be,Tempio di Adriano,41.9000294461593,12.479352089158516,4bf58dd8d48988d12d941735,Monument / Landmark
Rome,Sant'Eustachio,41.898244,12.4753209,5b2fa144610f04002c060e48,Cipasso,41.901772,12.473529,4bf58dd8d48988d123941735,Wine Bar
Rome,Sant'Eustachio,41.898244,12.4753209,4c3b7412def90f4723f9fd2d,Ponte e Parione,41.89940552969532,12.472294145194109,4bf58dd8d48988d110941735,Italian Restaurant
Rome,Sant'Eustachio,41.898244,12.4753209,56883a7c498e74877e9cf5a8,Retrobottega,41.90167207655271,12.475255692454297,52e81612bcbc57f1066b79f1,Bistro
Rome,Pigna,41.89711585,12.479195768321528,50e43f98e4b0b781c2362b32,Pizza e Mozzarella,41.89759761479189,12.479097450483923,4bf58dd8d48988d1ca941735,Pizza Place
Rome,Pigna,41.89711585,12.479195768321528,4adcdac8f964a520d95321e3,Basilica di Santa Maria sopra Minerva,41.897892395979135,12.477571732523685,4bf58dd8d48988d132941735,Church
Rome,Pigna,41.89711585,12.479195768321528,4df270d97d8b18e1722b4058,Palazzo Doria Pamphili,41.897846696599686,12.481533745858204,4deefb944765f83613cdba6e,Historic Site
Rome,Pigna,41.89711585,12.479195768321528,4bf4885d13a6b713f8385d33,San Marcello al Corso,41.89859386692398,12.481445831084763,4bf58dd8d48988d132941735,Church
Rome,Pigna,41.89711585,12.479195768321528,5136562ae4b0a9c8faae7c17,La Ciambella,41.89686733953095,12.476912252384432,4bf58dd8d48988d1c4941735,Restaurant
Rome,Pigna,41.89711585,12.479195768321528,54b2b221498e05ece87975ae,Locanda del Prosciutto,41.89723,12.47864,4bf58dd8d48988d110941735,Italian Restaurant
Rome,Pigna,41.89711585,12.479195768321528,4adcdac9f964a520365421e3,Largo di Torre Argentina,41.895797054670886,12.476851876633738,4bf58dd8d48988d164941735,Plaza
Rome,Pigna,41.89711585,12.479195768321528,4adcdacaf964a520675421e3,Galleria Doria Pamphilj,41.89804760497847,12.481598031797589,4bf58dd8d48988d1e2931735,Art Gallery
Rome,Pigna,41.89711585,12.479195768321528,4adcdac7f964a520b45321e3,Palazzo Venezia,41.895965,12.481852,4bf58dd8d48988d12d941735,Monument / Landmark
Rome,Pigna,41.89711585,12.479195768321528,4adcdac6f964a5202f5321e3,Pantheon,41.89913348171708,12.47680466523532,4bf58dd8d48988d12d941735,Monument / Landmark
Rome,Pigna,41.89711585,12.479195768321528,505e14b4e4b0fae5e948b53d,PanePiù Bistrot,41.8950670329996,12.477221431608962,4bf58dd8d48988d1c5941735,Sandwich Place
Rome,Pigna,41.89711585,12.479195768321528,4adcdac6f964a520465321e3,Piazza Venezia,41.895746560967744,12.48244572340433,4bf58dd8d48988d164941735,Plaza
Rome,Pigna,41.89711585,12.479195768321528,4b064e94f964a5209fea22e3,La Feltrinelli,41.89608030265462,12.476668846042841,4bf58dd8d48988d114951735,Bookstore
Rome,Pigna,41.89711585,12.479195768321528,4c869f6174d7b60cc8bba5d8,Bartolucci,41.89982012622285,12.478811776928012,4bf58dd8d48988d1f3941735,Toy / Game Store
Rome,Pigna,41.89711585,12.479195768321528,5516b0b9498efa5147ff8430,Il Panino Ingegnoso,41.89998191151652,12.479194782088841,4bf58dd8d48988d1c5941735,Sandwich Place
Rome,Pigna,41.89711585,12.479195768321528,4be05668358fef3b6858648a,Piazza della Rotonda,41.89925302095499,12.476778774611859,4bf58dd8d48988d164941735,Plaza
Rome,Pigna,41.89711585,12.479195768321528,4adcdac4f964a5208a5221e3,Tazza d'Oro,41.89943500478219,12.477359207618287,4bf58dd8d48988d1e0931735,Coffee Shop
Rome,Pigna,41.89711585,12.479195768321528,4c0236e19a7920a1a12ace79,Albergo Del Senato,41.899185603061476,12.476947545598017,4bf58dd8d48988d1fa931735,Hotel
Rome,Pigna,41.89711585,12.479195768321528,5420af88498e07904383c23d,Fontana del Pantheon,41.899337310617085,12.476774477395674,56aa371be4b08b9a8d573547,Fountain
Rome,Pigna,41.89711585,12.479195768321528,4c138d5bb7b9c9286daca937,Piazza di Pietra,41.900053374587394,12.479294207804463,4bf58dd8d48988d164941735,Plaza
Rome,Pigna,41.89711585,12.479195768321528,4f7f72b0e4b077c18146cb80,Antica Salumeria,41.899209,12.476511,4bf58dd8d48988d1c5941735,Sandwich Place
Rome,Pigna,41.89711585,12.479195768321528,53ce8a93498e9707065baed5,Venchi,41.90004164812426,12.480883171716998,4bf58dd8d48988d1c9941735,Ice Cream Shop
Rome,Pigna,41.89711585,12.479195768321528,4cc40db838aaa0934ebb1062,Piazza di Sant'Ignazio,41.899288738456924,12.479704086178932,4bf58dd8d48988d164941735,Plaza
Rome,Pigna,41.89711585,12.479195768321528,4cfe2a79084f548118fc8e09,Pizzeria Florida,41.894819,12.476838,4bf58dd8d48988d1ca941735,Pizza Place
Rome,Pigna,41.89711585,12.479195768321528,4c7ce7b13e90a1cd8e9f43be,Tempio di Adriano,41.9000294461593,12.479352089158516,4bf58dd8d48988d12d941735,Monument / Landmark
Rome,Pigna,41.89711585,12.479195768321528,4bdb27ecc79cc928e56681e9,Salotto 42,41.900048515738646,12.479425482842286,4bf58dd8d48988d121941735,Lounge
Rome,Pigna,41.89711585,12.479195768321528,4adcdacff964a520b15521e3,La Sacrestia,41.89904431490425,12.477562891102794,4bf58dd8d48988d110941735,Italian Restaurant
Rome,Pigna,41.89711585,12.479195768321528,4cefaa663b03f04daaea3fdc,Antica Trattoria da Pietro al Pantheon,41.89948701392108,12.477778981188784,4bf58dd8d48988d110941735,Italian Restaurant
Rome,Pigna,41.89711585,12.479195768321528,51cace42498eb06f107ca80e,La Casa Del Cafe,41.89939827116926,12.477389574050903,4bf58dd8d48988d16d941735,Café
Rome,Pigna,41.89711585,12.479195768321528,4ea9aaeb29c2152deb00975a,Capranica Enoteca & Taverna,41.89998895197112,12.477761886284533,4bf58dd8d48988d110941735,Italian Restaurant
Rome,Pigna,41.89711585,12.479195768321528,4bd842eae914a5935ac352fa,Fiocco Di Neve at the Pantheon,41.89988462037772,12.476702018879315,4bf58dd8d48988d1c9941735,Ice Cream Shop
Rome,Pigna,41.89711585,12.479195768321528,4adcdac6f964a520035321e3,Basilica di Sant'Andrea della Valle,41.89628,12.474383,4bf58dd8d48988d132941735,Church
Rome,Pigna,41.89711585,12.479195768321528,4e04cdab6284ff36f0396dc2,Palazzo Valentini,41.896691233968916,12.483806430363723,4deefb944765f83613cdba6e,Historic Site
Rome,Pigna,41.89711585,12.479195768321528,52643cd211d29a41e5268164,Ciucculá,41.89930125028298,12.477157557865493,4bf58dd8d48988d1c9941735,Ice Cream Shop
Rome,Pigna,41.89711585,12.479195768321528,4adcdac7f964a5206d5321e3,Fontana delle Tartarughe,41.8938494614327,12.477513541077055,56aa371be4b08b9a8d573547,Fountain
Rome,Pigna,41.89711585,12.479195768321528,4bff689688e795216bf67d8f,Fondazione Roma Museo - Palazzo Cipolla,41.89973816242706,12.481016290281692,4bf58dd8d48988d18f941735,Art Museum
Rome,Pigna,41.89711585,12.479195768321528,4c9dd3ebca44236a0d742499,Trattoria Antonio,41.899482994800145,12.477716973141687,4bf58dd8d48988d110941735,Italian Restaurant
Rome,Pigna,41.89711585,12.479195768321528,4af867d8f964a520f10c22e3,Sant'Eustachio Il Caffè,41.89827,12.475379,4bf58dd8d48988d16d941735,Café
Rome,Pigna,41.89711585,12.479195768321528,5479fb8e498eb0840a398218,Don Nino Pantheon,41.899381498663416,12.477339461889606,4bf58dd8d48988d1c9941735,Ice Cream Shop
Rome,Pigna,41.89711585,12.479195768321528,4f805a0de4b0a458b9dfb83b,Il Falchetto,41.89971378048012,12.480805905639757,4bf58dd8d48988d1c4941735,Restaurant
Rome,Pigna,41.89711585,12.479195768321528,4dfe32fc1f6e1ee122e60fa1,Piazza Capranica,41.8999699593652,12.477708961954779,4bf58dd8d48988d164941735,Plaza
Rome,Pigna,41.89711585,12.479195768321528,4adcdac6f964a5203a5321e3,Colonna di Marco Aurelio,41.90093027400436,12.480185023524555,4bf58dd8d48988d12d941735,Monument / Landmark
Rome,Pigna,41.89711585,12.479195768321528,4adcdac9f964a520ff5321e3,Zuil van Trajanus (Colonna Traiana),41.895816378556574,12.48427614569664,4bf58dd8d48988d12d941735,Monument / Landmark
Rome,Pigna,41.89711585,12.479195768321528,56dd7b20498ebb7ab96350ee,Pane e Salame,41.900604,12.481798,4bf58dd8d48988d1c5941735,Sandwich Place
Rome,Pigna,41.89711585,12.479195768321528,5434ebb2498ec648be180148,Palazzo Navona Hotel,41.89768677069511,12.474483992927807,4bf58dd8d48988d1fa931735,Hotel
Rome,Pigna,41.89711585,12.479195768321528,4e3fb8d08877b00cfc640dcc,Piazza Di S Marcello,41.89863279609275,12.481403883818434,4bf58dd8d48988d164941735,Plaza
Rome,Pigna,41.89711585,12.479195768321528,4adcdac3f964a520605221e3,Armando al Pantheon,41.89899471760667,12.476243037028656,4bf58dd8d48988d110941735,Italian Restaurant
Rome,Pigna,41.89711585,12.479195768321528,5388df60498e1afc163697b8,Emma,41.89475814792712,12.475082357778922,4bf58dd8d48988d1ca941735,Pizza Place
Rome,Pigna,41.89711585,12.479195768321528,4adcdacaf964a520c25421e3,Ristorante Baires,41.896905515704944,12.474285617017292,4bf58dd8d48988d107941735,Argentinian Restaurant
Rome,Pigna,41.89711585,12.479195768321528,4adcdac6f964a520395321e3,Obelisco di Monte Citorio,41.90061113044338,12.478559157770919,4bf58dd8d48988d164941735,Plaza
Rome,Pigna,41.89711585,12.479195768321528,4adcdac6f964a520155321e3,Santa Maria in Campitelli,41.89324282557256,12.479584722060963,4bf58dd8d48988d132941735,Church
Rome,Pigna,41.89711585,12.479195768321528,4f0c212be4b020a8d94f991b,Terrazza delle Quadrighe,41.894345941422216,12.483335689583733,4bf58dd8d48988d165941735,Scenic Lookout
Rome,Pigna,41.89711585,12.479195768321528,4bfdaddaf7c82d7f1a908e04,Osteria Del Sostegno,41.899986517217734,12.477312909044919,55a5a1ebe4b013909087cb7f,Trattoria/Osteria
Rome,Pigna,41.89711585,12.479195768321528,4adcdac9f964a520025421e3,Piazza della Maddalena,41.90012956653841,12.476582928171622,4bf58dd8d48988d164941735,Plaza
Rome,Pigna,41.89711585,12.479195768321528,51eaac8b498e9caed1d195d1,Lindt,41.9002245178682,12.476590492265661,52f2ab2ebcbc57f1066b8b31,Chocolate Shop
Rome,Pigna,41.89711585,12.479195768321528,4adcdacaf964a520aa5421e3,La Rosetta,41.89968161345601,12.47653922507542,4bf58dd8d48988d1ce941735,Seafood Restaurant
Rome,Pigna,41.89711585,12.479195768321528,4adcdac2f964a520025221e3,Giolitti,41.90110820957347,12.477202186270606,4bf58dd8d48988d1c9941735,Ice Cream Shop
Rome,Pigna,41.89711585,12.479195768321528,4bdeba5fffdec9283a5de9a1,Antico Forno Roscioli,41.894624313352836,12.474326707965298,4bf58dd8d48988d16a941735,Bakery
Rome,Pigna,41.89711585,12.479195768321528,51322482e4b01d3a6a9bcf09,Pasticceria De Bellis,41.896282607250406,12.47396569907103,4bf58dd8d48988d1d0941735,Dessert Shop
Rome,Pigna,41.89711585,12.479195768321528,4bee65ef35dc0f470bcc3f5b,Piazza Colonna,41.901027637203924,12.480237051514422,4bf58dd8d48988d164941735,Plaza
Rome,Pigna,41.89711585,12.479195768321528,4adcdad0f964a520fb5521e3,Teatro Della Cometa,41.89339946681225,12.481593423304389,4bf58dd8d48988d137941735,Theater
Rome,Pigna,41.89711585,12.479195768321528,56819d98498ebbbf582e570c,Tiepolo,41.89356284546283,12.475659230121913,52e81612bcbc57f1066b79f1,Bistro
Rome,Pigna,41.89711585,12.479195768321528,4adcdac2f964a5201c5221e3,Gelateria della Palma,41.90055093098359,12.47656016882902,4bf58dd8d48988d1c9941735,Ice Cream Shop
Rome,Pigna,41.89711585,12.479195768321528,4adcdaccf964a5203f5521e3,Osteria dell'Ingegno,41.90006515418468,12.479572331183842,55a5a1ebe4b013909087cb7f,Trattoria/Osteria
Rome,Pigna,41.89711585,12.479195768321528,4bc0c562461576b00abb7a32,L'Antica Birreria Peroni,41.89901,12.4824,50327c8591d4c4b30a586d5d,Brewery
Rome,Pigna,41.89711585,12.479195768321528,4adcdacff964a520a25521e3,Hostaria Costanza,41.89597,12.47351,4bf58dd8d48988d110941735,Italian Restaurant
Rome,Pigna,41.89711585,12.479195768321528,4bf9366ed4cdb71381e984fe,Grano,41.89995204111427,12.47585734847098,4bf58dd8d48988d110941735,Italian Restaurant
Rome,Pigna,41.89711585,12.479195768321528,4dcc0d4dae60f205441cc474,Albergo Cesari,41.89994632427153,12.479833346650803,4bf58dd8d48988d1fa931735,Hotel
Rome,Pigna,41.89711585,12.479195768321528,4bd4c7337b1876b037cc8986,L'Angoletto,41.89992530734818,12.475963764525334,4bf58dd8d48988d110941735,Italian Restaurant
Rome,Pigna,41.89711585,12.479195768321528,5a059d634420d83e4cc1a3ad,Gelato Sicily,41.899985,12.476124,55a5a1ebe4b013909087cb86,Sicilian Restaurant
Rome,Pigna,41.89711585,12.479195768321528,5601a0fa498ec7753f2131f4,da brunello restaurant,41.90003917207404,12.48025017448475,4bf58dd8d48988d110941735,Italian Restaurant
Rome,Pigna,41.89711585,12.479195768321528,54246436498eaeaf64ccc7a7,Space 23,41.896650833988076,12.473301970244552,4bf58dd8d48988d1f2941735,Sporting Goods Shop
Rome,Pigna,41.89711585,12.479195768321528,4efc8fb74690a04b140dff1e,Palazzo Sciarra,41.89977293168217,12.481073346826337,4bf58dd8d48988d18f941735,Art Museum
Rome,Pigna,41.89711585,12.479195768321528,4d8b02267139b1f76458d6d4,Gelateria di Noto,41.901037651059816,12.480136105259286,4bf58dd8d48988d1d0941735,Dessert Shop
Rome,Pigna,41.89711585,12.479195768321528,5be9885ea35f4600254d392a,Pompi,41.900714248581835,12.481629782729124,4bf58dd8d48988d1d0941735,Dessert Shop
Rome,Pigna,41.89711585,12.479195768321528,4bfe88ecb68d0f47b950ea57,La Feltrinelli,41.90107761060972,12.480884025583986,4bf58dd8d48988d114951735,Bookstore
Rome,Pigna,41.89711585,12.479195768321528,4adcdaccf964a5203d5521e3,Maccheroni,41.90063261023389,12.475968122521227,4bf58dd8d48988d110941735,Italian Restaurant
Rome,Pigna,41.89711585,12.479195768321528,4bf48d5713a6b713f1395d33,Piazza di Montecitorio,41.90073617850384,12.478615709915179,4bf58dd8d48988d164941735,Plaza
Rome,Pigna,41.89711585,12.479195768321528,4adcdac1f964a520bf5121e3,Hotel Nazionale Rome,41.90092132156259,12.478358925157037,4bf58dd8d48988d1fa931735,Hotel
Rome,Pigna,41.89711585,12.479195768321528,4cac84a0d971b1f7ca2131e1,Taverna Antonina,41.900512677114705,12.478971401870217,4bf58dd8d48988d110941735,Italian Restaurant
Rome,Pigna,41.89711585,12.479195768321528,4de49b49b0fb267148b86b6f,Grom,41.901150938750185,12.476614175493289,4bf58dd8d48988d1c9941735,Ice Cream Shop
Rome,Pigna,41.89711585,12.479195768321528,507723cae4b051090689fb64,Osteria delle Coppelle,41.900890315013946,12.476069355265263,4bf58dd8d48988d11e941735,Cocktail Bar
Rome,Pigna,41.89711585,12.479195768321528,4c0fedc1f1b6a593f1137b27,Casa Coppelle,41.900849421774964,12.475976912593842,55a5a1ebe4b013909087cb92,Roman Restaurant
Rome,Pigna,41.89711585,12.479195768321528,51f8013a498ed9e704bccfdb,Enoteca Novecento,41.90070101340039,12.47582720774805,4bf58dd8d48988d11e941735,Cocktail Bar
Rome,Pigna,41.89711585,12.479195768321528,4adcdad7f964a520625721e3,Galleria Alberto Sordi,41.90098822782426,12.480997958124295,4bf58dd8d48988d1fd941735,Shopping Mall
Rome,Pigna,41.89711585,12.479195768321528,4adcdacaf964a520cc5421e3,Al Moro,41.9005,12.48227,4bf58dd8d48988d110941735,Italian Restaurant
Rome,Pigna,41.89711585,12.479195768321528,4e7b9a85b0fbd66c1243511c,Scilla & Cariddi,41.897008,12.484891,4d4b7105d754a06374d81259,Food
Rome,Pigna,41.89711585,12.479195768321528,4bef0a74d1b7d13a483dcdec,Le Lanterne,41.89791958795948,12.48477997589768,4bf58dd8d48988d110941735,Italian Restaurant
Rome,Pigna,41.89711585,12.479195768321528,5adb78be35d3fc1c9d8bc165,L'antica Pizzeria Da Michele,41.899573,12.48402,4bf58dd8d48988d1ca941735,Pizza Place
Rome,Pigna,41.89711585,12.479195768321528,4dc6c49fae608779d15bb90e,Piazza Della Pilotta,41.898878980930675,12.48412762660092,4bf58dd8d48988d164941735,Plaza
Rome,Campitelli,41.89008455,12.487415857658215,50801134e4b01136c1c5a38c,Farnese Gardens,41.88992784710109,12.485715927194587,4bf58dd8d48988d15a941735,Garden
Rome,Campitelli,41.89008455,12.487415857658215,4e92cba98231bf0d178c6e8d,Tempio del Divo Romolo,41.8918633453399,12.487125992774962,4bf58dd8d48988d13a941735,Temple
Rome,Campitelli,41.89008455,12.487415857658215,4bffa730daf9c9b61579faef,Palatino,41.88823370053188,12.487209141254423,4deefb944765f83613cdba6e,Historic Site
Rome,Campitelli,41.89008455,12.487415857658215,4c5be145857ca593ab7fc8cb,Arco di Tito,41.89064936847651,12.488536834716797,4bf58dd8d48988d12d941735,Monument / Landmark
Rome,Campitelli,41.89008455,12.487415857658215,4f672748e4b03aa48f894aca,Templio de Antonino e Faustina,41.89217881581378,12.486694157123566,4bf58dd8d48988d13a941735,Temple
Rome,Campitelli,41.89008455,12.487415857658215,51c95c8c498e482954f2ed7d,Stadio palatino (Stadio palatino | Stadio di Domiziano),41.8875823767912,12.487496137619017,4deefb944765f83613cdba6e,Historic Site
Rome,Campitelli,41.89008455,12.487415857658215,4adcdac6f964a520375321e3,Arco di Costantino,41.88975484444547,12.490618228912354,4bf58dd8d48988d12d941735,Monument / Landmark
Rome,Campitelli,41.89008455,12.487415857658215,4adcdac6f964a520335321e3,Foro Romano,41.89239342813092,12.485503137107756,4deefb944765f83613cdba6e,Historic Site
Rome,Campitelli,41.89008455,12.487415857658215,4adcdac6f964a520355321e3,Colosseo,41.89063339494293,12.492377758026123,4deefb944765f83613cdba6e,Historic Site
