City,Neighbourhood,Neighbourhood Latitude,Neighbourhood Longitude,Venue Id,Venue,Venue Latitude,Venue Longitude,Venue Category Id,Venue Category Name
Madrid,Palacio ,40.41512925,-3.715617998399092,4adcda38f964a520523c21e3,Santa Iglesia Catedral de Santa María la Real de la Almudena (Catedral de la Almudena),40.41576693264202,-3.7145161628723145,4bf58dd8d48988d132941735,Church
Madrid,Palacio ,40.41512925,-3.715617998399092,4fa1419ee4b0b6a5a232eb53,Plaza de La Almudena,40.41631960737639,-3.713776929870609,4bf58dd8d48988d164941735,Plaza
Madrid,Palacio ,40.41512925,-3.715617998399092,4c321c9816adc9281693c19c,Cervecería La Mayor,40.41521786102789,-3.7121938520878386,56aa371ce4b08b9a8d57356c,Beer Bar
Madrid,Palacio ,40.41512925,-3.715617998399092,4adcda36f964a5208b3b21e3,Corral de la Morería,40.412619019854375,-3.7142493289306913,4bf58dd8d48988d1f2931735,Performing Arts Venue
Madrid,Palacio ,40.41512925,-3.715617998399092,4adcda37f964a5200e3c21e3,Palacio Real de Madrid,40.41793972010854,-3.714258670806885,52e81612bcbc57f1066b7a14,Palace
Madrid,Palacio ,40.41512925,-3.715617998399092,4adcda3bf964a5207c3d21e3,Taberna Rayuela,40.41317891156541,-3.7134962971934686,4bf58dd8d48988d1db931735,Tapas Restaurant
Madrid,Palacio ,40.41512925,-3.715617998399092,52c82839498e2304c783b2c0,Charlie Champagne,40.41393640099747,-3.712647348286377,4bf58dd8d48988d1c4941735,Restaurant
Madrid,Palacio ,40.41512925,-3.715617998399092,57373b92498ef5d24131c101,Mercado Jamón Iberico,40.41544225,-3.71164314,50be8ee891d4fa8dcc7199a7,Market
Madrid,Palacio ,40.41512925,-3.715617998399092,4adcda38f964a520673c21e3,Jardines de las Vistillas,40.4123433475275,-3.714763272346025,4bf58dd8d48988d163941735,Park
Madrid,Palacio ,40.41512925,-3.715617998399092,4adcda3af964a5205e3d21e3,El Landó,40.411899822,-3.71507637,4bf58dd8d48988d150941735,Spanish Restaurant
Madrid,Palacio ,40.41512925,-3.715617998399092,593be9b516fa0435e49bbc2f,Zuccaru,40.417179,-3.711674,4bf58dd8d48988d1c9941735,Ice Cream Shop
Madrid,Palacio ,40.41512925,-3.715617998399092,4bb284c742959c7427f5202c,Champañería María Pandora,40.41254453551862,-3.714644495430593,4bf58dd8d48988d116941735,Bar
Madrid,Palacio ,40.41512925,-3.715617998399092,4f6b0ec86b74877569ff1026,Tienda La Rebelión de los Mandiles,40.41513265500589,-3.7133581694444984,4bf58dd8d48988d119951735,Wine Shop
Madrid,Palacio ,40.41512925,-3.715617998399092,4d82a68a02eb5481997a0af5,Pizzeria Mayor,40.412788599966305,-3.7174735135512917,4bf58dd8d48988d1ca941735,Pizza Place
Madrid,Palacio ,40.41512925,-3.715617998399092,4adcda37f964a520223c21e3,Plaza de la Paja,40.41290469221371,-3.711675718271377,4bf58dd8d48988d164941735,Plaza
Madrid,Palacio ,40.41512925,-3.715617998399092,4adcda37f964a5201e3c21e3,Plaza de la Villa,40.415408601788656,-3.710390924213192,4deefb944765f83613cdba6e,Historic Site
Madrid,Palacio ,40.41512925,-3.715617998399092,4adcda37f964a520203c21e3,Plaza de Oriente,40.418325668437966,-3.712196052074432,4bf58dd8d48988d164941735,Plaza
Madrid,Palacio ,40.41512925,-3.715617998399092,519e20e4498e0bb2bb4de285,Gauranga Trascendental Food,40.412891557155,-3.7134861946105957,4bf58dd8d48988d1d3941735,Vegetarian / Vegan Restaurant
Madrid,Palacio ,40.41512925,-3.715617998399092,4c1e6d08920076b05a57c3e9,Plaza de Ramales,40.41703689886453,-3.711625909170824,4bf58dd8d48988d164941735,Plaza
Madrid,Palacio ,40.41512925,-3.715617998399092,52c5c362498e59d832d546aa,la gastroteca de santiago,40.4166394850381,-3.710943995357369,4bf58dd8d48988d1c4941735,Restaurant
Madrid,Palacio ,40.41512925,-3.715617998399092,562c745e498ed563c749afc1,Zoco Comidero Bar,40.41328907548855,-3.7134631663750186,4bf58dd8d48988d155941735,Gastropub
Madrid,Palacio ,40.41512925,-3.715617998399092,562ce339498e1f9626fb7158,camoati,40.413274618632805,-3.7122836094834195,4bf58dd8d48988d1be941735,Latin American Restaurant
Madrid,Palacio ,40.41512925,-3.715617998399092,52faaf43498e109e94be243a,Gastrobar Peruano Pisco 41,40.41597500129769,-3.711678127241401,4eb1bfa43b7b52c0e1adc2e8,Peruvian Restaurant
Madrid,Palacio ,40.41512925,-3.715617998399092,5087eb5ce4b095f0420e51d1,"Turkana, El Bar.",40.41380217033574,-3.711712400785899,4bf58dd8d48988d116941735,Bar
Madrid,Palacio ,40.41512925,-3.715617998399092,4c3af7b0b2289521331ff70c,Jardín del Príncipe de Anglona,40.41359508044958,-3.7114285283775614,4bf58dd8d48988d15a941735,Garden
Madrid,Palacio ,40.41512925,-3.715617998399092,5da3972574073b000828abd0,Killer Sobo,40.412495,-3.712479,55a59bace4b013909087cb24,Ramen Restaurant
Madrid,Palacio ,40.41512925,-3.715617998399092,4b9d4647f964a520319f36e3,Viva Burger,40.41263019326825,-3.7116827479753303,4bf58dd8d48988d1d3941735,Vegetarian / Vegan Restaurant
Madrid,Palacio ,40.41512925,-3.715617998399092,4b599eccf964a5204f8f28e3,Café Bar Delic,40.41273870787581,-3.711678450125613,4bf58dd8d48988d16d941735,Café
Madrid,Palacio ,40.41512925,-3.715617998399092,4da9bcd21e72c1ab9be2c3b0,Muralla musulmana de Madrid,40.414880609756715,-3.7149895156627006,4deefb944765f83613cdba6e,Historic Site
Madrid,Palacio ,40.41512925,-3.715617998399092,4adcda34f964a5202d3b21e3,Café de Oriente,40.41808083605312,-3.7118667284955524,4bf58dd8d48988d150941735,Spanish Restaurant
Madrid,Palacio ,40.41512925,-3.715617998399092,4bd30ee041b9ef3bda22ffe5,La Taquería de Birra,40.41160529869899,-3.7135694765833738,4bf58dd8d48988d1c1941735,Mexican Restaurant
Madrid,Palacio ,40.41512925,-3.715617998399092,4bd39db8046076b0eb957671,Marula Café,40.41343881739265,-3.713393310568251,4bf58dd8d48988d1e5931735,Music Venue
Madrid,Palacio ,40.41512925,-3.715617998399092,5864bd166431e50bfa35512c,El Sainete,40.413581983613454,-3.7102418791284073,56aa371ce4b08b9a8d57356c,Beer Bar
Madrid,Palacio ,40.41512925,-3.715617998399092,4b953cc5f964a5200f9734e3,Restaurante Taberneros,40.416457775789596,-3.7103856206505745,4bf58dd8d48988d150941735,Spanish Restaurant
Madrid,Palacio ,40.41512925,-3.715617998399092,4b7db2a1f964a52018cf2fe3,Contraclub,40.41263919986747,-3.713827208907879,4bf58dd8d48988d1e5931735,Music Venue
Madrid,Palacio ,40.41512925,-3.715617998399092,4c0aaf20340720a1d1e48693,Restaurante Rasputín,40.412101165205065,-3.7135574283690183,4bf58dd8d48988d1c4941735,Restaurant
Madrid,Palacio ,40.41512925,-3.715617998399092,4bb7955cb35776b027d2c701,Seoul,40.41105892100128,-3.7180896567617623,4bf58dd8d48988d113941735,Korean Restaurant
Madrid,Palacio ,40.41512925,-3.715617998399092,4bf825cb4a67c9289cde24cf,El Ventorrillo,40.413000344022095,-3.7138676599138702,4bf58dd8d48988d150941735,Spanish Restaurant
Madrid,Palacio ,40.41512925,-3.715617998399092,51b48c29498e93a3121e7978,Agra Palace,40.417630856492586,-3.71076370095803,4bf58dd8d48988d10f941735,Indian Restaurant
Madrid,Palacio ,40.41512925,-3.715617998399092,549add78498e29e8a643290b,La Chusquery,40.412229741330215,-3.711640374277176,4bf58dd8d48988d1db931735,Tapas Restaurant
Madrid,Palacio ,40.41512925,-3.715617998399092,4f1d6558e4b0b4fdeb43570d,Real Armeria,40.41651673696806,-3.713547421489713,4bf58dd8d48988d181941735,Museum
Madrid,Palacio ,40.41512925,-3.715617998399092,4b1ad064f964a5205ff223e3,La Trastienda,40.41198284759262,-3.7146301644124278,4bf58dd8d48988d1db931735,Tapas Restaurant
Madrid,Palacio ,40.41512925,-3.715617998399092,4bf93cff508c0f470b243f31,Terraza Atenas,40.41455900328251,-3.7173518109838866,4bf58dd8d48988d117941735,Beer Garden
Madrid,Palacio ,40.41512925,-3.715617998399092,4c5c74902815c9283c1db267,El Flamenco de Barbate,40.41389595149404,-3.7192538915393127,50327c8591d4c4b30a586d5d,Brewery
Madrid,Palacio ,40.41512925,-3.715617998399092,5a240c62fc9e945859bf5ea7,Reales Cocinas del Palacio Real,40.417639,-3.714319,4deefb944765f83613cdba6e,Historic Site
Madrid,Palacio ,40.41512925,-3.715617998399092,50d1ff0de4b00e3149787d86,graffiti,40.412158,-3.713746,4bf58dd8d48988d11e941735,Cocktail Bar
Madrid,Palacio ,40.41512925,-3.715617998399092,4ec93d574690116a8e2f42a3,La Panera de Arman,40.41323910784528,-3.719420430855074,4bf58dd8d48988d1df931735,BBQ Joint
Madrid,Palacio ,40.41512925,-3.715617998399092,552a67d2498e15f96e19ecca,By Cruz,40.41240797468785,-3.717639100715398,4bf58dd8d48988d150941735,Spanish Restaurant
Madrid,Palacio ,40.41512925,-3.715617998399092,56e47b92498e8b403fbf9fe2,Sushicome,40.41136898463154,-3.7184115064841117,4bf58dd8d48988d111941735,Japanese Restaurant
Madrid,Palacio ,40.41512925,-3.715617998399092,4bc90276b6c49c7451ae8d91,Bar Pascual Bailen,40.411243453768506,-3.713918145691072,4bf58dd8d48988d116941735,Bar
Madrid,Embajadores ,40.40968055,-3.701644426413222,57fe1dc4498e980520415266,NAP Neapolitan Authentic Pizza,40.41082784575748,-3.700475451857145,4bf58dd8d48988d1ca941735,Pizza Place
Madrid,Embajadores ,40.40968055,-3.701644426413222,529b8cb111d25b45e50d3a9e,Teatro Del Barrio,40.409666440324926,-3.699222340056091,4bf58dd8d48988d137941735,Theater
Madrid,Embajadores ,40.40968055,-3.701644426413222,5729117b498e20da9ba19ca3,López & López,40.40949877800912,-3.7040456799697785,4bf58dd8d48988d1ca941735,Pizza Place
Madrid,Embajadores ,40.40968055,-3.701644426413222,56f51eb9498e7a4c1f61ac7b,PUM PUM CAFÉ,40.408052755824485,-3.7019489245460124,4bf58dd8d48988d1e0931735,Coffee Shop
Madrid,Embajadores ,40.40968055,-3.701644426413222,525aa32e11d2a8e48e87e77e,Los Porfiados,40.410110365834385,-3.698907434582576,4bf58dd8d48988d107941735,Argentinian Restaurant
Madrid,Embajadores ,40.40968055,-3.701644426413222,4bbf8bbaf8219c74752ab010,El Sur,40.411135324189495,-3.699521331741858,4bf58dd8d48988d1c4941735,Restaurant
Madrid,Embajadores ,40.40968055,-3.701644426413222,580f333f38fa29751d0b2d69,Panifiesto,40.408624,-3.703332,4bf58dd8d48988d16a941735,Bakery
Madrid,Embajadores ,40.40968055,-3.701644426413222,513918df8acabb546c08a9dc,Casa Pachuco,40.41082162929018,-3.6994234493363587,4bf58dd8d48988d1db931735,Tapas Restaurant
Madrid,Embajadores ,40.40968055,-3.701644426413222,566db21b498e3f66283b240c,Libreria Cafe El Dinosaurio Todavia Estaba Alli,40.41167506219228,-3.700300547654981,4bf58dd8d48988d16d941735,Café
Madrid,Embajadores ,40.40968055,-3.701644426413222,5a625293a0215b6e7fcb804b,Cafe De Ratas,40.408681,-3.699401,4bf58dd8d48988d116941735,Bar
Madrid,Embajadores ,40.40968055,-3.701644426413222,5a2454e3fd16bb353b4ec264,La Esperanza,40.41149716350271,-3.6994495684985402,4bf58dd8d48988d1c0941735,Mediterranean Restaurant
Madrid,Embajadores ,40.40968055,-3.701644426413222,582e0388873be411a9aa56b8,El Rincón del Cabo,40.411716,-3.7030745,4bf58dd8d48988d116941735,Bar
Madrid,Embajadores ,40.40968055,-3.701644426413222,4bc37bafabf4952186d3c393,El Boquerón,40.40746,-3.700408,4bf58dd8d48988d1ce941735,Seafood Restaurant
Madrid,Embajadores ,40.40968055,-3.701644426413222,4e1584b5b3ad47cbbb61c2d5,Mercado de San Fernando,40.40772000673654,-3.7036774230708462,50be8ee891d4fa8dcc7199a7,Market
Madrid,Embajadores ,40.40968055,-3.701644426413222,4adcda38f964a520723c21e3,Plaza de Lavapiés,40.408416062337736,-3.7007537404057764,4bf58dd8d48988d164941735,Plaza
Madrid,Embajadores ,40.40968055,-3.701644426413222,4b557dfff964a520a4e527e3,Cine Doré,40.41183256074677,-3.6992668712271692,4bf58dd8d48988d17f941735,Movie Theater
Madrid,Embajadores ,40.40968055,-3.701644426413222,59820248e65d0c0860cedc8b,Plantate,40.410365,-3.704543,4bf58dd8d48988d1e0931735,Coffee Shop
Madrid,Embajadores ,40.40968055,-3.701644426413222,4f2d2e4ae4b0124ab827520d,Yoka Loka,40.41161458501999,-3.698692811574475,4bf58dd8d48988d1d2941735,Sushi Restaurant
Madrid,Embajadores ,40.40968055,-3.701644426413222,5186a54f498e25e80491350b,El Colmo,40.41159759840829,-3.6996274045843887,4bf58dd8d48988d116941735,Bar
Madrid,Embajadores ,40.40968055,-3.701644426413222,5023d5588055249578accb3b,La buena pinta,40.407715422064975,-3.7036407242011156,4bf58dd8d48988d186941735,Liquor Store
Madrid,Embajadores ,40.40968055,-3.701644426413222,4bef01a32ff520a12bf9e7a2,La Escalera de Jacob,40.411365291035445,-3.7029080037262725,4bf58dd8d48988d137941735,Theater
Madrid,Embajadores ,40.40968055,-3.701644426413222,5b6eba7bc9f907002cbb1bbe,ADORADO,40.410529,-3.704728,4bf58dd8d48988d147941735,Diner
Madrid,Embajadores ,40.40968055,-3.701644426413222,4b9e79aef964a52026e736e3,Mercado de Antón Martín,40.41152590000001,-3.6987288,50be8ee891d4fa8dcc7199a7,Market
Madrid,Embajadores ,40.40968055,-3.701644426413222,56ec54eb498e7f6f7356aed2,Bendito Vinos y Vinilos,40.407497,-3.703717,4bf58dd8d48988d119951735,Wine Shop
Madrid,Embajadores ,40.40968055,-3.701644426413222,4bc6038dbf29c9b6d417f92a,La Fugitiva,40.4113090168111,-3.6986633938938414,4bf58dd8d48988d114951735,Bookstore
Madrid,Embajadores ,40.40968055,-3.701644426413222,58b04c782980db0b0f944cd9,Hola Coffee,40.40708312303291,-3.6991170007772296,4bf58dd8d48988d1e0931735,Coffee Shop
Madrid,Embajadores ,40.40968055,-3.701644426413222,533c419a498e2d22ba0e0780,Juan Raro,40.407007881585116,-3.7010805819249994,4bf58dd8d48988d1db931735,Tapas Restaurant
Madrid,Embajadores ,40.40968055,-3.701644426413222,5bafc459d4cc98002ccfb0a5,Ferreteria By Ego,40.412558,-3.699631,4bf58dd8d48988d1c4941735,Restaurant
Madrid,Embajadores ,40.40968055,-3.701644426413222,4bb22d65f964a5204fc03ce3,Academia Flamenco Amor de Dios,40.4115945871434,-3.698702234890164,4bf58dd8d48988d134941735,Dance Studio
Madrid,Embajadores ,40.40968055,-3.701644426413222,4c5c090c7f661b8dfb5a471c,Taberna Badila,40.411776724089535,-3.703688928833252,4bf58dd8d48988d150941735,Spanish Restaurant
Madrid,Embajadores ,40.40968055,-3.701644426413222,4c0372fa310fc9b691f3c561,Way Hostel,40.41263845574944,-3.7033413990304274,4bf58dd8d48988d1ee931735,Hostel
Madrid,Embajadores ,40.40968055,-3.701644426413222,4be7eb45947820a1ad39b4db,Las Musas Hostel Madrid,40.41139380854493,-3.7040808684791333,4bf58dd8d48988d1ee931735,Hostel
Madrid,Embajadores ,40.40968055,-3.701644426413222,53a30e21498ea4f0852c7a64,Tabacalera  Promoción del Arte,40.40638581945433,-3.7032421479989543,4bf58dd8d48988d1e2931735,Art Gallery
Madrid,Embajadores ,40.40968055,-3.701644426413222,599b767ef96b2c3bf7fcda3f,Axel Hotel Madrid,40.413181423395386,-3.7005688301093334,4bf58dd8d48988d1fa931735,Hotel
Madrid,Embajadores ,40.40968055,-3.701644426413222,58a714befb9d897f0fab03b0,Zero Point Coffee Shop,40.409925433621694,-3.696936332307282,4bf58dd8d48988d16d941735,Café
Madrid,Embajadores ,40.40968055,-3.701644426413222,4b960c65f964a5201cbb34e3,Plaza de Antón Martín,40.41245421442554,-3.6994664933938814,4bf58dd8d48988d164941735,Plaza
Madrid,Embajadores ,40.40968055,-3.701644426413222,4cc42d77c844721e81a2e701,Esta es una plaza,40.40739709889638,-3.6982457639352124,4bf58dd8d48988d164941735,Plaza
Madrid,Embajadores ,40.40968055,-3.701644426413222,55f71852498e58358ab9f8f1,Fogg Birra and Cheese,40.41227536098442,-3.69798791617441,4bf58dd8d48988d11b941735,Pub
Madrid,Embajadores ,40.40968055,-3.701644426413222,59a1e62a4c954c5afe5b6b4a,Giolatto,40.41289120242951,-3.700055684503051,4bf58dd8d48988d1c9941735,Ice Cream Shop
Madrid,Embajadores ,40.40968055,-3.701644426413222,4be32685d27a20a16a60915b,CSA La Tabacalera de Lavapiés,40.40613451937499,-3.702630117571652,4bf58dd8d48988d171941735,Event Space
Madrid,Embajadores ,40.40968055,-3.701644426413222,534c1670498e590e32fcda7f,Swinton & Grant,40.40595337214276,-3.70187059849157,4bf58dd8d48988d1e2931735,Art Gallery
Madrid,Embajadores ,40.40968055,-3.701644426413222,56ee4db4498e6e5cb1c30a47,Far home Atocha,40.41331603501434,-3.700853223546797,4bf58dd8d48988d1ee931735,Hostel
Madrid,Embajadores ,40.40968055,-3.701644426413222,5877d4aed4ab730fcf09092b,Toga,40.41111841899132,-3.70667299456038,4bf58dd8d48988d150941735,Spanish Restaurant
Madrid,Embajadores ,40.40968055,-3.701644426413222,5289cbc111d2b04c75f0824f,El Imparcial,40.411928907144485,-3.7057817062423974,52e81612bcbc57f1066b79f1,Bistro
Madrid,Embajadores ,40.40968055,-3.701644426413222,4b7fc03df964a520263c30e3,La Casa Encendida,40.405996939819225,-3.6999129806319777,4bf58dd8d48988d1e2931735,Art Gallery
Madrid,Embajadores ,40.40968055,-3.701644426413222,4d9ca88aa695721e220e000d,Horno de Pastelería América,40.411862116588146,-3.6981806163867734,4bf58dd8d48988d16a941735,Bakery
Madrid,Embajadores ,40.40968055,-3.701644426413222,4b6c4713f964a5204d2d2ce3,Café Barbieri,40.40922356446051,-3.7009861093587224,4bf58dd8d48988d16d941735,Café
Madrid,Embajadores ,40.40968055,-3.701644426413222,4ce5753dca41236a1f6d7c4b,Teatro Pavón,40.410001840156795,-3.7062980491013597,4bf58dd8d48988d137941735,Theater
Madrid,Embajadores ,40.40968055,-3.701644426413222,4b890fc7f964a520a01a32e3,Café Pavón,40.41015211180619,-3.7063668093387503,4bf58dd8d48988d143941735,Breakfast Spot
Madrid,Embajadores ,40.40968055,-3.701644426413222,4f6f4d63e4b0e6e0035904d4,Terraza La Casa Encendida,40.405997677783496,-3.699866269074142,4bf58dd8d48988d117941735,Beer Garden
Madrid,Embajadores ,40.40968055,-3.701644426413222,4cdd9af2df986ea876a5d616,Hotel NH Collection Madrid Palacio de Tepa,40.41379972837331,-3.7016755766313,4bf58dd8d48988d1fa931735,Hotel
Madrid,Embajadores ,40.40968055,-3.701644426413222,5a2043c21fa76357f07e23ae,Sala Equis,40.41218953407115,-3.7060283550885944,4bf58dd8d48988d17e941735,Indie Movie Theater
Madrid,Embajadores ,40.40968055,-3.701644426413222,4c0a3c837e3fc9284639f382,Librería de Montaña - Desnivel,40.41335167974752,-3.6998780050890727,4bf58dd8d48988d114951735,Bookstore
Madrid,Embajadores ,40.40968055,-3.701644426413222,57a09a99498edffb1cba9db1,La Encomienda,40.410671971184456,-3.7059818747088813,4bf58dd8d48988d1d3941735,Vegetarian / Vegan Restaurant
Madrid,Embajadores ,40.40968055,-3.701644426413222,554c9690498ef7cacc2d2ee5,ok hostel,40.411135489335344,-3.7068188834260543,4bf58dd8d48988d1ee931735,Hostel
Madrid,Embajadores ,40.40968055,-3.701644426413222,505d847ee4b09d977579e041,Alimentación Quiroga,40.413759722199444,-3.6994574585588165,4bf58dd8d48988d118951735,Grocery Store
Madrid,Embajadores ,40.40968055,-3.701644426413222,510d58d1e4b0aaab882cf12b,Carmen,40.40803675190335,-3.7037570030347915,4bf58dd8d48988d16d941735,Café
Madrid,Embajadores ,40.40968055,-3.701644426413222,51bb01be498e2f4b478bc449,Washoku Sushi,40.40750376306692,-3.7033925316258345,4bf58dd8d48988d1d2941735,Sushi Restaurant
Madrid,Embajadores ,40.40968055,-3.701644426413222,55e2f14d498e7d180dccfb7b,La Fantástica de Lavapiés,40.40881804788794,-3.705266309476869,4bf58dd8d48988d116941735,Bar
Madrid,Embajadores ,40.40968055,-3.701644426413222,5962148c1987ec5468b7957d,Craft Against The Machine,40.40865041635871,-3.705003611225282,56aa371ce4b08b9a8d57356c,Beer Bar
Madrid,Embajadores ,40.40968055,-3.701644426413222,4e634d82aeb73603154a577b,Atelier Cafè De La Llana,40.40921543710092,-3.705664564403512,4bf58dd8d48988d16d941735,Café
Madrid,Embajadores ,40.40968055,-3.701644426413222,5aac293fe2d4aa1546bf51d6,2060 The Newton Hostel,40.411860676778495,-3.703510996622369,4bf58dd8d48988d1ee931735,Hostel
Madrid,Embajadores ,40.40968055,-3.701644426413222,53e0ddaf498ed3c8aa686e4f,Tribuetxe,40.40750002840896,-3.70322450139908,4bf58dd8d48988d1db931735,Tapas Restaurant
Madrid,Embajadores ,40.40968055,-3.701644426413222,4b82edccf964a520beed30e3,Centro el Horno,40.41096689168601,-3.704454419204999,4bf58dd8d48988d175941735,Gym / Fitness Center
Madrid,Embajadores ,40.40968055,-3.701644426413222,4b688050f964a5206c7c2be3,Traficantes de Sueños,40.408080657634464,-3.7040027041204233,4bf58dd8d48988d114951735,Bookstore
Madrid,Embajadores ,40.40968055,-3.701644426413222,562b631c498e7ab0be9acbc3,Viva Gym Embajadores,40.40527554456864,-3.702455632112476,52f2ab2ebcbc57f1066b8b48,Gymnastics Gym
Madrid,Embajadores ,40.40968055,-3.701644426413222,53456af7498ecc1ac34eb91b,MartinaCocina,40.41000076757413,-3.7072936379830908,4bf58dd8d48988d16d941735,Café
Madrid,Embajadores ,40.40968055,-3.701644426413222,4c557ef5479fc9285694ed94,La Libre,40.407742,-3.696379,4bf58dd8d48988d143941735,Breakfast Spot
Madrid,Embajadores ,40.40968055,-3.701644426413222,589af14cabb86a6b4f8cacc1,Boconó Specialty Coffee,40.410585280387586,-3.706855521898219,4bf58dd8d48988d16d941735,Café
Madrid,Embajadores ,40.40968055,-3.701644426413222,5bf5a88179f6c7002cf03166,La Canibal,40.40757,-3.696498,50327c8591d4c4b30a586d5d,Brewery
Madrid,Embajadores ,40.40968055,-3.701644426413222,54bb98b9498ed7cb810948b1,Traficantes De Sueños,40.411807249559004,-3.7062205285647023,4bf58dd8d48988d114951735,Bookstore
Madrid,Embajadores ,40.40968055,-3.701644426413222,52a22cb811d2182355b47bf2,Val Souza Estilistas,40.408897,-3.705196,4bf58dd8d48988d110951735,Salon / Barbershop
Madrid,Embajadores ,40.40968055,-3.701644426413222,53a9b3f3498e5a0355498970,La Pasteleria Del Duque,40.41164381531476,-3.7067959166347375,4bf58dd8d48988d1d0941735,Dessert Shop
Madrid,Embajadores ,40.40968055,-3.701644426413222,4adcda38f964a5206f3c21e3,Plaza de Cascorro,40.41073737202163,-3.7072268844252787,4bf58dd8d48988d164941735,Plaza
Madrid,Embajadores ,40.40968055,-3.701644426413222,4beef83a16290f475d23f51e,Taberna La Chilostra,40.41172834589925,-3.7041574703507676,4bf58dd8d48988d116941735,Bar
Madrid,Embajadores ,40.40968055,-3.701644426413222,51e05d19498e10271fb4caa0,Eurostars Plaza Mayor,40.41309434816865,-3.7040796940314578,4bf58dd8d48988d1fa931735,Hotel
Madrid,Embajadores ,40.40968055,-3.701644426413222,4ebfbd228b81127c0b23f020,Galerias Piquer,40.40779179918596,-3.7068231168396895,4bf58dd8d48988d1e2931735,Art Gallery
Madrid,Embajadores ,40.40968055,-3.701644426413222,4b4bb63af964a520f0a426e3,Casa Alberto,40.413808,-3.700124,4bf58dd8d48988d150941735,Spanish Restaurant
Madrid,Embajadores ,40.40968055,-3.701644426413222,4f31c6dfe4b0bae096207b5b,THC Tirso De Molina,40.411390407831455,-3.7049652107904536,4bf58dd8d48988d1ee931735,Hostel
Madrid,Embajadores ,40.40968055,-3.701644426413222,57a5072e498eb1d87a6d7476,Patagonia Artesanal,40.413215,-3.703953,4bf58dd8d48988d1c9941735,Ice Cream Shop
Madrid,Embajadores ,40.40968055,-3.701644426413222,5752bdcb498eeb535affdb92,Tulup Paletas Mexicanas,40.410481,-3.706657,4bf58dd8d48988d1c9941735,Ice Cream Shop
Madrid,Embajadores ,40.40968055,-3.701644426413222,51d5c142498eb4644f053d0b,La Rollerie,40.41385383986997,-3.7028908043886357,4bf58dd8d48988d16d941735,Café
Madrid,Embajadores ,40.40968055,-3.701644426413222,590dcce7588e361692b1ee31,Sahuaro,40.41108639348676,-3.7072020194931703,4bf58dd8d48988d1c1941735,Mexican Restaurant
Madrid,Embajadores ,40.40968055,-3.701644426413222,4da85cfbcda119a2c8fb847d,Plaza Matute,40.41369455146754,-3.6998234759606348,4bf58dd8d48988d164941735,Plaza
Madrid,Embajadores ,40.40968055,-3.701644426413222,4c4f270f960e76b098d92de7,Lidl,40.41264827756243,-3.7045453958003733,52f2ab2ebcbc57f1066b8b46,Supermarket
Madrid,Embajadores ,40.40968055,-3.701644426413222,4d30c052ac8f6a3165b29d6f,Plaza de Tirso de Molina,40.41241254999066,-3.7044835037247728,4bf58dd8d48988d164941735,Plaza
Madrid,Embajadores ,40.40968055,-3.701644426413222,56bf8acacd10bbbbad433076,La Minoterie,40.410524,-3.706303,52e81612bcbc57f1066b79f2,Creperie
Madrid,Embajadores ,40.40968055,-3.701644426413222,5662dab5498efeaff9ae5e73,La Barca del Patio,40.41056,-3.707405,4bf58dd8d48988d150941735,Spanish Restaurant
Madrid,Embajadores ,40.40968055,-3.701644426413222,50463a65e4b003d2d4eccfbd,Rastro Bar,40.40727233886719,-3.706185817718506,4bf58dd8d48988d116941735,Bar
Madrid,Embajadores ,40.40968055,-3.701644426413222,4adcda3cf964a520a93d21e3,Yelmo Cines Ideal,40.41377463619878,-3.7037453431400222,4bf58dd8d48988d180941735,Multiplex
Madrid,Embajadores ,40.40968055,-3.701644426413222,4cfa576034c1a093f58c3f0e,El Rincón Guay,40.407524000991984,-3.7039529116536887,4bf58dd8d48988d116941735,Bar
Madrid,Embajadores ,40.40968055,-3.701644426413222,5561bdf1498e2edd4a439a91,Granel Madrid,40.410300459694824,-3.706470480400094,50aa9e744b90af0d42d5de0e,Health Food Store
Madrid,Embajadores ,40.40968055,-3.701644426413222,4e7f34ce9adfa4c4ab2633db,Casa Amadeo - Los Caracoles,40.41053814682712,-3.707306654698466,4bf58dd8d48988d150941735,Spanish Restaurant
Madrid,Embajadores ,40.40968055,-3.701644426413222,5a70ef632c7eb941eabdece3,Mamúa Café Bar,40.41029576310337,-3.7073277085748924,4bf58dd8d48988d1ca941735,Pizza Place
Madrid,Embajadores ,40.40968055,-3.701644426413222,58bb48a5d8e55927fb96c727,La Taperia del 21,40.407581,-3.703064,4bf58dd8d48988d1db931735,Tapas Restaurant
Madrid,Embajadores ,40.40968055,-3.701644426413222,5564ed2b498e439d448d36cb,Finocchio Ristorante,40.40735996003684,-3.704146406669479,4bf58dd8d48988d110941735,Italian Restaurant
Madrid,Embajadores ,40.40968055,-3.701644426413222,4bee6ee3d355a59347e10a60,Parque del Casino de La Reina,40.40601517514345,-3.704696444333035,4bf58dd8d48988d163941735,Park
Madrid,Cortes ,40.4143476,-3.6985251827738512,57756e14498e605edcad54fc,Salmon Gurú,40.41486660560401,-3.6995319613728506,4bf58dd8d48988d11e941735,Cocktail Bar
Madrid,Cortes ,40.4143476,-3.6985251827738512,4b7eaa51f964a52008f82fe3,La Cabaña Argentina,40.415696026060175,-3.6989742057930957,4bf58dd8d48988d107941735,Argentinian Restaurant
Madrid,Cortes ,40.4143476,-3.6985251827738512,505d847ee4b09d977579e041,Alimentación Quiroga,40.413759722199444,-3.6994574585588165,4bf58dd8d48988d118951735,Grocery Store
Madrid,Cortes ,40.4143476,-3.6985251827738512,4adcda3cf964a5208b3d21e3,Teatro Español,40.41472295273593,-3.7006151566523107,4bf58dd8d48988d137941735,Theater
Madrid,Cortes ,40.4143476,-3.6985251827738512,599b767ef96b2c3bf7fcda3f,Axel Hotel Madrid,40.413181423395386,-3.7005688301093334,4bf58dd8d48988d1fa931735,Hotel
Madrid,Cortes ,40.4143476,-3.6985251827738512,4b72841ff964a520db7c2de3,Plaza de Santa Ana,40.41463076310542,-3.7010325869307574,4bf58dd8d48988d164941735,Plaza
Madrid,Cortes ,40.4143476,-3.6985251827738512,55e6c68d498e0b728a08cefb,Gofio by Cicero Canary,40.41385634258089,-3.6982943941974873,4bf58dd8d48988d1c4941735,Restaurant
Madrid,Cortes ,40.4143476,-3.6985251827738512,5bfa8122971317002dbf6af2,Feliz,40.413902,-3.698726,4bf58dd8d48988d1e0931735,Coffee Shop
Madrid,Cortes ,40.4143476,-3.6985251827738512,55f71852498e58358ab9f8f1,Fogg Birra and Cheese,40.41227536098442,-3.69798791617441,4bf58dd8d48988d11b941735,Pub
Madrid,Cortes ,40.4143476,-3.6985251827738512,5bafc459d4cc98002ccfb0a5,Ferreteria By Ego,40.412558,-3.699631,4bf58dd8d48988d1c4941735,Restaurant
Madrid,Cortes ,40.4143476,-3.6985251827738512,4cb317c6562d224bce422b88,Lamucca de Prado,40.41483704752955,-3.6985914897741425,4bf58dd8d48988d1c4941735,Restaurant
Madrid,Cortes ,40.4143476,-3.6985251827738512,4c0a3c837e3fc9284639f382,Librería de Montaña - Desnivel,40.41335167974752,-3.6998780050890727,4bf58dd8d48988d114951735,Bookstore
Madrid,Cortes ,40.4143476,-3.6985251827738512,4f1bfb8ae4b044fd3614e91d,Casa González,40.41398980434345,-3.698821409425091,4bf58dd8d48988d146941735,Deli / Bodega
Madrid,Cortes ,40.4143476,-3.6985251827738512,59a1e62a4c954c5afe5b6b4a,Giolatto,40.41289120242951,-3.700055684503051,4bf58dd8d48988d1c9941735,Ice Cream Shop
Madrid,Cortes ,40.4143476,-3.6985251827738512,51d460477dd215e28d30f973,Triciclo Restaurante y Barra,40.412909750560765,-3.697167025191445,4bf58dd8d48988d1c4941735,Restaurant
Madrid,Cortes ,40.4143476,-3.6985251827738512,56ee4db4498e6e5cb1c30a47,Far home Atocha,40.41331603501434,-3.700853223546797,4bf58dd8d48988d1ee931735,Hostel
Madrid,Cortes ,40.4143476,-3.6985251827738512,4d037ffc7d9ba35d13136023,La Pizzateca,40.4127321420432,-3.6994006843348686,4bf58dd8d48988d1ca941735,Pizza Place
Madrid,Cortes ,40.4143476,-3.6985251827738512,4be2b9691dd22d7fb69e94bd,La Sanabresa,40.41256047164362,-3.6984811188512157,4bf58dd8d48988d1c0941735,Mediterranean Restaurant
Madrid,Cortes ,40.4143476,-3.6985251827738512,5a985fe5e57ca612aeeb8895,Santos y Desamparados,40.412793,-3.696562,4bf58dd8d48988d11a941735,Other Nightlife
Madrid,Cortes ,40.4143476,-3.6985251827738512,4b960c65f964a5201cbb34e3,Plaza de Antón Martín,40.41245421442554,-3.6994664933938814,4bf58dd8d48988d164941735,Plaza
Madrid,Cortes ,40.4143476,-3.6985251827738512,4adcda34f964a520ed3a21e3,Restaurante Viva Madrid,40.41516746717612,-3.6998336282593405,4bf58dd8d48988d150941735,Spanish Restaurant
Madrid,Cortes ,40.4143476,-3.6985251827738512,4cdd9af2df986ea876a5d616,Hotel NH Collection Madrid Palacio de Tepa,40.41379972837331,-3.7016755766313,4bf58dd8d48988d1fa931735,Hotel
Madrid,Cortes ,40.4143476,-3.6985251827738512,4c63f220edd320a1a98db029,Plaza de las Cortes,40.41577337519694,-3.696093259487371,4bf58dd8d48988d164941735,Plaza
Madrid,Cortes ,40.4143476,-3.6985251827738512,4adcda33f964a5206c3a21e3,The Westin Palace,40.4154231,-3.695585,4bf58dd8d48988d1fa931735,Hotel
Madrid,Cortes ,40.4143476,-3.6985251827738512,57442b9e498eb4d238e3bece,InClan Brutal Bar,40.41502338061646,-3.7018643661445174,4bf58dd8d48988d1db931735,Tapas Restaurant
Madrid,Cortes ,40.4143476,-3.6985251827738512,4b557dfff964a520a4e527e3,Cine Doré,40.41183256074677,-3.6992668712271692,4bf58dd8d48988d17f941735,Movie Theater
Madrid,Cortes ,40.4143476,-3.6985251827738512,4d20e1495acaa35d488bcb35,Dos Gardenias,40.413029716325006,-3.697696668986562,4bf58dd8d48988d116941735,Bar
Madrid,Cortes ,40.4143476,-3.6985251827738512,590a03309de23b6c4297c320,Plenti,40.41213451312291,-3.696623656621767,4bf58dd8d48988d16d941735,Café
Madrid,Cortes ,40.4143476,-3.6985251827738512,4f2d2e4ae4b0124ab827520d,Yoka Loka,40.41161458501999,-3.698692811574475,4bf58dd8d48988d1d2941735,Sushi Restaurant
Madrid,Cortes ,40.4143476,-3.6985251827738512,4b75b850f964a520951f2ee3,La Dolores,40.413811807653936,-3.6956569729216513,4bf58dd8d48988d116941735,Bar
Madrid,Cortes ,40.4143476,-3.6985251827738512,4efeb9db61af974bcd0274c0,Lobby Westin Palace,40.41508358196816,-3.6953044519027536,4bf58dd8d48988d1d5941735,Hotel Bar
Madrid,Cortes ,40.4143476,-3.6985251827738512,4be5dd56477d9c74c2b4e62d,Chocolat,40.41289086814537,-3.697064538818191,4bf58dd8d48988d16d941735,Café
Madrid,Cortes ,40.4143476,-3.6985251827738512,50db7754e4b09ad2895299cd,Vinoteca Moratín,40.41261947884343,-3.695511165213914,4bf58dd8d48988d1c4941735,Restaurant
Madrid,Cortes ,40.4143476,-3.6985251827738512,528bc6c111d2930126f2d855,Perlora,40.41233403314196,-3.6995679467201166,4bf58dd8d48988d1ce941735,Seafood Restaurant
Madrid,Cortes ,40.4143476,-3.6985251827738512,4b6def5bf964a520239d2ce3,La Tarasca,40.41246604898451,-3.696384250999628,4bf58dd8d48988d11e941735,Cocktail Bar
Madrid,Cortes ,40.4143476,-3.6985251827738512,4adcda3cf964a5208d3d21e3,Teatro de La Zarzuela,40.41718415347722,-3.6970549821853633,4bf58dd8d48988d137941735,Theater
Madrid,Cortes ,40.4143476,-3.6985251827738512,5a2454e3fd16bb353b4ec264,La Esperanza,40.41149716350271,-3.6994495684985402,4bf58dd8d48988d1c0941735,Mediterranean Restaurant
Madrid,Cortes ,40.4143476,-3.6985251827738512,4b6de1d6f964a52072982ce3,Jazz Bar,40.412610286054615,-3.6958377757918495,4bf58dd8d48988d1e7931735,Jazz Club
Madrid,Cortes ,40.4143476,-3.6985251827738512,4b9e79aef964a52026e736e3,Mercado de Antón Martín,40.41152590000001,-3.6987288,50be8ee891d4fa8dcc7199a7,Market
Madrid,Cortes ,40.4143476,-3.6985251827738512,4d9ca88aa695721e220e000d,Horno de Pastelería América,40.411862116588146,-3.6981806163867734,4bf58dd8d48988d16a941735,Bakery
Madrid,Cortes ,40.4143476,-3.6985251827738512,537b3c29498eddb91b35d498,Le Comptoir de la Crêpe,40.412999,-3.695733,52e81612bcbc57f1066b79f2,Creperie
Madrid,Cortes ,40.4143476,-3.6985251827738512,58e25c5744587f5a0851ffac,La Rollerie,40.41651129054518,-3.6995932169882693,4bf58dd8d48988d1e0931735,Coffee Shop
Madrid,Cortes ,40.4143476,-3.6985251827738512,4bf6e9484a67c92852a922cf,Palacio Santa Ana,40.414382390474,-3.701874586944422,4bf58dd8d48988d175941735,Gym / Fitness Center
Madrid,Cortes ,40.4143476,-3.6985251827738512,57fb79b8498e90a7843cd905,Cacao Restobar,40.412469216059456,-3.6970807034338744,56aa371be4b08b9a8d573558,Venezuelan Restaurant
Madrid,Cortes ,40.4143476,-3.6985251827738512,4da85cfbcda119a2c8fb847d,Plaza Matute,40.41369455146754,-3.6998234759606348,4bf58dd8d48988d164941735,Plaza
Madrid,Cortes ,40.4143476,-3.6985251827738512,4bb22d65f964a5204fc03ce3,Academia Flamenco Amor de Dios,40.4115945871434,-3.698702234890164,4bf58dd8d48988d134941735,Dance Studio
Madrid,Cortes ,40.4143476,-3.6985251827738512,566db21b498e3f66283b240c,Libreria Cafe El Dinosaurio Todavia Estaba Alli,40.41167506219228,-3.700300547654981,4bf58dd8d48988d16d941735,Café
Madrid,Cortes ,40.4143476,-3.6985251827738512,4cfd4f407f2db1f7c75237d4,Plaza del Ángel,40.41435975349727,-3.7018864916485246,4bf58dd8d48988d164941735,Plaza
Madrid,Cortes ,40.4143476,-3.6985251827738512,57000daa498ee7eb5306d781,Pannus,40.411864,-3.698547,4bf58dd8d48988d1f9941735,Food & Drink Shop
Madrid,Cortes ,40.4143476,-3.6985251827738512,4adcda3cf964a520913d21e3,Teatro Reina Victoria,40.41639473755592,-3.6997445782219285,4bf58dd8d48988d137941735,Theater
Madrid,Cortes ,40.4143476,-3.6985251827738512,5186a54f498e25e80491350b,El Colmo,40.41159759840829,-3.6996274045843887,4bf58dd8d48988d116941735,Bar
Madrid,Cortes ,40.4143476,-3.6985251827738512,4adcda37f964a5200d3c21e3,Museo Thyssen-Bornemisza,40.41635928605382,-3.6948908136558845,4bf58dd8d48988d18f941735,Art Museum
Madrid,Cortes ,40.4143476,-3.6985251827738512,5385ce83498eb1110eee86ea,la saletta,40.41163590801957,-3.6986855712936584,4bf58dd8d48988d110941735,Italian Restaurant
Madrid,Cortes ,40.4143476,-3.6985251827738512,4f33cbace4b0b5f6dee6d145,La Pulpería de Victoria,40.416506381,-3.70170887,4bf58dd8d48988d1ce941735,Seafood Restaurant
Madrid,Cortes ,40.4143476,-3.6985251827738512,5cbe01cabd4009002c28fc8e,Be Hoppy,40.4124572,-3.695562999999993,5370f356bcbc57f1066c94c2,Beer Store
Madrid,Cortes ,40.4143476,-3.6985251827738512,4bbf8bbaf8219c74752ab010,El Sur,40.411135324189495,-3.699521331741858,4bf58dd8d48988d1c4941735,Restaurant
Madrid,Cortes ,40.4143476,-3.6985251827738512,4bc6038dbf29c9b6d417f92a,La Fugitiva,40.4113090168111,-3.6986633938938414,4bf58dd8d48988d114951735,Bookstore
Madrid,Cortes ,40.4143476,-3.6985251827738512,4c0cb13cc700c9b6bc42a1dd,WooTravelling Atocha 107 HOMTELS,40.4121967,-3.699015,4bf58dd8d48988d1fa931735,Hotel
Madrid,Cortes ,40.4143476,-3.6985251827738512,4adcda37f964a5201d3c21e3,Fuente de Neptuno,40.41526048337471,-3.69415819644928,56aa371be4b08b9a8d573547,Fountain
Madrid,Cortes ,40.4143476,-3.6985251827738512,50ce389990e770a9a7bd9bf8,dondeSánchez,40.411622512771814,-3.6987008608043914,4bf58dd8d48988d146941735,Deli / Bodega
Madrid,Cortes ,40.4143476,-3.6985251827738512,5586aa79498e29ca0eed749f,Buns & Bones,40.41138511501041,-3.698781260856503,53d6c1b0e4b02351e88a83d6,Grilled Meat Restaurant
Madrid,Cortes ,40.4143476,-3.6985251827738512,4e14469114951daa08a8a03b,Paseo del Prado,40.41530949476073,-3.6939167976379395,4bf58dd8d48988d1f9931735,Road
Madrid,Cortes ,40.4143476,-3.6985251827738512,54d0d0b7498e7bfe6fdef641,Umiko,40.417593886155295,-3.6973123468602287,4bf58dd8d48988d1d2941735,Sushi Restaurant
Madrid,Cortes ,40.4143476,-3.6985251827738512,532c2ad8498e3f9002c89fce,Tandem by Triciclo,40.412648981278004,-3.6960321504423015,4bf58dd8d48988d143941735,Breakfast Spot
Madrid,Cortes ,40.4143476,-3.6985251827738512,4cd4271b607a6dcb9bc71354,Plaza Cánovas del Castillo,40.415268651941545,-3.6941850185394287,4bf58dd8d48988d164941735,Plaza
Madrid,Cortes ,40.4143476,-3.6985251827738512,4c98adf707916dcb52faed1b,La Tragantúa,40.41184555400155,-3.6954076239854836,4bf58dd8d48988d150941735,Spanish Restaurant
Madrid,Cortes ,40.4143476,-3.6985251827738512,4c11101581e976b0422010eb,Venta El Buscón,40.41611688876583,-3.7017447829143073,4bf58dd8d48988d150941735,Spanish Restaurant
Madrid,Cortes ,40.4143476,-3.6985251827738512,4adcda35f964a5205a3b21e3,Casa Patas,40.41267737917284,-3.7017365524042884,4bf58dd8d48988d1f2931735,Performing Arts Venue
Madrid,Cortes ,40.4143476,-3.6985251827738512,54a18ed0498eaaf395a791c5,Cutzamala,40.41161000209767,-3.6987083114145176,4bf58dd8d48988d1c1941735,Mexican Restaurant
Madrid,Cortes ,40.4143476,-3.6985251827738512,4adcda37f964a520343c21e3,Casino de Madrid,40.4177045801265,-3.700036810016488,4bf58dd8d48988d17c941735,Casino
Madrid,Cortes ,40.4143476,-3.6985251827738512,4d57c8e4c406a35dd29aec4a,Hotel Catalonia Atocha ****,40.41184272396261,-3.6978378510433196,4bf58dd8d48988d1fa931735,Hotel
Madrid,Cortes ,40.4143476,-3.6985251827738512,5478dde0498eab68d4d6423f,Rosi La Loca,40.415821011717526,-3.7029546044326276,4bf58dd8d48988d1db931735,Tapas Restaurant
Madrid,Cortes ,40.4143476,-3.6985251827738512,4be997d06295c9b672678508,Hotel Vincci Centrum,40.41749249761516,-3.69848355000509,4bf58dd8d48988d1fa931735,Hotel
Madrid,Cortes ,40.4143476,-3.6985251827738512,57fe1dc4498e980520415266,NAP Neapolitan Authentic Pizza,40.41082784575748,-3.700475451857145,4bf58dd8d48988d1ca941735,Pizza Place
Madrid,Cortes ,40.4143476,-3.6985251827738512,513918df8acabb546c08a9dc,Casa Pachuco,40.41082162929018,-3.6994234493363587,4bf58dd8d48988d1db931735,Tapas Restaurant
Madrid,Cortes ,40.4143476,-3.6985251827738512,556c8d53498e9ace8382361f,Motteau,40.41161292170898,-3.694798032133308,52e81612bcbc57f1066b7a0a,Pie Shop
Madrid,Cortes ,40.4143476,-3.6985251827738512,4bfd1086f61dc9b63e699ede,Lamiak,40.4118,-3.6996272,4bf58dd8d48988d116941735,Bar
Madrid,Cortes ,40.4143476,-3.6985251827738512,538a4c78498e264f18c776b2,Apple Puerta del Sol,40.4169,-3.7022512,4bf58dd8d48988d122951735,Electronics Store
Madrid,Cortes ,40.4143476,-3.6985251827738512,4d207214756e8cfa645a6c54,Pizzeria Italiana Piccolo Diavolo,40.4115292313695,-3.695595850047005,4bf58dd8d48988d110941735,Italian Restaurant
Madrid,Cortes ,40.4143476,-3.6985251827738512,50678500e4b05eea70078716,El Pajaro Invisible,40.412348326111946,-3.69489312171936,4bf58dd8d48988d103951735,Clothing Store
Madrid,Cortes ,40.4143476,-3.6985251827738512,4c19d00cfe5a76b06c320415,Plaza de Canalejas,40.416650153037814,-3.700519782427704,4bf58dd8d48988d164941735,Plaza
Madrid,Cortes ,40.4143476,-3.6985251827738512,4d78b524a56e3704ed146f67,Plaza de Platería de Martínez,40.41282827347961,-3.693618280493645,4bf58dd8d48988d164941735,Plaza
Madrid,Cortes ,40.4143476,-3.6985251827738512,4adcda3af964a520453d21e3,La Verónica,40.41264981347517,-3.695268439045623,4bf58dd8d48988d1c0941735,Mediterranean Restaurant
Madrid,Cortes ,40.4143476,-3.6985251827738512,4c0372fa310fc9b691f3c561,Way Hostel,40.41263845574944,-3.7033413990304274,4bf58dd8d48988d1ee931735,Hostel
Madrid,Cortes ,40.4143476,-3.6985251827738512,5495789c498e5586edfd3579,Serafina,40.41642972263389,-3.7022844736145575,4bf58dd8d48988d1c4941735,Restaurant
Madrid,Cortes ,40.4143476,-3.6985251827738512,4fddbb7fe4b08aca49a0273a,Azotea Círculo de Bellas Artes,40.41827957022062,-3.6964652547535874,4bf58dd8d48988d133951735,Roof Deck
Madrid,Cortes ,40.4143476,-3.6985251827738512,4adcda38f964a5204c3c21e3,Círculo de Bellas Artes,40.41848647958846,-3.6966117471456528,4bf58dd8d48988d12d941735,Monument / Landmark
Madrid,Cortes ,40.4143476,-3.6985251827738512,4cc9bda646b43704169e4ae1,Neila,40.41263934328753,-3.695763498544693,4bf58dd8d48988d1db931735,Tapas Restaurant
Madrid,Cortes ,40.4143476,-3.6985251827738512,525aa32e11d2a8e48e87e77e,Los Porfiados,40.410110365834385,-3.698907434582576,4bf58dd8d48988d107941735,Argentinian Restaurant
Madrid,Cortes ,40.4143476,-3.6985251827738512,509c10c9e4b08f007b4451fa,Tiger,40.41505020737178,-3.7033354334184634,4bf58dd8d48988d128951735,Gift Shop
Madrid,Cortes ,40.4143476,-3.6985251827738512,4bc0e4ed2a89ef3b2262f188,La Taberna de Espronceda,40.410658,-3.697932,4bf58dd8d48988d116941735,Bar
Madrid,Cortes ,40.4143476,-3.6985251827738512,57470f21498ed94572bcd48a,Hotel NH Collection Madrid Suecia,40.41788800508953,-3.6960478849172853,4bf58dd8d48988d1fa931735,Hotel
Madrid,Cortes ,40.4143476,-3.6985251827738512,5c45ed7ce17910002c8a1cd5,Mistura Ice Cream,40.414465,-3.702782,4bf58dd8d48988d1c9941735,Ice Cream Shop
Madrid,Cortes ,40.4143476,-3.6985251827738512,4c33275e3896e21ee281e990,La Fetén,40.412695722374636,-3.6951986098882825,4bf58dd8d48988d150941735,Spanish Restaurant
Madrid,Cortes ,40.4143476,-3.6985251827738512,51d5c142498eb4644f053d0b,La Rollerie,40.41385383986997,-3.7028908043886357,4bf58dd8d48988d16d941735,Café
Madrid,Cortes ,40.4143476,-3.6985251827738512,54c964cd498ecc6670c95548,Wolf Cocktail Bar,40.41289248448448,-3.695668654328026,4bf58dd8d48988d116941735,Bar
Madrid,Cortes ,40.4143476,-3.6985251827738512,582e0388873be411a9aa56b8,El Rincón del Cabo,40.411716,-3.7030745,4bf58dd8d48988d116941735,Bar
Madrid,Cortes ,40.4143476,-3.6985251827738512,4b8311b5f964a520b9f530e3,Matador,40.4146306440801,-3.7029469756383695,4bf58dd8d48988d1db931735,Tapas Restaurant
Madrid,Cortes ,40.4143476,-3.6985251827738512,56ed93b0498eab944a13dd09,Casa Suecia,40.417813844980536,-3.696234471432588,4bf58dd8d48988d1c4941735,Restaurant
Madrid,Cortes ,40.4143476,-3.6985251827738512,5a636f70ea1e44544895052e,Acid Café,40.411838,-3.69485,4bf58dd8d48988d16d941735,Café
Madrid,Justicia ,40.42395689999999,-3.6957473208550464,51c459b4454a9074a8002bb3,Only YOU Hotel&Lounge,40.422313,-3.6959436,4bf58dd8d48988d1fa931735,Hotel
Madrid,Justicia ,40.42395689999999,-3.6957473208550464,5b27ed9c3f5c69002b822ad9,Honest Greens,40.42487975679924,-3.697894121919185,4bf58dd8d48988d1c4941735,Restaurant
Madrid,Justicia ,40.42395689999999,-3.6957473208550464,4ead966df5b936710b8bd8cd,La Duquesita,40.42551,-3.696688,4bf58dd8d48988d1d0941735,Dessert Shop
Madrid,Justicia ,40.42395689999999,-3.6957473208550464,53b5ba78498e41ea4e231ee4,DSTAgE,40.42472945683953,-3.6963052685894597,4bf58dd8d48988d1c4941735,Restaurant
Madrid,Justicia ,40.42395689999999,-3.6957473208550464,5989a4db9cadd9144697bd17,Only YOU Boutique Hotel Madrid,40.4222068974461,-3.69572079262908,4bf58dd8d48988d1fa931735,Hotel
Madrid,Justicia ,40.42395689999999,-3.6957473208550464,4adcda36f964a520953b21e3,Areia Chill Out,40.42454417505237,-3.698087995384402,4bf58dd8d48988d11e941735,Cocktail Bar
Madrid,Justicia ,40.42395689999999,-3.6957473208550464,4adcda38f964a520643c21e3,Plaza de Chueca,40.422724108271076,-3.697588319370037,4bf58dd8d48988d164941735,Plaza
Madrid,Justicia ,40.42395689999999,-3.6957473208550464,4bb5baef46d4a593b247c5c0,Bikram Yoga Center,40.42365488697568,-3.695511209788157,4bf58dd8d48988d102941735,Yoga Studio
Madrid,Justicia ,40.42395689999999,-3.6957473208550464,57d3b734cd10a53b95eb51e1,celicioso,40.4221118727551,-3.695725917401657,4bf58dd8d48988d16a941735,Bakery
Madrid,Justicia ,40.42395689999999,-3.6957473208550464,57360ba5498e1cea71c891af,Bee Beer,40.421952,-3.6969,5370f356bcbc57f1066c94c2,Beer Store
Madrid,Justicia ,40.42395689999999,-3.6957473208550464,5ac924f0a22db76045072b51,Charrua,40.422416,-3.693999,4bf58dd8d48988d1df931735,BBQ Joint
Madrid,Justicia ,40.42395689999999,-3.6957473208550464,57274306498ecb4252a70a34,Cannibal Raw Bar,40.42250153573088,-3.694248172533777,4bf58dd8d48988d150941735,Spanish Restaurant
Madrid,Justicia ,40.42395689999999,-3.6957473208550464,4d9c13139f86a1cde3b069ab,El Cafetin De Fernando VI,40.42484543685317,-3.6957562579032963,4bf58dd8d48988d16d941735,Café
Madrid,Justicia ,40.42395689999999,-3.6957473208550464,578a9683498e4c52df14d9d3,Barrutia,40.425497,-3.695406,4bf58dd8d48988d1c4941735,Restaurant
Madrid,Justicia ,40.42395689999999,-3.6957473208550464,4e23472daeb7026395424e42,Mamá Framboise,40.424751875150555,-3.6956153895680166,52e81612bcbc57f1066b7a0a,Pie Shop
Madrid,Justicia ,40.42395689999999,-3.6957473208550464,59bd2433805e3f5982c09476,Bunny's Deli,40.423935,-3.6971583,4bf58dd8d48988d1d3941735,Vegetarian / Vegan Restaurant
Madrid,Justicia ,40.42395689999999,-3.6957473208550464,4d8a24955ecdf04dbf76b88a,amantis,40.423377544311656,-3.6980432523726643,5267e446e4b0ec79466e48c4,Adult Boutique
Madrid,Justicia ,40.42395689999999,-3.6957473208550464,58a1821a5cab2f7fd651f66d,Panod,40.42196050145854,-3.6954788629561257,4bf58dd8d48988d16a941735,Bakery
Madrid,Justicia ,40.42395689999999,-3.6957473208550464,4bdca54fc79cc928af8087e9,Labonata,40.42273684690052,-3.6975991809831346,4bf58dd8d48988d1c9941735,Ice Cream Shop
Madrid,Justicia ,40.42395689999999,-3.6957473208550464,4eb6e73102d5f33e9330b487,Food Truck,40.42381557557015,-3.6960864532494018,4bf58dd8d48988d14e941735,American Restaurant
Madrid,Justicia ,40.42395689999999,-3.6957473208550464,4b7f05d3f964a520fa1030e3,Krachai,40.425341641247975,-3.6962992873730958,4bf58dd8d48988d149941735,Thai Restaurant
Madrid,Justicia ,40.42395689999999,-3.6957473208550464,4b6e0558f964a520fba32ce3,Toni 2,40.42257662972243,-3.6947980739400763,4bf58dd8d48988d1e8931735,Piano Bar
Madrid,Justicia ,40.42395689999999,-3.6957473208550464,4d42a03308d16dcbfb417254,Flores Miguel,40.425111054378235,-3.697822093963623,4bf58dd8d48988d11b951735,Flower Shop
Madrid,Justicia ,40.42395689999999,-3.6957473208550464,4b65fedbf964a520410d2be3,Pizzaiolo,40.42379534723905,-3.698597330722856,4bf58dd8d48988d110941735,Italian Restaurant
Madrid,Justicia ,40.42395689999999,-3.6957473208550464,4e7f04f44690deb1cd2c35bd,La Panaderia de Chueca,40.423086857922954,-3.697484191788935,4bf58dd8d48988d16a941735,Bakery
Madrid,Justicia ,40.42395689999999,-3.6957473208550464,4e4e7582cc3f9e658a78bdc3,Jeco Bellas Artes,40.423345057,-3.698061506,4bf58dd8d48988d127951735,Arts & Crafts Store
Madrid,Justicia ,40.42395689999999,-3.6957473208550464,5ada41ee5455b261bb050df1,Lara Grill,40.424652,-3.697945,4bf58dd8d48988d14e941735,American Restaurant
Madrid,Justicia ,40.42395689999999,-3.6957473208550464,571a1d3b498e040231f62ca0,Sr. Ito,40.42419418250838,-3.697464102646731,4bf58dd8d48988d1d2941735,Sushi Restaurant
Madrid,Justicia ,40.42395689999999,-3.6957473208550464,4b781a82f964a520f0b52ee3,La Tavernetta,40.42607635914717,-3.6941559395385597,4bf58dd8d48988d110941735,Italian Restaurant
Madrid,Justicia ,40.42395689999999,-3.6957473208550464,50675d438aca048850f18b13,Fulanita de Tal,40.424668512406484,-3.6964409288360884,4bf58dd8d48988d11f941735,Nightclub
Madrid,Justicia ,40.42395689999999,-3.6957473208550464,4d3c7f75d2c8f04d142c6272,Mercado de San Antón,40.422026654099746,-3.6976117762588196,50be8ee891d4fa8dcc7199a7,Market
Madrid,Justicia ,40.42395689999999,-3.6957473208550464,4b62d14bf964a520ef532ae3,Capperi Mercato Italiano,40.42590349266851,-3.6971252798566607,4bf58dd8d48988d146941735,Deli / Bodega
Madrid,Justicia ,40.42395689999999,-3.6957473208550464,4df8fbbb18506f77560b23b1,Petit Palace Santa Barbara,40.42640492905801,-3.696361238298084,4bf58dd8d48988d1fa931735,Hotel
Madrid,Justicia ,40.42395689999999,-3.6957473208550464,4adcda3cf964a520903d21e3,Teatro María Guerrero,40.42288540887174,-3.6929136514663696,4bf58dd8d48988d137941735,Theater
Madrid,Justicia ,40.42395689999999,-3.6957473208550464,5973a95ff0ca95364b30444a,Morgana,40.422215,-3.697813,4bf58dd8d48988d1c4941735,Restaurant
Madrid,Justicia ,40.42395689999999,-3.6957473208550464,4b92f734f964a520042b34e3,Magasand,40.42490647341871,-3.6974796653646553,4bf58dd8d48988d1bd941735,Salad Place
Madrid,Justicia ,40.42395689999999,-3.6957473208550464,4d93a122db1e224b442438cb,Bogui Jazz,40.42310212045843,-3.6956486053626483,4bf58dd8d48988d1e7931735,Jazz Club
Madrid,Justicia ,40.42395689999999,-3.6957473208550464,4adcda3af964a520193d21e3,Trattoria Pulcinella,40.424623321374746,-3.6964957038692723,4bf58dd8d48988d110941735,Italian Restaurant
Madrid,Justicia ,40.42395689999999,-3.6957473208550464,53c1b62a498eb5bf28f996bd,Mal de Amores,40.42225718566712,-3.6966339163444717,4bf58dd8d48988d1c4941735,Restaurant
Madrid,Justicia ,40.42395689999999,-3.6957473208550464,4eda73c89adfe5cbdf41ccd2,La Magdalena De Proust,40.42460392606179,-3.6964391916207426,4bf58dd8d48988d146941735,Deli / Bodega
Madrid,Justicia ,40.42395689999999,-3.6957473208550464,4b5c3e66f964a520632829e3,A punto escuela de cocina y librería gastronómica,40.42416356089801,-3.697510809603979,4bf58dd8d48988d114951735,Bookstore
Madrid,Justicia ,40.42395689999999,-3.6957473208550464,5753f67c498e858c1fcfcc9f,Frutas Prohibidas,40.422569382355036,-3.6969282777593326,4bf58dd8d48988d112941735,Juice Bar
Madrid,Justicia ,40.42395689999999,-3.6957473208550464,4b62cf30f964a5209b532ae3,Cacto Cacto,40.425415,-3.696531,4bf58dd8d48988d11b951735,Flower Shop
Madrid,Justicia ,40.42395689999999,-3.6957473208550464,517041b9e4b07fa47254cca7,Mad Grill,40.42628657835411,-3.695555938339127,4bf58dd8d48988d14e941735,American Restaurant
Madrid,Justicia ,40.42395689999999,-3.6957473208550464,5b9fa92ead1789002c610c90,Roots,40.424572,-3.6955872,4bf58dd8d48988d1d3941735,Vegetarian / Vegan Restaurant
Madrid,Justicia ,40.42395689999999,-3.6957473208550464,5a6f5458491be7385d72b53a,Ohanasana,40.423075,-3.695536,4bf58dd8d48988d1d3941735,Vegetarian / Vegan Restaurant
Madrid,Justicia ,40.42395689999999,-3.6957473208550464,581a411bd0b97a20be302026,RESTAURANTE KRITIKOS,40.4236788,-3.6973335000000134,4bf58dd8d48988d10e941735,Greek Restaurant
Madrid,Justicia ,40.42395689999999,-3.6957473208550464,4ca2261ee44d6dcbdb7d0475,Cafés Arrivederci,40.42239983850301,-3.6984653209661364,4bf58dd8d48988d16d941735,Café
Madrid,Justicia ,40.42395689999999,-3.6957473208550464,508c53dde4b06da5827e67a3,Space Monkey,40.42563696811733,-3.696139442795283,4bf58dd8d48988d11f941735,Nightclub
Madrid,Justicia ,40.42395689999999,-3.6957473208550464,5777e6e5498e1c78ed421413,barbara ann,40.425885666596706,-3.695920247960573,4bf58dd8d48988d121941735,Lounge
Madrid,Justicia ,40.42395689999999,-3.6957473208550464,4be13a6b5541d13a659b8266,Yube,40.42467404819127,-3.695478699517331,4bf58dd8d48988d103951735,Clothing Store
Madrid,Justicia ,40.42395689999999,-3.6957473208550464,527bc65a498e3a66a59b685d,Fundación Mapfre Recoletos,40.42245013153158,-3.6921511784298437,4bf58dd8d48988d1e2931735,Art Gallery
Madrid,Justicia ,40.42395689999999,-3.6957473208550464,52ffed1611d2af3dc511f0d8,Oh Galo!,40.42481465251634,-3.696937417059486,4bf58dd8d48988d1db931735,Tapas Restaurant
Madrid,Justicia ,40.42395689999999,-3.6957473208550464,5526b695498eab4138a37553,Macera Tallerbar,40.42610213289051,-3.6981758494799846,4bf58dd8d48988d11e941735,Cocktail Bar
Madrid,Justicia ,40.42395689999999,-3.6957473208550464,4b72b3f5f964a52078842de3,Tienda de Vinos (El Comunista),40.42214174422174,-3.6974815605101155,4bf58dd8d48988d150941735,Spanish Restaurant
Madrid,Justicia ,40.42395689999999,-3.6957473208550464,580f7a8338fa73e7d6a65df3,Kuoco 360,40.421841757,-3.698455902,4bf58dd8d48988d1c4941735,Restaurant
Madrid,Justicia ,40.42395689999999,-3.6957473208550464,4b64d283f964a520c7d22ae3,Bodegas Ángel Sierra,40.42287376033453,-3.6975281620001677,4bf58dd8d48988d116941735,Bar
Madrid,Justicia ,40.42395689999999,-3.6957473208550464,4adcda39f964a520cd3c21e3,La Carmencita,40.42126199404328,-3.6972917841088693,4bf58dd8d48988d150941735,Spanish Restaurant
Madrid,Justicia ,40.42395689999999,-3.6957473208550464,5877d74f8cb34e044d0ab00b,Cuatro de Ocho,40.4262293508373,-3.698047369645394,52e81612bcbc57f1066b79f1,Bistro
Madrid,Justicia ,40.42395689999999,-3.6957473208550464,542c89b2498ea4aad38e1d26,Baranoa,40.42307876249345,-3.6982967962070137,4bf58dd8d48988d1d8941735,Gay Bar
Madrid,Justicia ,40.42395689999999,-3.6957473208550464,4bc8ae306501c9b6cca94029,Panta Rhei,40.423553323104244,-3.7001508785469985,4bf58dd8d48988d114951735,Bookstore
Madrid,Justicia ,40.42395689999999,-3.6957473208550464,51ca2035498e6098207e6624,Vides,40.42101652377878,-3.6973542003338395,4bf58dd8d48988d155941735,Gastropub
Madrid,Justicia ,40.42395689999999,-3.6957473208550464,53fccd8d498ea83bbd97b10a,Urso hotel & spa,40.426825148727936,-3.6981689054251543,4bf58dd8d48988d1fa931735,Hotel
Madrid,Justicia ,40.42395689999999,-3.6957473208550464,5710f195498e1bdf3422620a,cripeka,40.42633069472612,-3.696475115325826,4bf58dd8d48988d16a941735,Bakery
Madrid,Justicia ,40.42395689999999,-3.6957473208550464,4adcda37f964a520243c21e3,Plaza de la Villa de París,40.425383878557085,-3.6933847103048,4bf58dd8d48988d164941735,Plaza
Madrid,Justicia ,40.42395689999999,-3.6957473208550464,560eab83498e048a3f66de00,La Hummuseria,40.423474938716694,-3.700036508653173,4bf58dd8d48988d1d3941735,Vegetarian / Vegan Restaurant
Madrid,Justicia ,40.42395689999999,-3.6957473208550464,4e0e58c522711665f6143740,La alacena de Victor Montes (mercado de San Anton),40.4219552461371,-3.6975662393915534,4bf58dd8d48988d146941735,Deli / Bodega
Madrid,Justicia ,40.42395689999999,-3.6957473208550464,5a5dce3eacc5f561db728715,Quispe,40.426706,-3.695478,4eb1bfa43b7b52c0e1adc2e8,Peruvian Restaurant
Madrid,Justicia ,40.42395689999999,-3.6957473208550464,5b191b9523a2e6002c2f9966,Roostiq,40.422035,-3.696219,4bf58dd8d48988d1c4941735,Restaurant
Madrid,Justicia ,40.42395689999999,-3.6957473208550464,5081cb34e4b0d5064a81ca6e,Terraza de San Antón,40.422051905187736,-3.6976134285303153,4bf58dd8d48988d117941735,Beer Garden
Madrid,Justicia ,40.42395689999999,-3.6957473208550464,550dd8d2498ecc23842fd54d,Prep' La Crêpe,40.42619324204986,-3.692839342867028,52e81612bcbc57f1066b79f2,Creperie
Madrid,Justicia ,40.42395689999999,-3.6957473208550464,4ce0050adf986ea87e22e516,Válgame Dios,40.42206945750394,-3.696664995215651,4bf58dd8d48988d11e941735,Cocktail Bar
Madrid,Justicia ,40.42395689999999,-3.6957473208550464,4dc90039d4c0bf68419cff9a,Mallorca Market,40.426938244550676,-3.6943896052408887,4bf58dd8d48988d16a941735,Bakery
Madrid,Justicia ,40.42395689999999,-3.6957473208550464,4b58b3eef964a520836628e3,Baco y Beto,40.422752009461526,-3.698509156210323,4bf58dd8d48988d150941735,Spanish Restaurant
Madrid,Justicia ,40.42395689999999,-3.6957473208550464,53470140498e451f8db8fe62,Bosco de Lobos,40.424150785649374,-3.6990139940797278,4bf58dd8d48988d110941735,Italian Restaurant
Madrid,Justicia ,40.42395689999999,-3.6957473208550464,4f528e036d86bd8ce49df035,Café del Jardín,40.42589063901246,-3.6989174658033144,4bf58dd8d48988d1dc931735,Tea Room
Madrid,Justicia ,40.42395689999999,-3.6957473208550464,5a00eb549deb7d58c962e66a,LaKama Café,40.42276834057224,-3.699329032690251,4bf58dd8d48988d121941735,Lounge
Madrid,Justicia ,40.42395689999999,-3.6957473208550464,4c62ceed79d1e21e7ef5d615,Museo del Romanticismo,40.42580188257195,-3.6988496877961543,4bf58dd8d48988d181941735,Museum
Madrid,Justicia ,40.42395689999999,-3.6957473208550464,588c8435f68d8d04baeb25b2,60 Balconies,40.422456,-3.693494,4bf58dd8d48988d1fa931735,Hotel
Madrid,Justicia ,40.42395689999999,-3.6957473208550464,4c38bb1e1e06d13a2346783e,Optica Toscana,40.423081,-3.699041,4d954afda243a5684865b473,Optical Shop
Madrid,Justicia ,40.42395689999999,-3.6957473208550464,58dc04c844587f4cc44cdba7,Media Ración,40.426828697988135,-3.6980284895340416,52e81612bcbc57f1066b79f1,Bistro
Madrid,Justicia ,40.42395689999999,-3.6957473208550464,4d9491c6b550a09318288987,Poncelet,40.426534548910574,-3.6939543292536308,4bf58dd8d48988d11e951735,Cheese Shop
Madrid,Justicia ,40.42395689999999,-3.6957473208550464,5211eb8904938c5098d8c715,La Buena Cerveza,40.42209168416811,-3.6989981457302923,50327c8591d4c4b30a586d5d,Brewery
Madrid,Justicia ,40.42395689999999,-3.6957473208550464,52d0528f498ebb67ee8acbd7,Piscina CDM Escuelas de San Antón,40.42428802143895,-3.6989100033216498,4bf58dd8d48988d105941735,Gym Pool
Madrid,Justicia ,40.42395689999999,-3.6957473208550464,4fd10914e4b0da17b06e04b0,Señorita Malauva,40.42180355047843,-3.697866803601482,4bf58dd8d48988d119951735,Wine Shop
Madrid,Justicia ,40.42395689999999,-3.6957473208550464,4cac4406d971b1f784d62ee1,Pasajes. Librería Internacional,40.427315086223224,-3.694962884236951,4bf58dd8d48988d114951735,Bookstore
Madrid,Justicia ,40.42395689999999,-3.6957473208550464,4c2ce1ba76a7ef3bf69edeb8,Plaza de Alonso Martínez,40.42767972759961,-3.695687064580876,4bf58dd8d48988d164941735,Plaza
Madrid,Justicia ,40.42395689999999,-3.6957473208550464,4b896d07f964a520233532e3,LUSH,40.424201289338214,-3.7007108317088933,4bf58dd8d48988d10c951735,Cosmetics Shop
Madrid,Justicia ,40.42395689999999,-3.6957473208550464,5b32a3bb9d7468002c8616bd,Propaganda,40.420922,-3.69733,4bf58dd8d48988d110941735,Italian Restaurant
Madrid,Justicia ,40.42395689999999,-3.6957473208550464,5ad7b014cbcdee2fde75ed0b,Hot Now,40.421317,-3.69803,4bf58dd8d48988d1ca941735,Pizza Place
Madrid,Justicia ,40.42395689999999,-3.6957473208550464,5b09f9b1b399f7002c706169,Limbo,40.425417248365285,-3.700183383392106,4bf58dd8d48988d116941735,Bar
Madrid,Justicia ,40.42395689999999,-3.6957473208550464,538cc2bb498e98c029aeeb1f,Fundación Mapfre Bárbara de Braganza,40.42335591605433,-3.691982788793571,4bf58dd8d48988d18f941735,Art Museum
Madrid,Justicia ,40.42395689999999,-3.6957473208550464,535a5a5f498e9880fbf374c0,Mercado de San Ildefonso,40.42423010607013,-3.700819251110139,4bf58dd8d48988d1db931735,Tapas Restaurant
Madrid,Justicia ,40.42395689999999,-3.6957473208550464,52ac5d20498e11753a8cde9d,Izakaya Han,40.421818886748916,-3.698475072010201,4bf58dd8d48988d111941735,Japanese Restaurant
Madrid,Justicia ,40.42395689999999,-3.6957473208550464,5aeb2ad0f870fd002cb05499,Entre Santos,40.421361,-3.69873,4bf58dd8d48988d116941735,Bar
Madrid,Justicia ,40.42395689999999,-3.6957473208550464,573dbaf9498e3b76737e8a68,Habanera,40.42548355338372,-3.6913277741268846,4bf58dd8d48988d1c4941735,Restaurant
Madrid,Justicia ,40.42395689999999,-3.6957473208550464,555508a4498efdc9d0102ca3,Fox In A Box Madrid - Juego de Escape Game,40.42011505083917,-3.697489005665821,5f2c2834b6d05514c704451e,Escape Room
Madrid,Justicia ,40.42395689999999,-3.6957473208550464,522e323c11d23283eb8b428b,Tierra Burrito Bar,40.427748,-3.697085,4bf58dd8d48988d153941735,Burrito Place
Madrid,Justicia ,40.42395689999999,-3.6957473208550464,4c27849c136d20a1f910e761,Tipos Infames,40.42480725772673,-3.701105892942192,4bf58dd8d48988d114951735,Bookstore
Madrid,Justicia ,40.42395689999999,-3.6957473208550464,50213bf7e4b0e08d5e2560c5,xxxmadrid.com,40.42171109121091,-3.6991946310836195,4bf58dd8d48988d106951735,Men's Store
Madrid,Universidad ,40.42531035,-3.706629859074133,4e19907752b123a586e15197,Toma Café,40.42650984196803,-3.7059470889382538,4bf58dd8d48988d1e0931735,Coffee Shop
Madrid,Universidad ,40.42531035,-3.706629859074133,4fb1700ae4b0f72b43f0fa6b,1862,40.42426061399935,-3.706602068336985,4bf58dd8d48988d11e941735,Cocktail Bar
Madrid,Universidad ,40.42531035,-3.706629859074133,552cc0cd498e4bba96669cb2,Pez Tortilla,40.4242382067626,-3.706568309829162,4bf58dd8d48988d1db931735,Tapas Restaurant
Madrid,Universidad ,40.42531035,-3.706629859074133,4fb3a143e4b0947c3d6a4831,Movilonia.com,40.42643713828792,-3.7054036112477533,4f04afc02fb6e1c99f3db0bc,Mobile Phone Shop
Madrid,Universidad ,40.42531035,-3.706629859074133,59f339bc25ecca5f1cc38ca1,La Colmada,40.42547618019526,-3.7043642238817385,4bf58dd8d48988d1c4941735,Restaurant
Madrid,Universidad ,40.42531035,-3.706629859074133,520a4f7011d2a16be9843206,HanSo Café,40.423912322535884,-3.7055842487583757,4bf58dd8d48988d16d941735,Café
Madrid,Universidad ,40.42531035,-3.706629859074133,4b69c756f964a520adb32be3,J&J Books and Coffee,40.42563730331122,-3.7066643297580195,4bf58dd8d48988d114951735,Bookstore
Madrid,Universidad ,40.42531035,-3.706629859074133,4f4d0165e4b05ebee45e1480,Eric Vökel Boutique Apartments,40.42629146021611,-3.706962739482536,4bf58dd8d48988d1fa931735,Hotel
Madrid,Universidad ,40.42531035,-3.706629859074133,56c7ae92cd10407d3d14503c,Casa Macareno,40.42587927392769,-3.7047823256126224,4bf58dd8d48988d116941735,Bar
Madrid,Universidad ,40.42531035,-3.706629859074133,55394d81498e8cfc09d43b28,Cervantes y compañía,40.42427101615698,-3.706661645961943,4bf58dd8d48988d114951735,Bookstore
Madrid,Universidad ,40.42531035,-3.706629859074133,4d0d0d78903d3704aa97c155,Carmencita,40.426141864460845,-3.7073716314199663,4bf58dd8d48988d143941735,Breakfast Spot
Madrid,Universidad ,40.42531035,-3.706629859074133,4b6c96b0f964a520f9442ce3,Pontepez,40.42377716955972,-3.7054651587022125,4bf58dd8d48988d1db931735,Tapas Restaurant
Madrid,Universidad ,40.42531035,-3.706629859074133,58e6545d113efc274b917e06,Cafe Angelica,40.423226309929944,-3.707465329347798,4bf58dd8d48988d16d941735,Café
Madrid,Universidad ,40.42531035,-3.706629859074133,52545f57498e6b4a719bdb92,La Gringa,40.42617843445485,-3.707859523116006,4bf58dd8d48988d1c1941735,Mexican Restaurant
Madrid,Universidad ,40.42531035,-3.706629859074133,4bd88c03e914a5936b8453fa,Ojalá,40.42539107275883,-3.7040164965431708,4bf58dd8d48988d1c4941735,Restaurant
Madrid,Universidad ,40.42531035,-3.706629859074133,4b96b629f964a52098df34e3,Casa Federica,40.42398175672907,-3.7087566565709693,4bf58dd8d48988d107941735,Argentinian Restaurant
Madrid,Universidad ,40.42531035,-3.706629859074133,4adcda3bf964a520793d21e3,Mastropiero,40.42587443188055,-3.7042617283129387,4bf58dd8d48988d1ca941735,Pizza Place
Madrid,Universidad ,40.42531035,-3.706629859074133,4d56d3b758856dcb51645d6d,El Cambalache Horno Argentino,40.425474,-3.70386,4bf58dd8d48988d107941735,Argentinian Restaurant
Madrid,Universidad ,40.42531035,-3.706629859074133,548c5eb2498ec412511a1b1d,la fiambrera,40.42330325140642,-3.7047039507375543,4bf58dd8d48988d1e2931735,Art Gallery
Madrid,Universidad ,40.42531035,-3.706629859074133,5a4289ec8a6f1771f7d7878f,Misión Café,40.42431188018363,-3.7087247498745755,4bf58dd8d48988d1e0931735,Coffee Shop
Madrid,Universidad ,40.42531035,-3.706629859074133,4ba4d01cf964a5204bb738e3,Elektra Cómic,40.42260273588236,-3.7075021558967127,4bf58dd8d48988d1ff941735,Miscellaneous Shop
Madrid,Universidad ,40.42531035,-3.706629859074133,4b50e0d9f964a520973627e3,La Dichosa,40.42652303865942,-3.7097822842636523,4bf58dd8d48988d1db931735,Tapas Restaurant
Madrid,Universidad ,40.42531035,-3.706629859074133,4bc59cdc4a9aa5933ba7067b,KuRGaN Club,40.42617220093295,-3.704165236744909,4bf58dd8d48988d11f941735,Nightclub
Madrid,Universidad ,40.42531035,-3.706629859074133,4c1558c57f7f2d7fb55de268,Cerveceria History,40.424284601111445,-3.709304371111286,4bf58dd8d48988d11b941735,Pub
Madrid,Universidad ,40.42531035,-3.706629859074133,4adcda37f964a520253c21e3,Plaza del Dos de Mayo,40.42692195722176,-3.703914677761667,4bf58dd8d48988d164941735,Plaza
Madrid,Universidad ,40.42531035,-3.706629859074133,4db859c64b22f2ddb63a14d7,Tres Rosas Amarillas,40.4252647323818,-3.702986887390745,4bf58dd8d48988d114951735,Bookstore
Madrid,Universidad ,40.42531035,-3.706629859074133,4b587e71f964a5207a5a28e3,Lolina Vintage Café,40.42510696852098,-3.702911690431714,4bf58dd8d48988d121941735,Lounge
Madrid,Universidad ,40.42531035,-3.706629859074133,52307d2711d25277dedb26b1,Restaurante Lily,40.42311435242576,-3.709037008777121,4eb1bfa43b7b52c0e1adc2e8,Peruvian Restaurant
Madrid,Universidad ,40.42531035,-3.706629859074133,525ad2cc498e875d748818fd,Federal Café,40.427173427148695,-3.7092873110522837,4bf58dd8d48988d16d941735,Café
Madrid,Universidad ,40.42531035,-3.706629859074133,549dd81e498e8b6d4964ab9d,VEGA,40.42231841389461,-3.7060473848532434,4bf58dd8d48988d1d3941735,Vegetarian / Vegan Restaurant
Madrid,Universidad ,40.42531035,-3.706629859074133,4f48fb3fe4b0d125f6d0462c,Chincha,40.42349674554261,-3.709237211557867,4eb1bfa43b7b52c0e1adc2e8,Peruvian Restaurant
Madrid,Universidad ,40.42531035,-3.706629859074133,4adcda3cf964a5208f3d21e3,Teatro Lara,40.42244712611381,-3.70476034070178,4bf58dd8d48988d137941735,Theater
Madrid,Universidad ,40.42531035,-3.706629859074133,5a6db4f141868670dbfe3e89,Delish Vegan Doughnuts,40.42694912512703,-3.7100989203246573,4bf58dd8d48988d148941735,Donut Shop
Madrid,Universidad ,40.42531035,-3.706629859074133,4b637e6df964a520367e2ae3,Lamucca,40.423160346582144,-3.7040597217866043,4bf58dd8d48988d1c0941735,Mediterranean Restaurant
Madrid,Universidad ,40.42531035,-3.706629859074133,4b5b73aaf964a5200dff28e3,La Fondue De Tell,40.42769210185809,-3.7041432264886596,4bf58dd8d48988d158941735,Swiss Restaurant
Madrid,Universidad ,40.42531035,-3.706629859074133,52208fc111d21db2fbddb77a,Hoy no me puedo levantar,40.42346653244526,-3.7097146636451637,4bf58dd8d48988d1f1931735,General Entertainment
Madrid,Universidad ,40.42531035,-3.706629859074133,5896067344587f122ae0f404,Chilling Café,40.42201400548159,-3.706108026089968,4bf58dd8d48988d16d941735,Café
Madrid,Universidad ,40.42531035,-3.706629859074133,523d935211d288f6569fe43d,La Pescadería,40.42288279065907,-3.7032084227445803,4bf58dd8d48988d1c4941735,Restaurant
Madrid,Universidad ,40.42531035,-3.706629859074133,4b51e930f964a520eb5a27e3,Omega Center,40.422656871925795,-3.706498949269775,4bf58dd8d48988d1fb941735,Hobby Shop
Madrid,Universidad ,40.42531035,-3.706629859074133,53176713498e92fd4d9f64a5,Veggie ROOM,40.42561788064848,-3.702635072690808,50aa9e744b90af0d42d5de0e,Health Food Store
Madrid,Universidad ,40.42531035,-3.706629859074133,4b79b161f964a520a20b2fe3,Trattoria Luna Rossa,40.42313829841786,-3.707385304274906,4bf58dd8d48988d110941735,Italian Restaurant
Madrid,Universidad ,40.42531035,-3.706629859074133,4ceff94413aea143c2ad769f,Atlantica Comics,40.42240046530236,-3.706837188405011,4bf58dd8d48988d1f3941735,Toy / Game Store
Madrid,Universidad ,40.42531035,-3.706629859074133,4b607ea4f964a520a8e929e3,La Vía Láctea,40.42680387444541,-3.702931469216806,4bf58dd8d48988d11b941735,Pub
Madrid,Universidad ,40.42531035,-3.706629859074133,4bc751c1af07a593aaf17e2d,Sportivo,40.42708261745621,-3.7105612485201975,4bf58dd8d48988d106951735,Men's Store
Madrid,Universidad ,40.42531035,-3.706629859074133,4be2ff6cd27a20a1adf1905b,Chopper Monster,40.42584619831552,-3.7018201527200567,4bf58dd8d48988d103951735,Clothing Store
Madrid,Universidad ,40.42531035,-3.706629859074133,4d4ec9a1deabf04dbff2c524,Muy Placer en Conserva,40.428056117541274,-3.709507857941393,4bf58dd8d48988d116941735,Bar
Madrid,Universidad ,40.42531035,-3.706629859074133,57da7525498ed60b513f6bb7,El Moderno,40.422291221000485,-3.7040951092609555,4bf58dd8d48988d1f8941735,Furniture / Home Store
Madrid,Universidad ,40.42531035,-3.706629859074133,58b99f6611742073618e148d,teatro coliseum,40.42353126364206,-3.7097867355304097,4bf58dd8d48988d137941735,Theater
Madrid,Universidad ,40.42531035,-3.706629859074133,551e7ce1498eb54744b64b8e,La Doña,40.42602401628827,-3.7070512677573886,4bf58dd8d48988d128941735,Cafeteria
Madrid,Universidad ,40.42531035,-3.706629859074133,4d3d88d784d46ea8394d075d,Plaza de Guardias de Corps,40.427059263278096,-3.7103424483736536,4bf58dd8d48988d164941735,Plaza
Madrid,Universidad ,40.42531035,-3.706629859074133,5763fb4f498ec3d135085294,Lamian by Soy Kitchen,40.423559,-3.708959,4bf58dd8d48988d142941735,Asian Restaurant
Madrid,Universidad ,40.42531035,-3.706629859074133,5721fa6a498e6852a171b57c,熊仔解馋坊 (El Winnie Poh),40.424929439721765,-3.7106229371631683,4bf58dd8d48988d145941735,Chinese Restaurant
Madrid,Universidad ,40.42531035,-3.706629859074133,5614585c498e818401fab3d7,Casa Lafu,40.42210378363954,-3.7093506336068813,4bf58dd8d48988d145941735,Chinese Restaurant
Madrid,Universidad ,40.42531035,-3.706629859074133,4cb0913775ebb60c899ac5ad,La Cocina de mi Vecina,40.42532543280764,-3.701913701430633,4bf58dd8d48988d1bc941735,Cupcake Shop
Madrid,Universidad ,40.42531035,-3.706629859074133,541162e8498eeb74cc62be74,Quesería Cultivo,40.42898649101808,-3.7093759094310137,4bf58dd8d48988d11e951735,Cheese Shop
Madrid,Universidad ,40.42531035,-3.706629859074133,5cfd69ad340a58002c704311,Hotel Riu Plaza De España,40.423820597330376,-3.7108978629112244,4bf58dd8d48988d1fa931735,Hotel
Madrid,Universidad ,40.42531035,-3.706629859074133,4c226d8a9a67a593127adc87,Aliño Take Away,40.425043245354495,-3.702233956683678,52e81612bcbc57f1066b7a00,Comfort Food Restaurant
Madrid,Universidad ,40.42531035,-3.706629859074133,4b9153cdf964a52064b333e3,Bodega La Ardosa,40.42379346941713,-3.7017755010828473,4bf58dd8d48988d123941735,Wine Bar
Madrid,Universidad ,40.42531035,-3.706629859074133,4fad6f23e4b0d8a3dbb4598f,Teatro Rialto,40.42149407548861,-3.7071249062844207,4bf58dd8d48988d137941735,Theater
Madrid,Universidad ,40.42531035,-3.706629859074133,4b574cc4f964a520193028e3,Madrid Comics,40.4213495485137,-3.7062579234070974,4bf58dd8d48988d114951735,Bookstore
Madrid,Universidad ,40.42531035,-3.706629859074133,4c80022947cc224bbc316f9f,Byblos,40.42177026958086,-3.7046614693914885,4bf58dd8d48988d10b941735,Falafel Restaurant
Madrid,Universidad ,40.42531035,-3.706629859074133,4ccc9d65c9b84688841cbec3,Microteatro por dinero,40.42160197351315,-3.704046723853181,4bf58dd8d48988d1f2931735,Performing Arts Venue
Madrid,Universidad ,40.42531035,-3.706629859074133,4fb8d85be4b0fa8ed188128a,Rughara,40.424488099786515,-3.7020456441725944,4bf58dd8d48988d1ff941735,Miscellaneous Shop
Madrid,Universidad ,40.42531035,-3.706629859074133,4c27849c136d20a1f910e761,Tipos Infames,40.42480725772673,-3.701105892942192,4bf58dd8d48988d114951735,Bookstore
Madrid,Universidad ,40.42531035,-3.706629859074133,4c16546482a3c9b6d71d00f9,Generación X,40.42224485289884,-3.7037596265427646,52f2ab2ebcbc57f1066b8b18,Comic Shop
Madrid,Universidad ,40.42531035,-3.706629859074133,5cbb1a5d894eac002cec5c98,Egeo Suvlakeria Griega (Malasaña),40.42303651007102,-3.7023282051086426,4bf58dd8d48988d10e941735,Greek Restaurant
Madrid,Universidad ,40.42531035,-3.706629859074133,4c1f7f7e8b3aa59307889d5f,Nest Boutique,40.42402335567111,-3.702117611419369,4bf58dd8d48988d128951735,Gift Shop
Madrid,Universidad ,40.42531035,-3.706629859074133,56b0b26a498e4f984d6f14c7,faborit,40.42430520685062,-3.7117324643186453,4bf58dd8d48988d16d941735,Café
Madrid,Universidad ,40.42531035,-3.706629859074133,566c2593498eb34bc1904985,The Stuyck Co,40.42649101160245,-3.7016946399498716,56aa371ce4b08b9a8d57356c,Beer Bar
Madrid,Universidad ,40.42531035,-3.706629859074133,4adcda3cf964a520a03d21e3,Teatro Lope de Vega,40.421555624426574,-3.7088823820699344,4bf58dd8d48988d137941735,Theater
Madrid,Universidad ,40.42531035,-3.706629859074133,536d27c0498e612817a0cbcb,Bar Galleta,40.42268919500423,-3.703623151100803,4bf58dd8d48988d155941735,Gastropub
Madrid,Universidad ,40.42531035,-3.706629859074133,50deff14e4b0c48b57520450,Mür Café,40.425598971991846,-3.7120595449258698,4bf58dd8d48988d143941735,Breakfast Spot
Madrid,Universidad ,40.42531035,-3.706629859074133,4b86a1a0f964a5203c9331e3,Hostal Santillán,40.42223155826469,-3.708712278192252,4bf58dd8d48988d1ee931735,Hostel
Madrid,Universidad ,40.42531035,-3.706629859074133,50750ccd067d625a24eb2d2d,Madrid Segway Tours,40.421206937589595,-3.7053537368774414,56aa371be4b08b9a8d573552,Rental Service
Madrid,Universidad ,40.42531035,-3.706629859074133,4c4fcfd2371520a1487b45c0,Hotel Vincci Gran Via,40.42240768207794,-3.708889706505695,4bf58dd8d48988d1fa931735,Hotel
Madrid,Universidad ,40.42531035,-3.706629859074133,57c72dc6498e299e2f1c1ef5,Medri el mundo del tiramisu,40.4232990808424,-3.7027769676211686,4bf58dd8d48988d147941735,Diner
Madrid,Universidad ,40.42531035,-3.706629859074133,55814f5d498eba4b1d1eeb5a,"MOX healthy food & drinks, made-in-madrid",40.42377091993422,-3.7023039897141157,4bf58dd8d48988d112941735,Juice Bar
Madrid,Universidad ,40.42531035,-3.706629859074133,4b48e639f964a520695c26e3,Café de la Luz,40.42212279165881,-3.7025909845617453,4bf58dd8d48988d16d941735,Café
Madrid,Universidad ,40.42531035,-3.706629859074133,4ea28fd699117fc56c845361,Plaza de España,40.42350614676677,-3.712016344070434,4bf58dd8d48988d164941735,Plaza
Madrid,Universidad ,40.42531035,-3.706629859074133,587e6b783cccc61b64de3333,Hotel Barceló Torre de Madrid,40.424200250789596,-3.712338164791722,4bf58dd8d48988d1fa931735,Hotel
Madrid,Universidad ,40.42531035,-3.706629859074133,518bdc63498ea01733def354,Generación X,40.42947856220042,-3.705042203556756,4bf58dd8d48988d1fb941735,Hobby Shop
Madrid,Universidad ,40.42531035,-3.706629859074133,573a2647498e18625ef0999b,Varsovia,40.428842,-3.703405,4bf58dd8d48988d116941735,Bar
Madrid,Universidad ,40.42531035,-3.706629859074133,52767dca11d2c89d053c8917,Wasabi & Roll,40.42226651029834,-3.709598820329785,4bf58dd8d48988d111941735,Japanese Restaurant
Madrid,Universidad ,40.42531035,-3.706629859074133,50dc6f4ae4b08a4c254573ce,B13 Bar,40.42192131756878,-3.703401891727494,4bf58dd8d48988d1d3941735,Vegetarian / Vegan Restaurant
Madrid,Universidad ,40.42531035,-3.706629859074133,59e11ea58fb09e68c06083ac,Konnichiwa,40.427803084775825,-3.701857360764037,4bf58dd8d48988d111941735,Japanese Restaurant
Madrid,Universidad ,40.42531035,-3.706629859074133,4baa77d1f964a520de6c3ae3,El Cocinillas,40.42473040726529,-3.7012168986533585,4bf58dd8d48988d1c0941735,Mediterranean Restaurant
Madrid,Universidad ,40.42531035,-3.706629859074133,55a7b6fc498ec0d4faedd342,Bianchi Kiosko Caffé,40.424395,-3.701609,4bf58dd8d48988d1e0931735,Coffee Shop
Madrid,Universidad ,40.42531035,-3.706629859074133,4b83e2c8f964a520311531e3,Le Salon d'Apodaca,40.42725572268275,-3.7014320495330244,4bf58dd8d48988d110951735,Salon / Barbershop
Madrid,Universidad ,40.42531035,-3.706629859074133,4d445da70349224bd25af94e,Spicy Yuli,40.423322148,-3.701505822,4d954b0ea243a5684a65b473,Convenience Store
Madrid,Universidad ,40.42531035,-3.706629859074133,4b770747f964a520f0752ee3,Home Burger Bar,40.42184030676169,-3.7055202641854845,4bf58dd8d48988d16c941735,Burger Joint
Madrid,Universidad ,40.42531035,-3.706629859074133,4c8a2730e51e6dcbc22066de,De María,40.42278458162978,-3.7097994117679924,4bf58dd8d48988d107941735,Argentinian Restaurant
Madrid,Universidad ,40.42531035,-3.706629859074133,4eb5cb70d3e3644ca664bb06,María Bonita Taco Bar,40.426133516667605,-3.712349339817846,4bf58dd8d48988d1c1941735,Mexican Restaurant
Madrid,Universidad ,40.42531035,-3.706629859074133,5772a1bd498e2bf186df7415,Levadura Madre,40.42483090224111,-3.701067940153771,4bf58dd8d48988d16a941735,Bakery
Madrid,Universidad ,40.42531035,-3.706629859074133,4db6f621fa8c3502411c3731,Tribunal,40.42622312661388,-3.7009565648535645,4bf58dd8d48988d164941735,Plaza
Madrid,Universidad ,40.42531035,-3.706629859074133,52cdbd34498e0d663acc566e,Miyama,40.42235285258129,-3.7097515207544336,4bf58dd8d48988d111941735,Japanese Restaurant
Madrid,Universidad ,40.42531035,-3.706629859074133,5d54a22bafa02000075a71b6,Pasarela De Madrid Al Cielo Hotel Riu,40.423982,-3.711218,4bf58dd8d48988d165941735,Scenic Lookout
Madrid,Universidad ,40.42531035,-3.706629859074133,5d2cd48e4fa0730023a03559,La Mucca,40.427174,-3.701826,4bf58dd8d48988d110941735,Italian Restaurant
Madrid,Universidad ,40.42531035,-3.706629859074133,57f4da88498ee1b60bc1663d,Atlético de Madrid Store,40.42109968994731,-3.707385169069539,4bf58dd8d48988d1f2941735,Sporting Goods Shop
Madrid,Universidad ,40.42531035,-3.706629859074133,4c0d3f16336220a1a36fca77,Museo del Jamón,40.42163648602643,-3.708251574977123,4bf58dd8d48988d150941735,Spanish Restaurant
Madrid,Universidad ,40.42531035,-3.706629859074133,4bdb9f48c712b71333ab63b4,Alma Llanera,40.422307712269344,-3.702540075490391,4bf58dd8d48988d1cd941735,South American Restaurant
Madrid,Sol ,40.417827200000005,-3.7022220899150735,4adcda33f964a520aa3a21e3,Hotel Liabeny,40.418742456171096,-3.7039962765426564,4bf58dd8d48988d1fa931735,Hotel
Madrid,Sol ,40.417827200000005,-3.7022220899150735,4bddaac30ee3a59370242eb0,Club del Gourmet Corte Ingles,40.41749665225322,-3.704686028127798,4bf58dd8d48988d1f5941735,Gourmet Shop
Madrid,Sol ,40.417827200000005,-3.7022220899150735,4f33cbace4b0b5f6dee6d145,La Pulpería de Victoria,40.416506381,-3.70170887,4bf58dd8d48988d1ce941735,Seafood Restaurant
Madrid,Sol ,40.417827200000005,-3.7022220899150735,4adcda37f964a520343c21e3,Casino de Madrid,40.4177045801265,-3.700036810016488,4bf58dd8d48988d17c941735,Casino
Madrid,Sol ,40.417827200000005,-3.7022220899150735,5476a1ec498eb0f50cb79122,SunGate Hostel,40.41869565648317,-3.7046225150264593,4bf58dd8d48988d1ee931735,Hostel
Madrid,Sol ,40.417827200000005,-3.7022220899150735,538a4c78498e264f18c776b2,Apple Puerta del Sol,40.4169,-3.7022512,4bf58dd8d48988d122951735,Electronics Store
Madrid,Sol ,40.417827200000005,-3.7022220899150735,5478dde0498eab68d4d6423f,Rosi La Loca,40.415821011717526,-3.7029546044326276,4bf58dd8d48988d1db931735,Tapas Restaurant
Madrid,Sol ,40.417827200000005,-3.7022220899150735,5431272e498e8e357f694549,LUSH,40.41901214762635,-3.704898374374776,4bf58dd8d48988d10c951735,Cosmetics Shop
Madrid,Sol ,40.417827200000005,-3.7022220899150735,53ce9a52498e0eaa7ccfb45f,El Jardín Secreto de SB,40.419106710663684,-3.7023069232360086,4bf58dd8d48988d16d941735,Café
Madrid,Sol ,40.417827200000005,-3.7022220899150735,4adcda37f964a5201f3c21e3,Puerta del Sol,40.41703364972091,-3.7052514433481516,4bf58dd8d48988d164941735,Plaza
Madrid,Sol ,40.417827200000005,-3.7022220899150735,4c11101581e976b0422010eb,Venta El Buscón,40.41611688876583,-3.7017447829143073,4bf58dd8d48988d150941735,Spanish Restaurant
Madrid,Sol ,40.417827200000005,-3.7022220899150735,5341149f498eafdebcf8a78e,Salvador Bachiller,40.419068386780246,-3.702090366521614,4bf58dd8d48988d102951735,Accessories Store
Madrid,Sol ,40.417827200000005,-3.7022220899150735,5495789c498e5586edfd3579,Serafina,40.41642972263389,-3.7022844736145575,4bf58dd8d48988d1c4941735,Restaurant
Madrid,Sol ,40.417827200000005,-3.7022220899150735,523224b1498e6d691c94f859,Kiko store,40.420127897296084,-3.702316594742855,4bf58dd8d48988d10c951735,Cosmetics Shop
Madrid,Sol ,40.417827200000005,-3.7022220899150735,4b8818d5f964a5208cdf31e3,La Mallorquina,40.416651463931025,-3.7046623706905586,5744ccdfe4b0c0459246b4e2,Pastry Shop
Madrid,Sol ,40.417827200000005,-3.7022220899150735,57442b9e498eb4d238e3bece,InClan Brutal Bar,40.41502338061646,-3.7018643661445174,4bf58dd8d48988d1db931735,Tapas Restaurant
Madrid,Sol ,40.417827200000005,-3.7022220899150735,4adcda33f964a520ca3a21e3,Hotel de las Letras,40.419597448415956,-3.6995612096829213,4bf58dd8d48988d1fa931735,Hotel
Madrid,Sol ,40.417827200000005,-3.7022220899150735,4b790f5af964a5205fea2ee3,Espacio Fundación Telefónica,40.42039156250055,-3.701617355170416,4bf58dd8d48988d18f941735,Art Museum
Madrid,Sol ,40.417827200000005,-3.7022220899150735,4adcda3ef964a5204d3e21e3,Casa del Libro,40.42010059527963,-3.703192985614225,4bf58dd8d48988d114951735,Bookstore
Madrid,Sol ,40.417827200000005,-3.7022220899150735,4adcda3ef964a5204c3e21e3,Fnac,40.41917587046351,-3.705268692635151,4bf58dd8d48988d122951735,Electronics Store
Madrid,Sol ,40.417827200000005,-3.7022220899150735,56f6f3b3498e67a00da88ca5,Angelita Madrid,40.42034282975544,-3.700391295468739,4bf58dd8d48988d1c0941735,Mediterranean Restaurant
Madrid,Sol ,40.417827200000005,-3.7022220899150735,54403f3b498e03786d6ef3bb,TOC Hostel,40.41726434244726,-3.7059281028464137,4bf58dd8d48988d1ee931735,Hostel
Madrid,Sol ,40.417827200000005,-3.7022220899150735,50accc51e4b03cc0bd939c5a,Gourmet Experience,40.41966660972929,-3.7054582485281027,4bf58dd8d48988d1f5941735,Gourmet Shop
Madrid,Sol ,40.417827200000005,-3.7022220899150735,4b7eaa51f964a52008f82fe3,La Cabaña Argentina,40.415696026060175,-3.6989742057930957,4bf58dd8d48988d107941735,Argentinian Restaurant
Madrid,Sol ,40.417827200000005,-3.7022220899150735,5638f1e3cd10cb685f484c8e,Myst Gym Club,40.41647661391564,-3.7053298415720475,4bf58dd8d48988d176941735,Gym
Madrid,Sol ,40.417827200000005,-3.7022220899150735,4c19d00cfe5a76b06c320415,Plaza de Canalejas,40.416650153037814,-3.700519782427704,4bf58dd8d48988d164941735,Plaza
Madrid,Sol ,40.417827200000005,-3.7022220899150735,4b72841ff964a520db7c2de3,Plaza de Santa Ana,40.41463076310542,-3.7010325869307574,4bf58dd8d48988d164941735,Plaza
Madrid,Sol ,40.417827200000005,-3.7022220899150735,58e25c5744587f5a0851ffac,La Rollerie,40.41651129054518,-3.6995932169882693,4bf58dd8d48988d1e0931735,Coffee Shop
Madrid,Sol ,40.417827200000005,-3.7022220899150735,4adcda3cf964a5208b3d21e3,Teatro Español,40.41472295273593,-3.7006151566523107,4bf58dd8d48988d137941735,Theater
Madrid,Sol ,40.417827200000005,-3.7022220899150735,4adcda3cf964a520913d21e3,Teatro Reina Victoria,40.41639473755592,-3.6997445782219285,4bf58dd8d48988d137941735,Theater
Madrid,Sol ,40.417827200000005,-3.7022220899150735,57756e14498e605edcad54fc,Salmon Gurú,40.41486660560401,-3.6995319613728506,4bf58dd8d48988d11e941735,Cocktail Bar
Madrid,Sol ,40.417827200000005,-3.7022220899150735,4adcda35f964a520463b21e3,Del Diego,40.42001073437314,-3.69937436751056,4bf58dd8d48988d11e941735,Cocktail Bar
Madrid,Sol ,40.417827200000005,-3.7022220899150735,4b2563d4f964a520197124e3,Mercado de la Reina,40.419531818561246,-3.6988707977016086,4bf58dd8d48988d1db931735,Tapas Restaurant
Madrid,Sol ,40.417827200000005,-3.7022220899150735,5815186538faca7f0db08a89,La Primera,40.41918268290716,-3.697793514240437,4bf58dd8d48988d1c4941735,Restaurant
Madrid,Sol ,40.417827200000005,-3.7022220899150735,4be997d06295c9b672678508,Hotel Vincci Centrum,40.41749249761516,-3.69848355000509,4bf58dd8d48988d1fa931735,Hotel
Madrid,Sol ,40.417827200000005,-3.7022220899150735,4b66c179f964a520c6292be3,Starbucks,40.42014039388448,-3.702886033408268,4bf58dd8d48988d1e0931735,Coffee Shop
Madrid,Sol ,40.417827200000005,-3.7022220899150735,4b59799ff964a520778928e3,Plaza del Callao,40.42014480521912,-3.705762832193117,4bf58dd8d48988d164941735,Plaza
Madrid,Sol ,40.417827200000005,-3.7022220899150735,509c10c9e4b08f007b4451fa,Tiger,40.41505020737178,-3.7033354334184634,4bf58dd8d48988d128951735,Gift Shop
Madrid,Sol ,40.417827200000005,-3.7022220899150735,4b9d27b9f964a520949436e3,Zara,40.415755053855534,-3.70325774218464,4bf58dd8d48988d103951735,Clothing Store
Madrid,Sol ,40.417827200000005,-3.7022220899150735,50340653e0e24113d87d7a88,La Central de Callao,40.41937153198512,-3.706036221579081,4bf58dd8d48988d114951735,Bookstore
Madrid,Sol ,40.417827200000005,-3.7022220899150735,561ec540498ee9a64b6cd8c6,Primark,40.420417,-3.703471,4bf58dd8d48988d103951735,Clothing Store
Madrid,Sol ,40.417827200000005,-3.7022220899150735,5a74b0d6d4cc98116c99e32d,COS,40.421411172299955,-3.701099921347004,4bf58dd8d48988d103951735,Clothing Store
Madrid,Sol ,40.417827200000005,-3.7022220899150735,4adcda34f964a520ed3a21e3,Restaurante Viva Madrid,40.41516746717612,-3.6998336282593405,4bf58dd8d48988d150941735,Spanish Restaurant
Madrid,Sol ,40.417827200000005,-3.7022220899150735,4adcda3cf964a5208d3d21e3,Teatro de La Zarzuela,40.41718415347722,-3.6970549821853633,4bf58dd8d48988d137941735,Theater
Madrid,Sol ,40.417827200000005,-3.7022220899150735,4c9e939e0e9bb1f70adce85f,Santamaría La Coctelería De Al Lado,40.42134755631249,-3.7036387573498875,4bf58dd8d48988d11e941735,Cocktail Bar
Madrid,Sol ,40.417827200000005,-3.7022220899150735,54d0d0b7498e7bfe6fdef641,Umiko,40.417593886155295,-3.6973123468602287,4bf58dd8d48988d1d2941735,Sushi Restaurant
Madrid,Sol ,40.417827200000005,-3.7022220899150735,4e65267bd4c06542ac1c99fc,Plaza Santa Cruz,40.415063266025314,-3.705661389771447,4bf58dd8d48988d164941735,Plaza
Madrid,Sol ,40.417827200000005,-3.7022220899150735,4cdd9af2df986ea876a5d616,Hotel NH Collection Madrid Palacio de Tepa,40.41379972837331,-3.7016755766313,4bf58dd8d48988d1fa931735,Hotel
Madrid,Sol ,40.417827200000005,-3.7022220899150735,4ccc9d65c9b84688841cbec3,Microteatro por dinero,40.42160197351315,-3.704046723853181,4bf58dd8d48988d1f2931735,Performing Arts Venue
Madrid,Sol ,40.417827200000005,-3.7022220899150735,4bf6e9484a67c92852a922cf,Palacio Santa Ana,40.414382390474,-3.701874586944422,4bf58dd8d48988d175941735,Gym / Fitness Center
Madrid,Sol ,40.417827200000005,-3.7022220899150735,4b76c4c4f964a520ca5d2ee3,Zara,40.420272230883235,-3.704035090315028,4bf58dd8d48988d103951735,Clothing Store
Madrid,Sol ,40.417827200000005,-3.7022220899150735,4cfd4f407f2db1f7c75237d4,Plaza del Ángel,40.41435975349727,-3.7018864916485246,4bf58dd8d48988d164941735,Plaza
Madrid,Sol ,40.417827200000005,-3.7022220899150735,4bda75d363c5c9b63c2d2468,Plaza de Pedro Zerolo,40.420828697901726,-3.6993528813228123,4bf58dd8d48988d164941735,Plaza
Madrid,Sol ,40.417827200000005,-3.7022220899150735,4adcda38f964a5204c3c21e3,Círculo de Bellas Artes,40.41848647958846,-3.6966117471456528,4bf58dd8d48988d12d941735,Monument / Landmark
Madrid,Sol ,40.417827200000005,-3.7022220899150735,4adcda35f964a5207d3b21e3,Chocolatería San Ginés,40.416754336997364,-3.7070788402276738,52f2ab2ebcbc57f1066b8b31,Chocolate Shop
Madrid,Sol ,40.417827200000005,-3.7022220899150735,4cb317c6562d224bce422b88,Lamucca de Prado,40.41483704752955,-3.6985914897741425,4bf58dd8d48988d1c4941735,Restaurant
Madrid,Sol ,40.417827200000005,-3.7022220899150735,4b432157f964a52072dc25e3,El Corte Inglés,40.41966081147772,-3.7054430956278885,4bf58dd8d48988d1f6941735,Department Store
Madrid,Sol ,40.417827200000005,-3.7022220899150735,50750ccd067d625a24eb2d2d,Madrid Segway Tours,40.421206937589595,-3.7053537368774414,56aa371be4b08b9a8d573552,Rental Service
Madrid,Sol ,40.417827200000005,-3.7022220899150735,50ed741be4b085b71f22e25a,Central Mexicana,40.419703187976694,-3.7055115081350247,4bf58dd8d48988d1c1941735,Mexican Restaurant
Madrid,Sol ,40.417827200000005,-3.7022220899150735,555508a4498efdc9d0102ca3,Fox In A Box Madrid - Juego de Escape Game,40.42011505083917,-3.697489005665821,5f2c2834b6d05514c704451e,Escape Room
Madrid,Sol ,40.417827200000005,-3.7022220899150735,4fddbb7fe4b08aca49a0273a,Azotea Círculo de Bellas Artes,40.41827957022062,-3.6964652547535874,4bf58dd8d48988d133951735,Roof Deck
Madrid,Sol ,40.417827200000005,-3.7022220899150735,57a9b656498e4e4ac3c16de8,Gran Vía Capital,40.42069333275565,-3.7064598025941797,4bf58dd8d48988d1fa931735,Hotel
Madrid,Sol ,40.417827200000005,-3.7022220899150735,4b48e639f964a520695c26e3,Café de la Luz,40.42212279165881,-3.7025909845617453,4bf58dd8d48988d16d941735,Café
Madrid,Sol ,40.417827200000005,-3.7022220899150735,51f3cf92498e6ef43394db84,La Máquina,40.41974627119504,-3.7055811323225574,4bf58dd8d48988d1f5941735,Gourmet Shop
Madrid,Sol ,40.417827200000005,-3.7022220899150735,4cf3c4406195721e979f4ec1,Wok to Walk,40.42060927264202,-3.700822040384814,4bf58dd8d48988d145941735,Chinese Restaurant
Madrid,Sol ,40.417827200000005,-3.7022220899150735,4adcda3af964a520273d21e3,La Barraca,40.41990689012166,-3.6987179885049537,4bf58dd8d48988d14d941735,Paella Restaurant
Madrid,Sol ,40.417827200000005,-3.7022220899150735,593ac75159fe5c3bbdd96471,Starbucks,40.419667845686355,-3.7061354223688325,4bf58dd8d48988d1e0931735,Coffee Shop
Madrid,Sol ,40.417827200000005,-3.7022220899150735,514d73fae4b0f2f188ab8d1c,Churrería Los Artesanos 1902,40.41758135061494,-3.7070293825992406,4bf58dd8d48988d1e0931735,Coffee Shop
Madrid,Sol ,40.417827200000005,-3.7022220899150735,5c45ed7ce17910002c8a1cd5,Mistura Ice Cream,40.414465,-3.702782,4bf58dd8d48988d1c9941735,Ice Cream Shop
Madrid,Sol ,40.417827200000005,-3.7022220899150735,4b571f93f964a5204e2728e3,Nike Store,40.420420603829974,-3.7046934333829995,4bf58dd8d48988d1f2941735,Sporting Goods Shop
Madrid,Sol ,40.417827200000005,-3.7022220899150735,4adcda3df964a520f33d21e3,Teatro Calderón,40.4141564664728,-3.7034413966834525,4bf58dd8d48988d137941735,Theater
Madrid,Sol ,40.417827200000005,-3.7022220899150735,51d5c142498eb4644f053d0b,La Rollerie,40.41385383986997,-3.7028908043886357,4bf58dd8d48988d16d941735,Café
Madrid,Sol ,40.417827200000005,-3.7022220899150735,58c46d56409f5601c65981dc,Surya,40.42106247719579,-3.705613785627445,4bf58dd8d48988d10f941735,Indian Restaurant
Madrid,Sol ,40.417827200000005,-3.7022220899150735,4b58b23df964a520226628e3,Cines Callao - Callao City Lights,40.42023508737295,-3.7060891114606473,4bf58dd8d48988d17f941735,Movie Theater
Madrid,Imperial ,40.406928799999996,-3.7173219721808497,5544a698498ef7993cf393eb,Teseo Teatro,40.40830089390259,-3.715951229375958,507c8c4091d498d9fc8c67a9,Public Art
Madrid,Imperial ,40.406928799999996,-3.7173219721808497,4e6fa2f9ae604d1b45b6b2a5,Spa Los Nogales,40.40539932921744,-3.71723643446531,4bf58dd8d48988d1ed941735,Spa
Madrid,Imperial ,40.406928799999996,-3.7173219721808497,4adcda37f964a520263c21e3,Puerta de Toledo,40.406719704277435,-3.7116247415542603,4bf58dd8d48988d12d941735,Monument / Landmark
Madrid,Imperial ,40.406928799999996,-3.7173219721808497,4e636a3718a8ce02fd43ea2d,Parque Dalieda de San Francisco,40.40985565627917,-3.714632838233208,4bf58dd8d48988d15a941735,Garden
Madrid,Imperial ,40.406928799999996,-3.7173219721808497,4c1a55c655e4c9b6ab904723,Parque de La Cornisa,40.40932557387759,-3.7149085654101484,4bf58dd8d48988d163941735,Park
Madrid,Imperial ,40.406928799999996,-3.7173219721808497,4bb7955cb35776b027d2c701,Seoul,40.41105892100128,-3.7180896567617623,4bf58dd8d48988d113941735,Korean Restaurant
Madrid,Imperial ,40.406928799999996,-3.7173219721808497,51aba281498e9e3a72d5405e,El Camarote,40.40839,-3.7162416,4bf58dd8d48988d1e0931735,Coffee Shop
Madrid,Imperial ,40.406928799999996,-3.7173219721808497,4d6d0f62125eb60cc4b42f4e,Sportoday Fitness Center,40.40505369473396,-3.716360846264108,4bf58dd8d48988d176941735,Gym
Madrid,Imperial ,40.406928799999996,-3.7173219721808497,56158691498edf031f1ed473,basic-fit puerta de toledo,40.40368559023189,-3.713484440439927,4bf58dd8d48988d175941735,Gym / Fitness Center
Madrid,Imperial ,40.406928799999996,-3.7173219721808497,4b9521a9f964a5209b9034e3,La Herradura,40.40857850865012,-3.717496643019891,4bf58dd8d48988d150941735,Spanish Restaurant
Madrid,Imperial ,40.406928799999996,-3.7173219721808497,4ce6892df1c6236a8af953f0,Arroceria Imperial,40.404255,-3.715239,4bf58dd8d48988d1c0941735,Mediterranean Restaurant
Madrid,Imperial ,40.406928799999996,-3.7173219721808497,4f00c2feb6346feaedadf9eb,Domino's Pizza,40.40558977984799,-3.716412178764935,4bf58dd8d48988d1ca941735,Pizza Place
Madrid,Imperial ,40.406928799999996,-3.7173219721808497,4bbc97013de8c9b6eb1f9bad,Montepinos,40.403596350870764,-3.7136552084797287,4bf58dd8d48988d150941735,Spanish Restaurant
Madrid,Imperial ,40.406928799999996,-3.7173219721808497,4d1a082ce190721e12bd2d21,NH Ribera del Manzanares,40.40631826368248,-3.7217145991148537,4bf58dd8d48988d1fa931735,Hotel
Madrid,Imperial ,40.406928799999996,-3.7173219721808497,4c1c92d88b3aa5934c1a995f,Centro Deportivo Municipal Marqués de Samaranch,40.407577055637205,-3.7172002632398424,4bf58dd8d48988d175941735,Gym / Fitness Center
Madrid,Imperial ,40.406928799999996,-3.7173219721808497,4c43f61f8c1f20a188cf3b99,Campiello,40.40576956291889,-3.7120047190889807,4bf58dd8d48988d150941735,Spanish Restaurant
Madrid,Imperial ,40.406928799999996,-3.7173219721808497,4c626079eb82d13a5d4205d6,HRC Madrid,40.409796988638846,-3.713122122850963,4bf58dd8d48988d1fa931735,Hotel
Madrid,Imperial ,40.406928799999996,-3.7173219721808497,4c190c86838020a1cc1ce561,Hotel Puerta de Toledo,40.406426101394146,-3.712183490311375,4bf58dd8d48988d1fa931735,Hotel
Madrid,Imperial ,40.406928799999996,-3.7173219721808497,4b5ad7e4f964a52018d728e3,Supercor,40.40761926220015,-3.7168262208182865,4bf58dd8d48988d118951735,Grocery Store
Madrid,Imperial ,40.406928799999996,-3.7173219721808497,4d692a050a25b60cc0222190,Cerveceria Ruyma,40.404255611015216,-3.717923923929534,4bf58dd8d48988d1db931735,Tapas Restaurant
Madrid,Imperial ,40.406928799999996,-3.7173219721808497,4f117f59e4b0380202b004b5,Los Tronquitos,40.409952111488224,-3.7195663426169174,4bf58dd8d48988d150941735,Spanish Restaurant
Madrid,Imperial ,40.406928799999996,-3.7173219721808497,4f44e47ee4b0868b4188be65,Madrid Río Café Andorra,40.40730825454089,-3.722514785198101,4bf58dd8d48988d117941735,Beer Garden
Madrid,Imperial ,40.406928799999996,-3.7173219721808497,4dac08b993a04642f0a1165e,Colby Cafe,40.40713184312889,-3.716759168580845,4bf58dd8d48988d16d941735,Café
Madrid,Imperial ,40.406928799999996,-3.7173219721808497,4f9591c8e4b0d0d98a82d03f,Zocodover,40.40621611209999,-3.7117334894800806,4bf58dd8d48988d16d941735,Café
Madrid,Imperial ,40.406928799999996,-3.7173219721808497,578b3221498eac87c030e732,Cafe & Té,40.406045,-3.711669,4bf58dd8d48988d147941735,Diner
Madrid,Imperial ,40.406928799999996,-3.7173219721808497,4d33070c6c7c721e589ab556,La Casa De Zhou,40.40515740677846,-3.7163080930525005,4bf58dd8d48988d145941735,Chinese Restaurant
Madrid,Acacias ,40.4040749,-3.7059572,56957480498e24701cb46361,sushi raku,40.404623,-3.708216,4bf58dd8d48988d1d2941735,Sushi Restaurant
Madrid,Acacias ,40.4040749,-3.7059572,51017e7fe4b05ffc30802a31,AltaFit Puerta de Toledo,40.40511457737344,-3.7076489386093074,4bf58dd8d48988d175941735,Gym / Fitness Center
Madrid,Acacias ,40.4040749,-3.7059572,53a30e21498ea4f0852c7a64,Tabacalera  Promoción del Arte,40.40638581945433,-3.7032421479989543,4bf58dd8d48988d1e2931735,Art Gallery
Madrid,Acacias ,40.4040749,-3.7059572,562b631c498e7ab0be9acbc3,Viva Gym Embajadores,40.40527554456864,-3.702455632112476,52f2ab2ebcbc57f1066b8b48,Gymnastics Gym
Madrid,Acacias ,40.4040749,-3.7059572,4be32685d27a20a16a60915b,CSA La Tabacalera de Lavapiés,40.40613451937499,-3.702630117571652,4bf58dd8d48988d171941735,Event Space
Madrid,Acacias ,40.4040749,-3.7059572,4b8a753bf964a5208b6d32e3,El Capricho Extremeño,40.407090407096,-3.70826083435309,4bf58dd8d48988d1db931735,Tapas Restaurant
Madrid,Acacias ,40.4040749,-3.7059572,534c1670498e590e32fcda7f,Swinton & Grant,40.40595337214276,-3.70187059849157,4bf58dd8d48988d1e2931735,Art Gallery
Madrid,Acacias ,40.4040749,-3.7059572,4fc66b7ce4b041bde358e6ca,Taste of America,40.40624743681049,-3.7070701917580426,4bf58dd8d48988d1f5941735,Gourmet Shop
Madrid,Acacias ,40.4040749,-3.7059572,5432d32d498e7df38dd37e10,Granier,40.404785294983085,-3.70228438943238,4bf58dd8d48988d16a941735,Bakery
Madrid,Acacias ,40.4040749,-3.7059572,56ec54eb498e7f6f7356aed2,Bendito Vinos y Vinilos,40.407497,-3.703717,4bf58dd8d48988d119951735,Wine Shop
Madrid,Acacias ,40.4040749,-3.7059572,4e1584b5b3ad47cbbb61c2d5,Mercado de San Fernando,40.40772000673654,-3.7036774230708462,50be8ee891d4fa8dcc7199a7,Market
Madrid,Acacias ,40.4040749,-3.7059572,5023d5588055249578accb3b,La buena pinta,40.407715422064975,-3.7036407242011156,4bf58dd8d48988d186941735,Liquor Store
Madrid,Acacias ,40.4040749,-3.7059572,4ebfbd228b81127c0b23f020,Galerias Piquer,40.40779179918596,-3.7068231168396895,4bf58dd8d48988d1e2931735,Art Gallery
Madrid,Acacias ,40.4040749,-3.7059572,57a71f7f498ec674f25a3c5c,Uskar,40.4040209107394,-3.7009395255174256,56aa371be4b08b9a8d573538,Theme Restaurant
Madrid,Acacias ,40.4040749,-3.7059572,4befb1d151f2c9b627daf092,Rastro de Madrid,40.407712303853444,-3.707435131072998,4bf58dd8d48988d1f7941735,Flea Market
Madrid,Acacias ,40.4040749,-3.7059572,4bbb9759ed7776b0a0a53e51,La Taberna De Mi Abuelo,40.40191135514439,-3.704978969297104,4bf58dd8d48988d116941735,Bar
Madrid,Acacias ,40.4040749,-3.7059572,4bab349df964a52062993ae3,Formula nietos,40.40432972081959,-3.7023674969505587,4bf58dd8d48988d1db931735,Tapas Restaurant
Madrid,Acacias ,40.4040749,-3.7059572,4adcda3cf964a520a63d21e3,Sala Cuarta Pared,40.40268640431053,-3.7026998623030054,4bf58dd8d48988d135941735,Indie Theater
Madrid,Acacias ,40.4040749,-3.7059572,511a958be4b014fb1e4685f2,Urban Box Crossfit,40.40279297352163,-3.701903826112441,4bf58dd8d48988d176941735,Gym
Madrid,Acacias ,40.4040749,-3.7059572,54fb3d1a498e1b4422c30f68,Café Ziryab,40.40224373821232,-3.705137469839676,4bf58dd8d48988d11b941735,Pub
Madrid,Acacias ,40.4040749,-3.7059572,534c13a6498e9a05afb185e5,Ciudadano Grant,40.405850619962536,-3.70179270940268,4bf58dd8d48988d114951735,Bookstore
Madrid,Acacias ,40.4040749,-3.7059572,4e62c974d164ddd5e5f0604d,Taberna Alabanda,40.40646464242617,-3.701418145135369,4bf58dd8d48988d116941735,Bar
Madrid,Acacias ,40.4040749,-3.7059572,4c4352e7520fa593db7accac,Pryce Cafe,40.401935,-3.708241,4bf58dd8d48988d116941735,Bar
Madrid,Acacias ,40.4040749,-3.7059572,55f3256f498ea3ed9a0e375b,Le Crust Pizza Bar,40.400922,-3.70989,4bf58dd8d48988d1ca941735,Pizza Place
Madrid,Acacias ,40.4040749,-3.7059572,4adcda36f964a520dc3b21e3,Sala Caracol,40.40387211812955,-3.700126025936046,5032792091d4c4b30a586d5c,Concert Hall
Madrid,Acacias ,40.4040749,-3.7059572,4d614581196ba093899c2356,Misa De 8:00,40.407135882564056,-3.7023403044473717,4bf58dd8d48988d116941735,Bar
Madrid,Acacias ,40.4040749,-3.7059572,4be7f8e9c5220f47b21ea9ca,Freiduria Gallinejas,40.40361626341395,-3.7014348579471696,4bf58dd8d48988d150941735,Spanish Restaurant
Madrid,Acacias ,40.4040749,-3.7059572,4b8ed26ff964a5202b3933e3,La Margherita,40.401253555178585,-3.7033826679956547,4bf58dd8d48988d1ca941735,Pizza Place
Madrid,Acacias ,40.4040749,-3.7059572,54f086ce498e2cd9fd221e41,Cafe & Té,40.403189033617984,-3.7028419392214444,4bf58dd8d48988d1c7941735,Snack Place
Madrid,Acacias ,40.4040749,-3.7059572,5aaeb9dc48b04e6973f9434e,Goiko Grill Embajadores,40.402367,-3.7008743,4bf58dd8d48988d16c941735,Burger Joint
Madrid,Acacias ,40.4040749,-3.7059572,4da1ad127ccc816e1d74577b,Bar Díaz,40.40391697881932,-3.7015548681887758,4bf58dd8d48988d16d941735,Café
Madrid,Acacias ,40.4040749,-3.7059572,50e98016e4b007fcc1eb283d,Donde da la vuelta el Viento,40.40624798333449,-3.7016229025549228,4bf58dd8d48988d150941735,Spanish Restaurant
Madrid,Acacias ,40.4040749,-3.7059572,4c29c3003492a593d85cb928,Glorieta de Embajadores,40.40479271848901,-3.7025231772765324,4bf58dd8d48988d164941735,Plaza
Madrid,Acacias ,40.4040749,-3.7059572,4ce17c483644a09322685d9f,Parque de Peñuelas,40.400228640871305,-3.704967498779297,4bf58dd8d48988d163941735,Park
Madrid,Acacias ,40.4040749,-3.7059572,4bae7686f964a5207fb53be3,Beirut,40.4064182537407,-3.7015454433242203,4bf58dd8d48988d1c4941735,Restaurant
Madrid,Acacias ,40.4040749,-3.7059572,4f7f2c36e4b04cc2fbe70518,Patinódromo de Arganzuela,40.40082377459056,-3.7082232874787997,4bf58dd8d48988d167941735,Skate Park
Madrid,Acacias ,40.4040749,-3.7059572,4ba619d7f964a520973339e3,Taberna La Mancha En Madrid,40.40655229856701,-3.701481955594314,50327c8591d4c4b30a586d5d,Brewery
Madrid,Acacias ,40.4040749,-3.7059572,503f645ee4b012439a720f4e,Supercor express,40.40227112679353,-3.7077837035594916,4bf58dd8d48988d118951735,Grocery Store
Madrid,Acacias ,40.4040749,-3.7059572,4c7a3b123badb1f719985154,Parque Infantil,40.40177331188169,-3.7043743494805708,4bf58dd8d48988d163941735,Park
Madrid,Acacias ,40.4040749,-3.7059572,4cced0f22dc437046ce5d608,El Rincón De Asturias,40.401465011697624,-3.702407137711709,4bf58dd8d48988d150941735,Spanish Restaurant
Madrid,Acacias ,40.4040749,-3.7059572,4b926558f964a52095f633e3,ojos negros,40.40132626177153,-3.70233812686819,4bf58dd8d48988d116941735,Bar
Madrid,Acacias ,40.4040749,-3.7059572,5997a72a898bdc4a9a674da6,Carrefour Express,40.4024136,-3.7023827,52f2ab2ebcbc57f1066b8b46,Supermarket
Madrid,Acacias ,40.4040749,-3.7059572,4f03795cf9abd5b393fa228b,Qué Pizza,40.40045628127659,-3.7038986439085226,4bf58dd8d48988d1ca941735,Pizza Place
Madrid,Chopera ,40.39489315,-3.699705113463008,511a474ce4b03bddc2ac7c58,Trattoria In Crescendo,40.39458232012004,-3.6983880942169574,4bf58dd8d48988d110941735,Italian Restaurant
Madrid,Chopera ,40.39489315,-3.699705113463008,4bdc5df8c79cc928063586e9,Madrid Río (Sector Sur),40.39450912360116,-3.7026071548461914,4bf58dd8d48988d163941735,Park
Madrid,Chopera ,40.39489315,-3.699705113463008,4d1f286cb69c6dcb39f76495,Palacio de Cristal de la Arganzuela (Invernadero),40.39377059552116,-3.7002269419528067,4bf58dd8d48988d15a941735,Garden
Madrid,Chopera ,40.39489315,-3.699705113463008,4f95161a1081cba0062a0021,Go Hyang Mat,40.39651209507304,-3.699201240629983,4bf58dd8d48988d113941735,Korean Restaurant
Madrid,Chopera ,40.39489315,-3.699705113463008,4b6c7268f964a520d83a2ce3,Matadero Madrid,40.39227020881504,-3.697500228881836,4bf58dd8d48988d1e2931735,Art Gallery
Madrid,Chopera ,40.39489315,-3.699705113463008,501fb611e4b01a19bbc45bf8,HiFitness,40.39745815458322,-3.7013076927979083,4bf58dd8d48988d176941735,Gym
Madrid,Chopera ,40.39489315,-3.699705113463008,4cb03d3c5430b71365ee3616,Central de Diseño / DIMAD,40.392015380873275,-3.6968269050224034,4bf58dd8d48988d18f941735,Art Museum
Madrid,Chopera ,40.39489315,-3.699705113463008,4e42ce0e3151660a03d1a54a,Las tinajas,40.3969930879287,-3.6977791786193848,4bf58dd8d48988d1db931735,Tapas Restaurant
Madrid,Chopera ,40.39489315,-3.699705113463008,4c9ce3b654c8a1cd3d787e4b,Centro Cultural Casa del Reloj,40.393534042434744,-3.6992756132369147,4bf58dd8d48988d1e2931735,Art Gallery
Madrid,Chopera ,40.39489315,-3.699705113463008,4f4cd7bce4b03af96005451e,Madrid Río (Legazpi),40.39109680713345,-3.700771982087698,4bf58dd8d48988d163941735,Park
Madrid,Chopera ,40.39489315,-3.699705113463008,4fb7bfe4e4b066c060a8982f,Nave 16,40.39164509705048,-3.6990612745285034,4bf58dd8d48988d1f2931735,Performing Arts Venue
Madrid,Chopera ,40.39489315,-3.699705113463008,59e0eb47a4ba7c562c04febd,Plaza Matadero,40.392072,-3.698374,4bf58dd8d48988d164941735,Plaza
Madrid,Chopera ,40.39489315,-3.699705113463008,4e7a455f52b1fc6a4b4d6bfd,Cineteca,40.39151543201484,-3.6965212884161835,4bf58dd8d48988d17e941735,Indie Movie Theater
