City,Neighbourhood,Neighbourhood Latitude,Neighbourhood Longitude,Venue Id,Venue,Venue Latitude,Venue Longitude,Venue Category Id,Venue Category Name
Paris,Saint-Germain-l'Auxerrois,48.8602112,2.336298884768224,4c079d740ed3c928b6be797d,Cour Carrée du Louvre,48.8603598795578,2.3385429382324214,52e81612bcbc57f1066b7a25,Pedestrian Plaza
Paris,Saint-Germain-l'Auxerrois,48.8602112,2.336298884768224,4adcda10f964a520af3521e3,Musée du Louvre,48.86084691113991,2.336440086364746,4bf58dd8d48988d18f941735,Art Museum
Paris,Saint-Germain-l'Auxerrois,48.8602112,2.336298884768224,5864efb745c3ed1e7d88e96d,La Vénus de Milo (Vénus de Milo),48.859943428504316,2.3372340202331543,56aa371be4b08b9a8d573532,Exhibit
Paris,Saint-Germain-l'Auxerrois,48.8602112,2.336298884768224,4adcda09f964a520ff3321e3,Pont des Arts,48.85856468168776,2.3376350104808807,4bf58dd8d48988d1df941735,Bridge
Paris,Saint-Germain-l'Auxerrois,48.8602112,2.336298884768224,5072efe7e4b0c34b5146e7fd,Cour Napoléon,48.86117159622847,2.3350882530212402,4bf58dd8d48988d164941735,Plaza
Paris,Saint-Germain-l'Auxerrois,48.8602112,2.336298884768224,4f6dabf5003944083fe0002e,Vestige de la Forteresse du Louvre,48.86157701632968,2.3335077597365377,4deefb944765f83613cdba6e,Historic Site
Paris,Saint-Germain-l'Auxerrois,48.8602112,2.336298884768224,4b071505f964a520dcf622e3,Place du Palais Royal,48.862523381679345,2.336687635654229,4bf58dd8d48988d164941735,Plaza
Paris,Saint-Germain-l'Auxerrois,48.8602112,2.336298884768224,4adcda1df964a5202e3921e3,Carrousel du Louvre,48.861641527291056,2.3342170930602695,4bf58dd8d48988d1fd941735,Shopping Mall
Paris,Saint-Germain-l'Auxerrois,48.8602112,2.336298884768224,4b48b4b0f964a5207c5326e3,Comédie-Française,48.863087901186134,2.336611747741699,4bf58dd8d48988d137941735,Theater
Paris,Saint-Germain-l'Auxerrois,48.8602112,2.336298884768224,588ba9a9fc5a5f18a36a2a05,"Pavillon des Sessions – Arts d'Afrique, d'Asie, d'Océanie et des Amériques",48.860724043718605,2.332121414307368,4bf58dd8d48988d18f941735,Art Museum
Paris,Saint-Germain-l'Auxerrois,48.8602112,2.336298884768224,4f979c8ae4b05465dae0714f,Place du Louvre,48.859841,2.340822,4bf58dd8d48988d164941735,Plaza
Paris,Saint-Germain-l'Auxerrois,48.8602112,2.336298884768224,4adcda09f964a520ed3321e3,Palais Royal,48.86323576771446,2.3371267318725586,4deefb944765f83613cdba6e,Historic Site
Paris,Saint-Germain-l'Auxerrois,48.8602112,2.336298884768224,533ffd0611d24e92867c9a17,Buly 1803,48.857146395868874,2.33503927183584,4bf58dd8d48988d10c951735,Cosmetics Shop
Paris,Saint-Germain-l'Auxerrois,48.8602112,2.336298884768224,4bfe32698992a5934731adb0,Place Colette,48.86314532311905,2.3359428401856035,4bf58dd8d48988d164941735,Plaza
Paris,Saint-Germain-l'Auxerrois,48.8602112,2.336298884768224,4adcda05f964a5206c3221e3,Le Fumoir,48.86042428799186,2.3408684134483337,4bf58dd8d48988d11e941735,Cocktail Bar
Paris,Saint-Germain-l'Auxerrois,48.8602112,2.336298884768224,52b5c225498eeda0297a855a,Coffee Crêpes,48.85884059518823,2.3408023161365143,4bf58dd8d48988d1e0931735,Coffee Shop
Paris,Saint-Germain-l'Auxerrois,48.8602112,2.336298884768224,4bd0684b046076b0bbdb6f71,Jardins du Carrousel (Jardin du Carrousel),48.86205640499456,2.3324446522511044,4bf58dd8d48988d15a941735,Garden
Paris,Saint-Germain-l'Auxerrois,48.8602112,2.336298884768224,4adcda09f964a520173421e3,Église Saint-Germain-l'Auxerrois (Église Saint-Germain l'Auxerrois),48.859519915404825,2.3413056135177612,4bf58dd8d48988d132941735,Church
Paris,Saint-Germain-l'Auxerrois,48.8602112,2.336298884768224,4cd5555fa5b34688a1248d50,Musée des Arts Décoratifs,48.863077314067475,2.333393096923828,4bf58dd8d48988d18f941735,Art Museum
Paris,Saint-Germain-l'Auxerrois,48.8602112,2.336298884768224,57421b43498eb3b82c128e67,LouLou,48.86280381272633,2.333500385284424,4bf58dd8d48988d110941735,Italian Restaurant
Paris,Saint-Germain-l'Auxerrois,48.8602112,2.336298884768224,5540b49d498e84ce71f6b0ce,Guy Savoy,48.857085019941806,2.3388068135574938,4bf58dd8d48988d10c941735,French Restaurant
Paris,Saint-Germain-l'Auxerrois,48.8602112,2.336298884768224,571fe799498ef36a9fd63f1a,La Clef Louvre Paris  ,48.86397721115658,2.336139678955078,4bf58dd8d48988d1fa931735,Hotel
Paris,Saint-Germain-l'Auxerrois,48.8602112,2.336298884768224,4b8b0d83f964a5206a9032e3,L'Hotel,48.85637674082885,2.33519300383645,4bf58dd8d48988d1fa931735,Hotel
Paris,Saint-Germain-l'Auxerrois,48.8602112,2.336298884768224,4adcda0ef964a520353521e3,Monnaie de Paris,48.85683338028305,2.3390582159751068,4bf58dd8d48988d181941735,Museum
Paris,Saint-Germain-l'Auxerrois,48.8602112,2.336298884768224,4c4af766c668e21e3e4565f9,Christian Louboutin,48.86269669087095,2.3407570303733496,4bf58dd8d48988d107951735,Shoe Store
Paris,Saint-Germain-l'Auxerrois,48.8602112,2.336298884768224,4bfec6bb68c7a5931bab3f44,La Régalade Saint-Honoré,48.861619829461404,2.3417487166534374,4bf58dd8d48988d10c941735,French Restaurant
Paris,Saint-Germain-l'Auxerrois,48.8602112,2.336298884768224,548884fc498e7a7ca55edf84,Boutique yam'Tcha,48.8617098431057,2.342380022000763,4bf58dd8d48988d145941735,Chinese Restaurant
Paris,Saint-Germain-l'Auxerrois,48.8602112,2.336298884768224,4b8915d8f964a520f61b32e3,Cafés Verlet,48.86408827729653,2.33387790620327,4bf58dd8d48988d16d941735,Café
Paris,Saint-Germain-l'Auxerrois,48.8602112,2.336298884768224,4cb97f264c60a0933b0e40ca,Thémaé,48.8635893167855,2.339755524069546,4bf58dd8d48988d1ed941735,Spa
Paris,Saint-Germain-l'Auxerrois,48.8602112,2.336298884768224,5603cf2e498e56742e72d924,Kosyuen 華修園,48.864163247442406,2.3335674783429994,4bf58dd8d48988d1dc931735,Tea Room
Paris,Saint-Germain-l'Auxerrois,48.8602112,2.336298884768224,4d025bb418ff8cfa9967c457,Aesop,48.86418732734743,2.3337513769045515,4bf58dd8d48988d10c951735,Cosmetics Shop
Paris,Saint-Germain-l'Auxerrois,48.8602112,2.336298884768224,4adcda03f964a520f13121e3,Hôtel Verneuil,48.857370531184706,2.3314350843429565,4bf58dd8d48988d1fa931735,Hotel
Paris,Saint-Germain-l'Auxerrois,48.8602112,2.336298884768224,4bbcc19b8ec3d13aa42e1b28,Le Restaurant de L'Hôtel,48.85619157441753,2.3351330522533083,4bf58dd8d48988d10c941735,French Restaurant
Paris,Saint-Germain-l'Auxerrois,48.8602112,2.336298884768224,562e1b40498e3302e1e9c9a1,Fromagerie Danard,48.86329738243539,2.340948006009366,4bf58dd8d48988d11e951735,Cheese Shop
Paris,Saint-Germain-l'Auxerrois,48.8602112,2.336298884768224,4d18cf73cc216ea840bb78d3,Astier de Villatte,48.86409488281954,2.33380824705502,4bf58dd8d48988d1f8941735,Furniture / Home Store
Paris,Saint-Germain-l'Auxerrois,48.8602112,2.336298884768224,4f2c1836e4b071ded0a92b8c,la Caleche,48.85790986398048,2.3318185271945713,4bf58dd8d48988d10c941735,French Restaurant
Paris,Saint-Germain-l'Auxerrois,48.8602112,2.336298884768224,4adcda02f964a520a03121e3,Hôtel Regina,48.86379282179662,2.3325414955615993,4bf58dd8d48988d1fa931735,Hotel
Paris,Saint-Germain-l'Auxerrois,48.8602112,2.336298884768224,5a785f208e886a102cac61f8,Urban Outfitters,48.86065201199259,2.342109708573389,4bf58dd8d48988d103951735,Clothing Store
Paris,Saint-Germain-l'Auxerrois,48.8602112,2.336298884768224,513289eee4b04f7741dc9d32,Le Labo Paris,48.86385890056086,2.333757938686111,52f2ab2ebcbc57f1066b8b23,Perfume Shop
Paris,Saint-Germain-l'Auxerrois,48.8602112,2.336298884768224,529a1a7411d21a5625fd2a8c,Acne Studios,48.858216219989195,2.332647556638424,4bf58dd8d48988d103951735,Clothing Store
Paris,Saint-Germain-l'Auxerrois,48.8602112,2.336298884768224,54c6dc25498ecb20e8ca3f0e,Golden Goose Deluxe Brand,48.85818119703171,2.3332416945698498,4bf58dd8d48988d104951735,Boutique
Paris,Saint-Germain-l'Auxerrois,48.8602112,2.336298884768224,4c4048cbaf052d7fe5807b79,Maison de Serge Gainsbourg,48.85724775916546,2.3316892866508625,4deefb944765f83613cdba6e,Historic Site
Paris,Saint-Germain-l'Auxerrois,48.8602112,2.336298884768224,4adcda13f964a520ca3621e3,Voltaire (Le),48.859215190003226,2.3303438581659615,4bf58dd8d48988d10c941735,French Restaurant
Paris,Saint-Germain-l'Auxerrois,48.8602112,2.336298884768224,4adcda14f964a520293721e3,Don Camilo,48.85696465112119,2.332151017687004,4bf58dd8d48988d10c941735,French Restaurant
Paris,Saint-Germain-l'Auxerrois,48.8602112,2.336298884768224,4b8d3b45f964a520caee32e3,Sennelier,48.85829673,2.33269773,4bf58dd8d48988d127951735,Arts & Crafts Store
Paris,Saint-Germain-l'Auxerrois,48.8602112,2.336298884768224,4adcda1ff964a5208f3921e3,Librairie 7L,48.857989486319894,2.33188076831256,4bf58dd8d48988d114951735,Bookstore
Paris,Saint-Germain-l'Auxerrois,48.8602112,2.336298884768224,4adcd9fff964a520813021e3,Hôtel du Quai Voltaire (L'),48.8588864507748,2.331303390120611,4bf58dd8d48988d1fa931735,Hotel
Paris,Saint-Germain-l'Auxerrois,48.8602112,2.336298884768224,52bee298498efd3eed59edc3,Plats du jour,48.86100111893035,2.3309474077865695,4bf58dd8d48988d16d941735,Café
Paris,Les Halles,48.8624659,2.3460085999999998,4adcda22f964a5201c3a21e3,Spa Nuxe,48.86401668382025,2.3466503166186867,4bf58dd8d48988d1ed941735,Spa
Paris,Les Halles,48.8624659,2.3460085999999998,57035c8b498ebcbc85d70c40,LEGO® Store,48.86181771883298,2.3471906738969803,4bf58dd8d48988d1f3941735,Toy / Game Store
Paris,Les Halles,48.8624659,2.3460085999999998,5046533ee4b031556a97f2c5,Pirouette,48.86287551854694,2.34813524041492,4bf58dd8d48988d10c941735,French Restaurant
Paris,Les Halles,48.8624659,2.3460085999999998,4c862093e602b1f71304bd7a,Boulangerie Julien,48.86125113181775,2.344170396841888,4bf58dd8d48988d16a941735,Bakery
Paris,Les Halles,48.8624659,2.3460085999999998,4adcda14f964a520023721e3,Le Comptoir de la Gastronomie,48.864555479743366,2.345258763984336,4bf58dd8d48988d10c941735,French Restaurant
Paris,Les Halles,48.8624659,2.3460085999999998,4b1fe208f964a520362a24e3,Enza & Famiglia,48.861191006683356,2.3434486985206604,4bf58dd8d48988d110941735,Italian Restaurant
Paris,Les Halles,48.8624659,2.3460085999999998,589f8629460dd9594f214421,Hôtel Maison Albar Paris Céline,48.860552222306815,2.344258725643158,4bf58dd8d48988d1fa931735,Hotel
Paris,Les Halles,48.8624659,2.3460085999999998,557f14fc498e61a8a94c720f,Raviolis Chinois Nord-Est,48.862851,2.349547,4bf58dd8d48988d145941735,Chinese Restaurant
Paris,Les Halles,48.8624659,2.3460085999999998,548884fc498e7a7ca55edf84,Boutique yam'Tcha,48.8617098431057,2.342380022000763,4bf58dd8d48988d145941735,Chinese Restaurant
Paris,Les Halles,48.8624659,2.3460085999999998,4b83e563f964a520a31531e3,L'Escargot Montorgueil,48.864171357108425,2.346692822793557,4bf58dd8d48988d10c941735,French Restaurant
Paris,Les Halles,48.8624659,2.3460085999999998,4b7968d3f964a5200bf82ee3,Starcow Paris,48.86129035891473,2.3436617119555168,4bf58dd8d48988d106951735,Men's Store
Paris,Les Halles,48.8624659,2.3460085999999998,57001ae3cd109592e8d0a1d3,Milo,48.86116115714769,2.3443915262790096,4bf58dd8d48988d1ca941735,Pizza Place
Paris,Les Halles,48.8624659,2.3460085999999998,5864176b03e29a1f507919af,Odette,48.86063758519371,2.3443391919136047,4bf58dd8d48988d1c4941735,Restaurant
Paris,Les Halles,48.8624659,2.3460085999999998,575c019e498ee773ff9b655a,Ippudo,48.864649476657775,2.3448380827903748,55a59bace4b013909087cb24,Ramen Restaurant
Paris,Les Halles,48.8624659,2.3460085999999998,56c39299498e0190d29569ef,La Maison du Saké,48.86452103864269,2.3492260814537356,4bf58dd8d48988d111941735,Japanese Restaurant
Paris,Les Halles,48.8624659,2.3460085999999998,4adcda12f964a520783621e3,Le Louchébem,48.861621669179534,2.3443955032416848,4bf58dd8d48988d1cc941735,Steakhouse
Paris,Les Halles,48.8624659,2.3460085999999998,4b4b2e69f964a520e29326e3,L'Express Bar,48.86117974657059,2.343982446887728,4bf58dd8d48988d116941735,Bar
Paris,Les Halles,48.8624659,2.3460085999999998,5464a8e6498e60235e91db20,& Other Stories,48.8652293767804,2.3447490519036633,4bf58dd8d48988d108951735,Women's Store
Paris,Les Halles,48.8624659,2.3460085999999998,4d5c343a524fa35dd8f54635,Ô Château,48.8642903126219,2.344181584057651,4bf58dd8d48988d123941735,Wine Bar
Paris,Les Halles,48.8624659,2.3460085999999998,59778a411c0b3416c48e5204,Baltard Au Louvre,48.86344080385927,2.3425018787384033,4bf58dd8d48988d1c4941735,Restaurant
Paris,Les Halles,48.8624659,2.3460085999999998,4c457e8d8c1f20a195ce3d99,Passage du Grand Cerf,48.86476,2.349486,52e81612bcbc57f1066b7a25,Pedestrian Plaza
Paris,Les Halles,48.8624659,2.3460085999999998,4adcda20f964a520a33921e3,Stohrer,48.86525325072182,2.346816211938858,5744ccdfe4b0c0459246b4e2,Pastry Shop
Paris,Les Halles,48.8624659,2.3460085999999998,4bfec6bb68c7a5931bab3f44,La Régalade Saint-Honoré,48.861619829461404,2.3417487166534374,4bf58dd8d48988d10c941735,French Restaurant
Paris,Les Halles,48.8624659,2.3460085999999998,52ebfc9d498e376b2833f4f2,Filakia,48.86564638918743,2.3456186056137085,52e81612bcbc57f1066b79f3,Souvlaki Shop
Paris,Les Halles,48.8624659,2.3460085999999998,4dcd8c3fc65bdac7134aac41,Hapimag Resort Paris,48.86139214526471,2.3426211540259705,4bf58dd8d48988d1fa931735,Hotel
Paris,Les Halles,48.8624659,2.3460085999999998,4e26c07662e14d5da1513142,Chez la Vieille,48.86085105378297,2.3424695924319887,4bf58dd8d48988d10c941735,French Restaurant
Paris,Les Halles,48.8624659,2.3460085999999998,57dd0809cd10776425c22dd7,Cloud Cakes,48.86564146123004,2.34630173279246,4bf58dd8d48988d16a941735,Bakery
Paris,Les Halles,48.8624659,2.3460085999999998,5389f104498e8da3bcc95d26,Il Timo,48.861155953480996,2.3440117363625155,4bf58dd8d48988d110941735,Italian Restaurant
Paris,Les Halles,48.8624659,2.3460085999999998,4adcda08f964a520ab3321e3,Duc des Lombards,48.859671674677465,2.3486079275608063,4bf58dd8d48988d1e7931735,Jazz Club
Paris,Les Halles,48.8624659,2.3460085999999998,5a1c229bc0af5707fb3601cd,Bo&Mie,48.86404955512182,2.3504438996315002,4bf58dd8d48988d16a941735,Bakery
Paris,Les Halles,48.8624659,2.3460085999999998,4d79108e0ddba35dfac24a76,Sergeant Paper,48.860665157154486,2.350434511899948,4bf58dd8d48988d1e2931735,Art Gallery
Paris,Les Halles,48.8624659,2.3460085999999998,4e0766702271dfa46baee474,59 Rivoli,48.859172279057745,2.3456481099128723,4bf58dd8d48988d1e2931735,Art Gallery
Paris,Les Halles,48.8624659,2.3460085999999998,5568aaa4498e1386df70b5f2,Yam'Tcha Restaurant,48.861462,2.341898,4bf58dd8d48988d10c941735,French Restaurant
Paris,Les Halles,48.8624659,2.3460085999999998,4d7928ef10936dcbe2335389,Kei,48.864238453621226,2.3423181613381274,4bf58dd8d48988d10c941735,French Restaurant
Paris,Les Halles,48.8624659,2.3460085999999998,4b2e0b2ff964a52080dc24e3,Man'ouché,48.8618580159225,2.3510929942131042,58daa1558bbb0b01f18ec1cd,Lebanese Restaurant
Paris,Les Halles,48.8624659,2.3460085999999998,58728968d4ab735c99ae0c5e,Glace Bachir,48.86172091008543,2.3514014997634534,4bf58dd8d48988d1c9941735,Ice Cream Shop
Paris,Les Halles,48.8624659,2.3460085999999998,4d2c5883342d6dcb24621ecb,Le Pas Sage,48.86464594772859,2.3500657081604004,4bf58dd8d48988d10c941735,French Restaurant
Paris,Les Halles,48.8624659,2.3460085999999998,546e4357498e4bbab0e62040,Le Louis,48.864330749172225,2.341332062576144,4bf58dd8d48988d10c941735,French Restaurant
Paris,Les Halles,48.8624659,2.3460085999999998,51575d51e4b0202f7b715504,Cuistance,48.86203475486889,2.342529161681739,4bf58dd8d48988d1c4941735,Restaurant
Paris,Les Halles,48.8624659,2.3460085999999998,58024949d67c533488517968,Grom,48.86605483558375,2.3470948937116414,4bf58dd8d48988d1c9941735,Ice Cream Shop
Paris,Les Halles,48.8624659,2.3460085999999998,5b07f4d2dff8150038e9a843,Street Bangkok Roast & Beer,48.86393431201803,2.350193113088608,4bf58dd8d48988d149941735,Thai Restaurant
Paris,Les Halles,48.8624659,2.3460085999999998,4b27effef964a5209a8c24e3,Au Vieux Comptoir,48.85889313897845,2.3461287908631747,4bf58dd8d48988d10c941735,French Restaurant
Paris,Les Halles,48.8624659,2.3460085999999998,562e1b40498e3302e1e9c9a1,Fromagerie Danard,48.86329738243539,2.340948006009366,4bf58dd8d48988d11e951735,Cheese Shop
Paris,Les Halles,48.8624659,2.3460085999999998,4c4af766c668e21e3e4565f9,Christian Louboutin,48.86269669087095,2.3407570303733496,4bf58dd8d48988d107951735,Shoe Store
Paris,Les Halles,48.8624659,2.3460085999999998,5830354b6431e52c19b14389,Pret A Manger,48.861823919850835,2.3414673998508917,4bf58dd8d48988d1c5941735,Sandwich Place
Paris,Les Halles,48.8624659,2.3460085999999998,4d85d18481fdb1f7425419c0,Rue Montorgueil,48.86604470753487,2.3470938205718994,52e81612bcbc57f1066b7a25,Pedestrian Plaza
Paris,Les Halles,48.8624659,2.3460085999999998,4e2b2d0ad22d3f83c88c7029,Le Restaurant des Poètes,48.862321310130305,2.351590170446911,4bf58dd8d48988d10c941735,French Restaurant
Paris,Les Halles,48.8624659,2.3460085999999998,4f1ee8a8e4b072d9c5477e39,L'énigme,48.86310185356445,2.351571069551551,4bf58dd8d48988d11e941735,Cocktail Bar
Paris,Les Halles,48.8624659,2.3460085999999998,54e4e3ce498e07cde7479535,Redd,48.86623685868873,2.3477715657647504,4bf58dd8d48988d123941735,Wine Bar
Paris,Les Halles,48.8624659,2.3460085999999998,4adcda0af964a520623421e3,Centre Pompidou – Musée National d'Art Moderne,48.860729707273954,2.351660414040774,4bf58dd8d48988d18f941735,Art Museum
Paris,Les Halles,48.8624659,2.3460085999999998,4d930eff14228cfa6f83597b,Itacate,48.861405051345436,2.3424092076250274,4bf58dd8d48988d151941735,Taco Place
Paris,Les Halles,48.8624659,2.3460085999999998,4b894a17f964a520de2832e3,Ma Cave Fleury,48.86550541020573,2.350544335615611,4bf58dd8d48988d123941735,Wine Bar
Paris,Les Halles,48.8624659,2.3460085999999998,505795c0e4b05d1cec67cd38,La Dame de Pic,48.861453929376026,2.3412519693374634,4bf58dd8d48988d10c941735,French Restaurant
Paris,Les Halles,48.8624659,2.3460085999999998,4b2e1739f964a520bedc24e3,Le Garde-Robe,48.860966148186,2.342505040137945,4bf58dd8d48988d123941735,Wine Bar
Paris,Les Halles,48.8624659,2.3460085999999998,4b181e1cf964a5203acd23e3,Experimental Cocktail Club,48.86615088435938,2.3483697974431506,4bf58dd8d48988d11e941735,Cocktail Bar
Paris,Les Halles,48.8624659,2.3460085999999998,54f0c88d498e8773f486f395,koshi,48.860274,2.343497,4bf58dd8d48988d111941735,Japanese Restaurant
Paris,Les Halles,48.8624659,2.3460085999999998,4f979c8ae4b05465dae0714f,Place du Louvre,48.859841,2.340822,4bf58dd8d48988d164941735,Plaza
Paris,Les Halles,48.8624659,2.3460085999999998,5a785f208e886a102cac61f8,Urban Outfitters,48.86065201199259,2.342109708573389,4bf58dd8d48988d103951735,Clothing Store
Paris,Les Halles,48.8624659,2.3460085999999998,4fcfb74ee4b0ed600de110fd,Nose,48.866242,2.344885,52f2ab2ebcbc57f1066b8b23,Perfume Shop
Paris,Les Halles,48.8624659,2.3460085999999998,4adcda05f964a5206c3221e3,Le Fumoir,48.86042428799186,2.3408684134483337,4bf58dd8d48988d11e941735,Cocktail Bar
Paris,Les Halles,48.8624659,2.3460085999999998,539b6624498e9ff37375cdd6,Hôtel Les Bains,48.863830207014814,2.351970076560974,4bf58dd8d48988d1fa931735,Hotel
Paris,Les Halles,48.8624659,2.3460085999999998,4adcda09f964a520173421e3,Église Saint-Germain-l'Auxerrois (Église Saint-Germain l'Auxerrois),48.859519915404825,2.3413056135177612,4bf58dd8d48988d132941735,Church
Paris,Les Halles,48.8624659,2.3460085999999998,4f464628e4b0288c75c2f93a,Le Pot de Vins,48.86432169778438,2.3401925360185167,4bf58dd8d48988d1c4941735,Restaurant
Paris,Les Halles,48.8624659,2.3460085999999998,4cb74ecf64998cfaa7551ca2,LECLAIREUR Hérold,48.86483172222586,2.3415299473017144,4bf58dd8d48988d103951735,Clothing Store
Paris,Les Halles,48.8624659,2.3460085999999998,5275a54111d2d5e0287ec1cd,Il Fico,48.86416120313462,2.3417394790249864,4bf58dd8d48988d110941735,Italian Restaurant
Paris,Les Halles,48.8624659,2.3460085999999998,53a02cd7498e07c134e7ab8e,Boulettes,48.865577227851325,2.3505683279372094,4bf58dd8d48988d155941735,Gastropub
Paris,Les Halles,48.8624659,2.3460085999999998,4b9b8624f964a520e80c36e3,Galerie Véro-Dodat,48.86265000158334,2.3406919501349823,4deefb944765f83613cdba6e,Historic Site
Paris,Les Halles,48.8624659,2.3460085999999998,4c0f7dc62466a593a4a47a21,Lémoni,48.86479526144143,2.3412924967853854,4bf58dd8d48988d1bd941735,Salad Place
Paris,Les Halles,48.8624659,2.3460085999999998,54226789498e3226ba794e5e,Matamata,48.866044,2.343956,4bf58dd8d48988d1e0931735,Coffee Shop
Paris,Les Halles,48.8624659,2.3460085999999998,4bdef575e75c0f47aa67c903,Zara,48.859719433936355,2.3435409818513278,4bf58dd8d48988d103951735,Clothing Store
Paris,Les Halles,48.8624659,2.3460085999999998,4bffb4ad369476b05c248e1f,Olio Pane Vino,48.86466930258046,2.3406910643425047,4bf58dd8d48988d110941735,Italian Restaurant
Paris,Les Halles,48.8624659,2.3460085999999998,4bbb5d897421a5939eb9c440,Les Fines Gueules,48.865171886388225,2.340644784271717,4bf58dd8d48988d10c941735,French Restaurant
Paris,Les Halles,48.8624659,2.3460085999999998,4cb97f264c60a0933b0e40ca,Thémaé,48.8635893167855,2.339755524069546,4bf58dd8d48988d1ed941735,Spa
Paris,Les Halles,48.8624659,2.3460085999999998,4ec16a5cb8f7963bce6cc309,A'Rhûm,48.86307089026673,2.3526874414856436,4bf58dd8d48988d186941735,Liquor Store
Paris,Les Halles,48.8624659,2.3460085999999998,4eb42aad61af0dda8fcb1389,Blend Argout,48.865958165150715,2.343484093370061,4bf58dd8d48988d16c941735,Burger Joint
Paris,Les Halles,48.8624659,2.3460085999999998,4adcda06f964a520f03221e3,Kong,48.85920580754161,2.3430490493774414,4bf58dd8d48988d10c941735,French Restaurant
Paris,Les Halles,48.8624659,2.3460085999999998,5666c960498eebab648cbfe3,Les Caves du Louvre,48.86093109674571,2.3424757389694926,4bf58dd8d48988d181941735,Museum
Paris,Les Halles,48.8624659,2.3460085999999998,4de77728e4cdfedb8a9dad41,Claus - La table du petit-déjeuner,48.862457,2.34062,4bf58dd8d48988d143941735,Breakfast Spot
Paris,Les Halles,48.8624659,2.3460085999999998,527ce1b8498e46ac545d34aa,Johana's Fish & Chips,48.86625582652217,2.3475763233005273,4edd64a0c7ddd24ca188df1a,Fish & Chips Shop
Paris,Les Halles,48.8624659,2.3460085999999998,4c249039136d20a1aef6e161,Sephora,48.859805,2.343435,4bf58dd8d48988d10c951735,Cosmetics Shop
Paris,Les Halles,48.8624659,2.3460085999999998,4e4e5f54ae6051db8dbbea93,Louboutin Homme,48.86241120334971,2.3401549458503723,4bf58dd8d48988d107951735,Shoe Store
Paris,Les Halles,48.8624659,2.3460085999999998,4c0e2f57d64c0f471ab5275d,Aux Castelblangeois,48.8622394991043,2.339207225072566,4bf58dd8d48988d16a941735,Bakery
Paris,Les Halles,48.8624659,2.3460085999999998,5d514b4832ac8d0008ad2543,Riha Durum,48.866488014924556,2.347056269645691,4bf58dd8d48988d1c5941735,Sandwich Place
Paris,Les Halles,48.8624659,2.3460085999999998,55df4c57498e2abd14b76b73,Hôtel Bachaumont,48.86617629790189,2.3449255329280247,4bf58dd8d48988d1fa931735,Hotel
Paris,Les Halles,48.8624659,2.3460085999999998,4b7e80edf964a520dbef2fe3,Midory,48.86129550114558,2.342513022624565,4bf58dd8d48988d111941735,Japanese Restaurant
Paris,Les Halles,48.8624659,2.3460085999999998,56c5ca55cd1031bcae7c8ea9,Made.com,48.865759985961816,2.3421696239113734,4bf58dd8d48988d1f8941735,Furniture / Home Store
Paris,Les Halles,48.8624659,2.3460085999999998,5390a81c498ea09f06efb75c,Hotel Crayon Rouge,48.86461119355507,2.3404032102769885,4bf58dd8d48988d1fa931735,Hotel
Paris,Les Halles,48.8624659,2.3460085999999998,4e84be772fb6611bdfd70908,Hôtel Odyssey,48.865080155791944,2.3417756464352446,4bf58dd8d48988d1fa931735,Hotel
Paris,Les Halles,48.8624659,2.3460085999999998,4c9ce119542b224b3fa9e49f,La Couleur des Blés,48.862216,2.340083,4bf58dd8d48988d16a941735,Bakery
Paris,Les Halles,48.8624659,2.3460085999999998,5b45f018dee770002bbe5b97,Breizh Café,48.866854,2.347258,52e81612bcbc57f1066b79f2,Creperie
Paris,Les Halles,48.8624659,2.3460085999999998,580fc4cf38fa3ac061da81a2,Comptoir Montevideo,48.864697,2.3407886,4bf58dd8d48988d1cd941735,South American Restaurant
Paris,Les Halles,48.8624659,2.3460085999999998,572a55a4498e35811755b711,Le Compère,48.866598,2.345694,4bf58dd8d48988d10c941735,French Restaurant
Paris,Les Halles,48.8624659,2.3460085999999998,4b7b0998f964a520bf4d2fe3,Le Café Blanc,48.862719,2.339578,4bf58dd8d48988d116941735,Bar
Paris,Les Halles,48.8624659,2.3460085999999998,4cc9804b786e4688b2619409,À La Tour,48.85840561216191,2.344565838575363,4bf58dd8d48988d16d941735,Café
Paris,Les Halles,48.8624659,2.3460085999999998,4adcda13f964a520ba3621e3,Fellini (Le),48.86123512132553,2.3423852026462555,4bf58dd8d48988d110941735,Italian Restaurant
Paris,Les Halles,48.8624659,2.3460085999999998,5102f5e1e4b0571c091dfa66,Les Petits Plats d'Émile,48.86234542660922,2.3401143547110363,4bf58dd8d48988d10c941735,French Restaurant
Paris,Les Halles,48.8624659,2.3460085999999998,5360c737498edd4d06ccc3d8,Bagelstein,48.86080741136929,2.3425313121041498,4bf58dd8d48988d179941735,Bagel Shop
Paris,Les Halles,48.8624659,2.3460085999999998,4b51b990f964a5209b5327e3,Habitat,48.859287755114856,2.3434319081047437,4bf58dd8d48988d1f8941735,Furniture / Home Store
Paris,Les Halles,48.8624659,2.3460085999999998,593fc02b60255e13a3a472df,Zouzou,48.8664086168748,2.3466968536376953,4bf58dd8d48988d1e0931735,Coffee Shop
Paris,Les Halles,48.8624659,2.3460085999999998,4aec999af964a52045c921e3,Le Louvre Ripaille,48.8603387041641,2.3411634564399715,4bf58dd8d48988d10c941735,French Restaurant
Paris,Palais-Royal,48.8635847,2.3362042200938715,4ba8b650f964a520f5e839e3,Jardin du Palais Royal,48.86494061245833,2.3377275466918945,4bf58dd8d48988d15a941735,Garden
Paris,Palais-Royal,48.8635847,2.3362042200938715,4adcda09f964a520ed3321e3,Palais Royal,48.86323576771446,2.3371267318725586,4deefb944765f83613cdba6e,Historic Site
Paris,Palais-Royal,48.8635847,2.3362042200938715,4b48b4b0f964a5207c5326e3,Comédie-Française,48.863087901186134,2.336611747741699,4bf58dd8d48988d137941735,Theater
Paris,Palais-Royal,48.8635847,2.3362042200938715,4b071505f964a520dcf622e3,Place du Palais Royal,48.862523381679345,2.336687635654229,4bf58dd8d48988d164941735,Plaza
Paris,Palais-Royal,48.8635847,2.3362042200938715,5603cf2e498e56742e72d924,Kosyuen 華修園,48.864163247442406,2.3335674783429994,4bf58dd8d48988d1dc931735,Tea Room
Paris,Palais-Royal,48.8635847,2.3362042200938715,4bfe32698992a5934731adb0,Place Colette,48.86314532311905,2.3359428401856035,4bf58dd8d48988d164941735,Plaza
Paris,Palais-Royal,48.8635847,2.3362042200938715,4d025bb418ff8cfa9967c457,Aesop,48.86418732734743,2.3337513769045515,4bf58dd8d48988d10c951735,Cosmetics Shop
Paris,Palais-Royal,48.8635847,2.3362042200938715,4b8915d8f964a520f61b32e3,Cafés Verlet,48.86408827729653,2.33387790620327,4bf58dd8d48988d16d941735,Café
Paris,Palais-Royal,48.8635847,2.3362042200938715,571fe799498ef36a9fd63f1a,La Clef Louvre Paris  ,48.86397721115658,2.336139678955078,4bf58dd8d48988d1fa931735,Hotel
Paris,Palais-Royal,48.8635847,2.3362042200938715,4cd5555fa5b34688a1248d50,Musée des Arts Décoratifs,48.863077314067475,2.333393096923828,4bf58dd8d48988d18f941735,Art Museum
Paris,Palais-Royal,48.8635847,2.3362042200938715,579fbf15498e7f9f1b92154f,Nolinski,48.8653672585173,2.334584093466682,4bf58dd8d48988d1fa931735,Hotel
Paris,Palais-Royal,48.8635847,2.3362042200938715,4f0b706de5e8207020057ed7,Sanukiya,48.86471330060748,2.333805151283741,55a59bace4b013909087cb2a,Udon Restaurant
Paris,Palais-Royal,48.8635847,2.3362042200938715,5511b895498e1e2d8edb73e8,Ellsworth,48.865527916411786,2.337056774451994,4bf58dd8d48988d10c941735,French Restaurant
Paris,Palais-Royal,48.8635847,2.3362042200938715,4d18cf73cc216ea840bb78d3,Astier de Villatte,48.86409488281954,2.33380824705502,4bf58dd8d48988d1f8941735,Furniture / Home Store
Paris,Palais-Royal,48.8635847,2.3362042200938715,57421b43498eb3b82c128e67,LouLou,48.86280381272633,2.333500385284424,4bf58dd8d48988d110941735,Italian Restaurant
Paris,Palais-Royal,48.8635847,2.3362042200938715,52da534c498e2acc573449fb,Café Kitsuné,48.86543988887562,2.3375840216232477,4bf58dd8d48988d16d941735,Café
Paris,Palais-Royal,48.8635847,2.3362042200938715,57a62d2f498ea38dc4db9391,Brasserie Réjane,48.865485991272,2.3348240554332733,4bf58dd8d48988d1c4941735,Restaurant
Paris,Palais-Royal,48.8635847,2.3362042200938715,53c10d23498e6c9cbdc6296e,Udon Bistro Kunitoraya (Kunitoraya),48.865884035205355,2.336782068014145,55a59bace4b013909087cb2a,Udon Restaurant
Paris,Palais-Royal,48.8635847,2.3362042200938715,4f6dabf5003944083fe0002e,Vestige de la Forteresse du Louvre,48.86157701632968,2.3335077597365377,4deefb944765f83613cdba6e,Historic Site
Paris,Palais-Royal,48.8635847,2.3362042200938715,5072efe7e4b0c34b5146e7fd,Cour Napoléon,48.86117159622847,2.3350882530212402,4bf58dd8d48988d164941735,Plaza
Paris,Palais-Royal,48.8635847,2.3362042200938715,4adcda10f964a520af3521e3,Musée du Louvre,48.86084691113991,2.336440086364746,4bf58dd8d48988d18f941735,Art Museum
Paris,Palais-Royal,48.8635847,2.3362042200938715,4b65af53f964a52093f92ae3,Restaurant Kunitoraya,48.86611572520175,2.3364669084548946,4bf58dd8d48988d111941735,Japanese Restaurant
Paris,Palais-Royal,48.8635847,2.3362042200938715,4cb97f264c60a0933b0e40ca,Thémaé,48.8635893167855,2.339755524069546,4bf58dd8d48988d1ed941735,Spa
Paris,Palais-Royal,48.8635847,2.3362042200938715,513289eee4b04f7741dc9d32,Le Labo Paris,48.86385890056086,2.333757938686111,52f2ab2ebcbc57f1066b8b23,Perfume Shop
Paris,Palais-Royal,48.8635847,2.3362042200938715,4adcda15f964a5208e3721e3,Théâtre du Palais-Royal,48.86600524368278,2.3376850883287545,4bf58dd8d48988d137941735,Theater
Paris,Palais-Royal,48.8635847,2.3362042200938715,4c360bbd93db0f4705641d92,Boulangerie Aki,48.86621097624905,2.335457623784485,4bf58dd8d48988d16a941735,Bakery
Paris,Palais-Royal,48.8635847,2.3362042200938715,4f464628e4b0288c75c2f93a,Le Pot de Vins,48.86432169778438,2.3401925360185167,4bf58dd8d48988d1c4941735,Restaurant
Paris,Palais-Royal,48.8635847,2.3362042200938715,4d7fb74387003704cc878a99,Place des Pyramides,48.863924276481605,2.332223653793335,4bf58dd8d48988d164941735,Plaza
Paris,Palais-Royal,48.8635847,2.3362042200938715,4ba4d1b9f964a520e1b738e3,Nodaiwa,48.86435425075339,2.3331572600591257,4bf58dd8d48988d111941735,Japanese Restaurant
Paris,Palais-Royal,48.8635847,2.3362042200938715,4adcda02f964a520a03121e3,Hôtel Regina,48.86379282179662,2.3325414955615993,4bf58dd8d48988d1fa931735,Hotel
Paris,Palais-Royal,48.8635847,2.3362042200938715,4b3a1f92f964a5205a6125e3,K-Mart,48.865371417068246,2.335009233295977,4bf58dd8d48988d118951735,Grocery Store
Paris,Palais-Royal,48.8635847,2.3362042200938715,4e6e4c1f45dd293273d08106,Verjus Bar à Vins,48.86630556463485,2.3374713957309723,4bf58dd8d48988d123941735,Wine Bar
Paris,Palais-Royal,48.8635847,2.3362042200938715,4e8af48de5fa5654b596f417,Le Salon du Fromage Hisada,48.86624879517917,2.3371863375908837,4bf58dd8d48988d11e951735,Cheese Shop
Paris,Palais-Royal,48.8635847,2.3362042200938715,4adcda1df964a5202e3921e3,Carrousel du Louvre,48.861641527291056,2.3342170930602695,4bf58dd8d48988d1fd941735,Shopping Mall
Paris,Palais-Royal,48.8635847,2.3362042200938715,5ce7defc1fa7630039b67147,On the Bab,48.86641655668545,2.335109710693359,4bf58dd8d48988d113941735,Korean Restaurant
Paris,Palais-Royal,48.8635847,2.3362042200938715,4bd0684b046076b0bbdb6f71,Jardins du Carrousel (Jardin du Carrousel),48.86205640499456,2.3324446522511044,4bf58dd8d48988d15a941735,Garden
Paris,Palais-Royal,48.8635847,2.3362042200938715,5699575c498edabe56c15ecf,Verjus,48.86639803045864,2.3373547196388245,4bf58dd8d48988d10c941735,French Restaurant
Paris,Palais-Royal,48.8635847,2.3362042200938715,4e9d6adde5fa336fdb43cd62,Hôtel Le Pradey,48.86445923930909,2.33165399481692,4bf58dd8d48988d1fa931735,Hotel
Paris,Palais-Royal,48.8635847,2.3362042200938715,55e9eee8498e43ed2bd190f8,Le Roch Hotel & Spa Paris,48.86620012005232,2.3329946840505174,4bf58dd8d48988d1fa931735,Hotel
Paris,Palais-Royal,48.8635847,2.3362042200938715,59f1c4e9bcbf7a18fbb66047,Chang,48.86593046151141,2.3339590430259705,4bf58dd8d48988d149941735,Thai Restaurant
Paris,Palais-Royal,48.8635847,2.3362042200938715,4e36eee61850ad8463dc9da5,Maison Kitsuné,48.866372,2.337087,4bf58dd8d48988d103951735,Clothing Store
Paris,Palais-Royal,48.8635847,2.3362042200938715,4c4af766c668e21e3e4565f9,Christian Louboutin,48.86269669087095,2.3407570303733496,4bf58dd8d48988d107951735,Shoe Store
Paris,Palais-Royal,48.8635847,2.3362042200938715,5953f0feeacf45405b8137bf,La Rotonde St. Honoré,48.86458252806462,2.3327020437479082,4bf58dd8d48988d10c941735,French Restaurant
Paris,Palais-Royal,48.8635847,2.3362042200938715,4c079d740ed3c928b6be797d,Cour Carrée du Louvre,48.8603598795578,2.3385429382324214,52e81612bcbc57f1066b7a25,Pedestrian Plaza
Paris,Palais-Royal,48.8635847,2.3362042200938715,562e1b40498e3302e1e9c9a1,Fromagerie Danard,48.86329738243539,2.340948006009366,4bf58dd8d48988d11e951735,Cheese Shop
Paris,Palais-Royal,48.8635847,2.3362042200938715,4bbb5d897421a5939eb9c440,Les Fines Gueules,48.865171886388225,2.340644784271717,4bf58dd8d48988d10c941735,French Restaurant
Paris,Palais-Royal,48.8635847,2.3362042200938715,546e4357498e4bbab0e62040,Le Louis,48.864330749172225,2.341332062576144,4bf58dd8d48988d10c941735,French Restaurant
Paris,Palais-Royal,48.8635847,2.3362042200938715,514208e8e4b080a1fe3c7935,Jin,48.865348322565886,2.331786581284321,4bf58dd8d48988d111941735,Japanese Restaurant
Paris,Palais-Royal,48.8635847,2.3362042200938715,5bae5f6c3ba767002c68a477,Caffe dei Fratelli,48.86482618471146,2.333112135529518,4bf58dd8d48988d110941735,Italian Restaurant
Paris,Palais-Royal,48.8635847,2.3362042200938715,4b27a468f964a520148824e3,Legrand Filles et Fils,48.866260970474386,2.3395365694081507,4bf58dd8d48988d119951735,Wine Shop
Paris,Palais-Royal,48.8635847,2.3362042200938715,5864efb745c3ed1e7d88e96d,La Vénus de Milo (Vénus de Milo),48.859943428504316,2.3372340202331543,56aa371be4b08b9a8d573532,Exhibit
Paris,Palais-Royal,48.8635847,2.3362042200938715,4b751aa0f964a5200cfe2de3,Ebis,48.86537548985992,2.332309837176929,4bf58dd8d48988d111941735,Japanese Restaurant
Paris,Palais-Royal,48.8635847,2.3362042200938715,4b76d6e2f964a5201d632ee3,Librairie Japonaise Junku,48.865495594312534,2.333616063320278,4bf58dd8d48988d114951735,Bookstore
Paris,Palais-Royal,48.8635847,2.3362042200938715,5001951de4b04575fdb89702,ZenZoo – Bar à Thé,48.867020860798846,2.336737853474915,52e81612bcbc57f1066b7a0c,Bubble Tea Shop
Paris,Palais-Royal,48.8635847,2.3362042200938715,4adcda20f964a5209a3921e3,Michel Cluizel,48.86504641171176,2.331745211681605,4bf58dd8d48988d117951735,Candy Store
Paris,Palais-Royal,48.8635847,2.3362042200938715,4b095936f964a5200a1623e3,Galerie Vivienne,48.86673055550591,2.339799701984434,4deefb944765f83613cdba6e,Historic Site
Paris,Palais-Royal,48.8635847,2.3362042200938715,4b408661f964a520bbb825e3,Place des Victoires,48.865759373109775,2.341219220887502,4bf58dd8d48988d164941735,Plaza
Paris,Palais-Royal,48.8635847,2.3362042200938715,5a1d47eebed48317ca15cc6f,Omusubi Gonbei,48.866607111762995,2.337256819009781,4bf58dd8d48988d111941735,Japanese Restaurant
Paris,Palais-Royal,48.8635847,2.3362042200938715,588ba9a9fc5a5f18a36a2a05,"Pavillon des Sessions – Arts d'Afrique, d'Asie, d'Océanie et des Amériques",48.860724043718605,2.332121414307368,4bf58dd8d48988d18f941735,Art Museum
Paris,Palais-Royal,48.8635847,2.3362042200938715,5b24014ac876c8002c0c5290,TeaYammi,48.86676,2.335194,4bf58dd8d48988d1dc931735,Tea Room
Paris,Palais-Royal,48.8635847,2.3362042200938715,5d60faf7f3994200085693d4,Café Kitsuné,48.864451,2.33031,4bf58dd8d48988d1e0931735,Coffee Shop
Paris,Palais-Royal,48.8635847,2.3362042200938715,5ab40f49e1f0aa01997a6dfb,Kanadé,48.86705014952429,2.3345598578453064,4bf58dd8d48988d111941735,Japanese Restaurant
Paris,Palais-Royal,48.8635847,2.3362042200938715,547b26de498ecc35f9aca3f2,Sébastien Gaudard,48.863873421522705,2.3322372820182418,4bf58dd8d48988d1d0941735,Dessert Shop
Paris,Palais-Royal,48.8635847,2.3362042200938715,555e18a5498e26f7534a977c,Hakata Choten,48.867125,2.334818,4bf58dd8d48988d111941735,Japanese Restaurant
Paris,Palais-Royal,48.8635847,2.3362042200938715,5177bc8ae4b0075e429a77b7,Meiwenti,48.86648448612502,2.3372045159339905,4bf58dd8d48988d149941735,Thai Restaurant
Paris,Palais-Royal,48.8635847,2.3362042200938715,54402a4e498eb9147ea93b02,Dosanko どさん子,48.86701213570369,2.3358702234568858,4bf58dd8d48988d1d1941735,Noodle House
Paris,Palais-Royal,48.8635847,2.3362042200938715,575c8192498e3c8b2f8487cf,Danico,48.86707072006055,2.339413647446296,4bf58dd8d48988d11e941735,Cocktail Bar
Paris,Palais-Royal,48.8635847,2.3362042200938715,4fa81d41e4b0d6f4be98c6bd,Reebok CrossFit Louvre,48.86726626129496,2.3334686520958163,4bf58dd8d48988d176941735,Gym
Paris,Palais-Royal,48.8635847,2.3362042200938715,4ee64cdbe4b0f3c52da7b338,A L'heure Du Vin,48.86736735656931,2.336050613138774,4bf58dd8d48988d123941735,Wine Bar
Paris,Palais-Royal,48.8635847,2.3362042200938715,4bd93853e914a593e2fd55fa,Institut National d'Histoire de l'Art (INHA),48.86667953007215,2.3389864145539194,4bf58dd8d48988d1a8941735,General College & University
Paris,Palais-Royal,48.8635847,2.3362042200938715,4fc8a25ae4b003326fbe396e,Le Carrousel,48.863985612506404,2.3318508116790326,57558b36e4b065ecebd306b0,Brasserie
Paris,Palais-Royal,48.8635847,2.3362042200938715,4adcda11f964a520f03521e3,Le Grand Colbert,48.866574395908316,2.338851949790864,57558b36e4b065ecebd306b0,Brasserie
Paris,Palais-Royal,48.8635847,2.3362042200938715,4bfec6bb68c7a5931bab3f44,La Régalade Saint-Honoré,48.861619829461404,2.3417487166534374,4bf58dd8d48988d10c941735,French Restaurant
Paris,Palais-Royal,48.8635847,2.3362042200938715,5b41143325ecca002cee1f63,La Guinguette des Tuileries,48.863710194249244,2.331576567837978,4bf58dd8d48988d10c941735,French Restaurant
Paris,Palais-Royal,48.8635847,2.3362042200938715,548884fc498e7a7ca55edf84,Boutique yam'Tcha,48.8617098431057,2.342380022000763,4bf58dd8d48988d145941735,Chinese Restaurant
Paris,Palais-Royal,48.8635847,2.3362042200938715,4b1bb46ff964a520c0fc23e3,Kioko,48.867446074793556,2.3343399167060848,4d954b0ea243a5684a65b473,Convenience Store
Paris,Palais-Royal,48.8635847,2.3362042200938715,4b55fe7cf964a520ecfa27e3,ZenZoo,48.86777056872764,2.3370200016733134,52af3b813cf9994f4e043c04,Taiwanese Restaurant
Paris,Palais-Royal,48.8635847,2.3362042200938715,57c18da1498e2696af0c7b11,Le Chocolat Alain Ducasse,48.866244,2.331209,52f2ab2ebcbc57f1066b8b31,Chocolate Shop
Paris,Palais-Royal,48.8635847,2.3362042200938715,5759bf21498eafba7d5e7246,Daroco,48.867130252296214,2.339242994785309,4bf58dd8d48988d110941735,Italian Restaurant
Paris,Palais-Royal,48.8635847,2.3362042200938715,5440eac9498e2cc0cd279621,Uma,48.86516293320189,2.3304949700832367,4bf58dd8d48988d111941735,Japanese Restaurant
Paris,Palais-Royal,48.8635847,2.3362042200938715,4d09ffa65edd54814b50039b,Épices Roellinger,48.86746605756848,2.3360988733440986,52f2ab2ebcbc57f1066b8b2c,Herbs & Spices Store
Paris,Palais-Royal,48.8635847,2.3362042200938715,5abb92e04ac28a0dcf04773f,Ryô,48.86693969921077,2.3350265622138977,4bf58dd8d48988d111941735,Japanese Restaurant
Paris,Palais-Royal,48.8635847,2.3362042200938715,53cec051498ee536a9922406,Bottles,48.867864130283216,2.3362675512704465,4bf58dd8d48988d123941735,Wine Bar
Paris,Palais-Royal,48.8635847,2.3362042200938715,4b48d410f964a520ef5826e3,La Corte,48.86543289277699,2.3314002156257625,4bf58dd8d48988d110941735,Italian Restaurant
Paris,Palais-Royal,48.8635847,2.3362042200938715,4adcda05f964a5206c3221e3,Le Fumoir,48.86042428799186,2.3408684134483337,4bf58dd8d48988d11e941735,Cocktail Bar
Paris,Palais-Royal,48.8635847,2.3362042200938715,56c0c3c4cd10624fa74b530d,Sushi B,48.867914,2.33764,4bf58dd8d48988d1d2941735,Sushi Restaurant
Paris,Palais-Royal,48.8635847,2.3362042200938715,4b649f4af964a52006c32ae3,Juji-ya,48.86749292666208,2.3361173828149555,4bf58dd8d48988d111941735,Japanese Restaurant
Paris,Palais-Royal,48.8635847,2.3362042200938715,4b1fd384f964a520732924e3,L'Écume Saint-Honoré,48.86597192747403,2.331164574468804,4bf58dd8d48988d1ce941735,Seafood Restaurant
Paris,Palais-Royal,48.8635847,2.3362042200938715,4adcda05f964a520533221e3,Chez Georges,48.8663734268843,2.341311484002416,4bf58dd8d48988d10c941735,French Restaurant
Paris,Palais-Royal,48.8635847,2.3362042200938715,4b641cf3f964a520ad9f2ae3,Little Séoul,48.867606770399405,2.335126807595745,4bf58dd8d48988d113941735,Korean Restaurant
Paris,Palais-Royal,48.8635847,2.3362042200938715,5b2948de73fe25002c4e1bbc,Sanjo,48.866343,2.333132,55a59bace4b013909087cb24,Ramen Restaurant
Paris,Palais-Royal,48.8635847,2.3362042200938715,5839b709ba883710b2129d1b,Tomo,48.86775484250789,2.3369260537346714,5744ccdfe4b0c0459246b4e2,Pastry Shop
Paris,Palais-Royal,48.8635847,2.3362042200938715,4bbf4f51b083a593cc2aa3e9,Square Louvois,48.86796832438222,2.337596118450165,4bf58dd8d48988d163941735,Park
Paris,Palais-Royal,48.8635847,2.3362042200938715,59942cddc9a5171a4b50d600,Echizensoba Togo,48.86623,2.332742,55a59bace4b013909087cb27,Soba Restaurant
Paris,Palais-Royal,48.8635847,2.3362042200938715,4bf18d63324cc9b62b2bcc92,Gambino,48.867305021992415,2.3330856045899147,4bf58dd8d48988d110941735,Italian Restaurant
Paris,Palais-Royal,48.8635847,2.3362042200938715,4b3636f4f964a520273125e3,Ace Mart,48.868074387581075,2.3364210368543303,4bf58dd8d48988d1f9941735,Food & Drink Shop
Paris,Palais-Royal,48.8635847,2.3362042200938715,526bde88498ede77eefe8135,Ari Ari,48.8675684785252,2.33515146841072,4bf58dd8d48988d113941735,Korean Restaurant
Paris,Palais-Royal,48.8635847,2.3362042200938715,56c5ca55cd1031bcae7c8ea9,Made.com,48.865759985961816,2.3421696239113734,4bf58dd8d48988d1f8941735,Furniture / Home Store
Paris,Palais-Royal,48.8635847,2.3362042200938715,525eebae498ed78330156b6f,Café des Abattoirs,48.867347215570234,2.332806294102299,4bf58dd8d48988d1cc941735,Steakhouse
Paris,Palais-Royal,48.8635847,2.3362042200938715,4b66c228f964a520dc292be3,Qualité & Co,48.86608409105402,2.331243591903877,4bf58dd8d48988d1c5941735,Sandwich Place
Paris,Place-Vendôme,48.86746340000001,2.3294281168251936,53b65301498e8cb57224f80c,Hôtel Ritz,48.86814475882231,2.3289620876312256,4bf58dd8d48988d1fa931735,Hotel
Paris,Place-Vendôme,48.86746340000001,2.3294281168251936,4adcda09f964a5200e3421e3,Place Vendôme,48.86779769319868,2.3297411847276526,4bf58dd8d48988d164941735,Plaza
Paris,Place-Vendôme,48.86746340000001,2.3294281168251936,4f58dfcfe4b0c3218c855f34,Balenciaga,48.8659267043082,2.330284387731581,4bf58dd8d48988d108951735,Women's Store
Paris,Place-Vendôme,48.86746340000001,2.3294281168251936,4adcda03f964a520d83121e3,Park Hyatt Paris-Vendôme,48.86889283393748,2.3303380608558655,4bf58dd8d48988d1fa931735,Hotel
Paris,Place-Vendôme,48.86746340000001,2.3294281168251936,4b212aa4f964a520983724e3,Charvet,48.868312152527395,2.3302816660179584,4bf58dd8d48988d106951735,Men's Store
Paris,Place-Vendôme,48.86746340000001,2.3294281168251936,50e16cdfe4b0439f0718ba5a,Ladurée,48.86612102985312,2.3284493959564543,4bf58dd8d48988d1d0941735,Dessert Shop
Paris,Place-Vendôme,48.86746340000001,2.3294281168251936,4adcda06f964a520fa3221e3,Bar Vendôme,48.8680354183143,2.3284611865243363,4bf58dd8d48988d10c941735,French Restaurant
Paris,Place-Vendôme,48.86746340000001,2.3294281168251936,4adcda1df964a5202a3921e3,CHANEL,48.86818882792764,2.3266343030758208,4bf58dd8d48988d104951735,Boutique
Paris,Place-Vendôme,48.86746340000001,2.3294281168251936,4f7c9505e4b0b7ee688be2db,Cantine California,48.86740061772486,2.3320168163937907,4bf58dd8d48988d1cb941735,Food Truck
Paris,Place-Vendôme,48.86746340000001,2.3294281168251936,4d61286a1ee8721e010db321,Hôtel Mandarin Oriental,48.86698662076993,2.327178418636322,4bf58dd8d48988d1fa931735,Hotel
Paris,Place-Vendôme,48.86746340000001,2.3294281168251936,4b4db23ff964a520dad526e3,Le Petit Vendôme,48.86879949339372,2.329622322982693,57558b36e4b065ecebd306b8,Auvergne Restaurant
Paris,Place-Vendôme,48.86746340000001,2.3294281168251936,4c49b6e61b430f47dd1febc3,Tiffany & Co.,48.8685691,2.3309938,4bf58dd8d48988d111951735,Jewelry Store
Paris,Place-Vendôme,48.86746340000001,2.3294281168251936,4fe068d4e4b0f752583ae146,Éléphant Paname,48.869328008845166,2.3301026897176005,4bf58dd8d48988d1e2931735,Art Gallery
Paris,Place-Vendôme,48.86746340000001,2.3294281168251936,51767e3819a96e7715d52f55,Dance Studio at Elephant Paname,48.869334351796596,2.3300788714550436,4bf58dd8d48988d134941735,Dance Studio
Paris,Place-Vendôme,48.86746340000001,2.3294281168251936,59bf71bba795bd2dcc07f878,Louis Vuitton,48.8666749,2.3288837,4bf58dd8d48988d104951735,Boutique
Paris,Place-Vendôme,48.86746340000001,2.3294281168251936,59288f080d173f5887669625,Balagan,48.865432333548,2.3296802389659015,56aa371be4b08b9a8d573529,Israeli Restaurant
Paris,Place-Vendôme,48.86746340000001,2.3294281168251936,4b549414f964a520e4c027e3,Carré des Feuillants,48.86623003973648,2.3287292149896883,4bf58dd8d48988d10c941735,French Restaurant
Paris,Place-Vendôme,48.86746340000001,2.3294281168251936,57c18da1498e2696af0c7b11,Le Chocolat Alain Ducasse,48.866244,2.331209,52f2ab2ebcbc57f1066b8b31,Chocolate Shop
Paris,Place-Vendôme,48.86746340000001,2.3294281168251936,4d4985a97d36f04da1a612e5,Cartier,48.8692635,2.3310218,4bf58dd8d48988d111951735,Jewelry Store
Paris,Place-Vendôme,48.86746340000001,2.3294281168251936,4af4c47ff964a520f4f521e3,Starhotels Castille Paris,48.86847645388553,2.326880693435669,4bf58dd8d48988d1fa931735,Hotel
Paris,Place-Vendôme,48.86746340000001,2.3294281168251936,4adcda1ff964a520673921e3,Jean-Paul Hévin,48.86611759485579,2.329147144992021,52f2ab2ebcbc57f1066b8b31,Chocolate Shop
Paris,Place-Vendôme,48.86746340000001,2.3294281168251936,4adcda04f964a5204b3221e3,Bar Hemingway,48.86874286694514,2.3275136947631836,4bf58dd8d48988d11e941735,Cocktail Bar
Paris,Place-Vendôme,48.86746340000001,2.3294281168251936,506094d0498efd4a9c768864,Fauré Le Page,48.867767,2.326347,52f2ab2ebcbc57f1066b8b2b,Leather Goods Store
Paris,Place-Vendôme,48.86746340000001,2.3294281168251936,4b94defef964a520ef8534e3,Goyard,48.86647624483724,2.328925407729518,4bf58dd8d48988d102951735,Accessories Store
Paris,Place-Vendôme,48.86746340000001,2.3294281168251936,4b02f691f964a5207b4b22e3,Place du Marché Saint-Honoré,48.86737955827214,2.3322155174163828,4bf58dd8d48988d164941735,Plaza
Paris,Place-Vendôme,48.86746340000001,2.3294281168251936,4b487de3f964a5202d4e26e3,Librairie Galignani,48.864989,2.32857,4bf58dd8d48988d114951735,Bookstore
Paris,Place-Vendôme,48.86746340000001,2.3294281168251936,4adcda15f964a520613721e3,Le Dalí,48.8653326,2.3281374,4bf58dd8d48988d10c941735,French Restaurant
Paris,Place-Vendôme,48.86746340000001,2.3294281168251936,4adcda12f964a520543621e3,Angelina,48.865089750224186,2.3284433919743606,4bf58dd8d48988d1dc931735,Tea Room
Paris,Place-Vendôme,48.86746340000001,2.3294281168251936,4adcda13f964a520d83621e3,Kinugawa Vendôme,48.86547710892282,2.3289835302421125,4bf58dd8d48988d111941735,Japanese Restaurant
Paris,Place-Vendôme,48.86746340000001,2.3294281168251936,55e9eee8498e43ed2bd190f8,Le Roch Hotel & Spa Paris,48.86620012005232,2.3329946840505174,4bf58dd8d48988d1fa931735,Hotel
Paris,Place-Vendôme,48.86746340000001,2.3294281168251936,4b1fd384f964a520732924e3,L'Écume Saint-Honoré,48.86597192747403,2.331164574468804,4bf58dd8d48988d1ce941735,Seafood Restaurant
Paris,Place-Vendôme,48.86746340000001,2.3294281168251936,4b4b2002f964a520b29226e3,Le Burgundy,48.86799572916932,2.325774986347236,4bf58dd8d48988d1fa931735,Hotel
Paris,Place-Vendôme,48.86746340000001,2.3294281168251936,4ede662ed3e346be390334be,Les Malles Moynat,48.866119181714105,2.3296621666745567,4bf58dd8d48988d104951735,Boutique
Paris,Place-Vendôme,48.86746340000001,2.3294281168251936,4cbdcb0b7148f04d510aefab,Pierre Hermé,48.86822151447183,2.333396617684349,5744ccdfe4b0c0459246b4e2,Pastry Shop
Paris,Place-Vendôme,48.86746340000001,2.3294281168251936,4d8cae94cb9b224b88405a41,Jovoy,48.865571820030986,2.3275825048045817,52f2ab2ebcbc57f1066b8b23,Perfume Shop
Paris,Place-Vendôme,48.86746340000001,2.3294281168251936,514208e8e4b080a1fe3c7935,Jin,48.865348322565886,2.331786581284321,4bf58dd8d48988d111941735,Japanese Restaurant
Paris,Place-Vendôme,48.86746340000001,2.3294281168251936,4b8b0cbef964a5203b9032e3,Hôtel Le Meurice,48.8653326,2.3281374,4bf58dd8d48988d1fa931735,Hotel
Paris,Place-Vendôme,48.86746340000001,2.3294281168251936,4afeb8b2f964a5200d3022e3,Le Castiglione,48.86638049166744,2.3287635891028913,4bf58dd8d48988d10c941735,French Restaurant
Paris,Place-Vendôme,48.86746340000001,2.3294281168251936,4adcda15f964a520c53721e3,L'Olympia,48.870212,2.328331,5032792091d4c4b30a586d5c,Concert Hall
Paris,Place-Vendôme,48.86746340000001,2.3294281168251936,5bb5082c123a19002cb1e6b1,Wild & The Moon,48.866698,2.331141,4bf58dd8d48988d1c4941735,Restaurant
Paris,Place-Vendôme,48.86746340000001,2.3294281168251936,4b1d1a75f964a520e00b24e3,Pierre Hermé,48.866577630454685,2.325458970070264,5744ccdfe4b0c0459246b4e2,Pastry Shop
Paris,Place-Vendôme,48.86746340000001,2.3294281168251936,5440eac9498e2cc0cd279621,Uma,48.86516293320189,2.3304949700832367,4bf58dd8d48988d111941735,Japanese Restaurant
Paris,Place-Vendôme,48.86746340000001,2.3294281168251936,4bb9e9687421a593e723c340,Brentano's,48.868111613191154,2.3335079079517094,4bf58dd8d48988d114951735,Bookstore
Paris,Place-Vendôme,48.86746340000001,2.3294281168251936,550c2e01498e074a6162869b,Hôtel Opéra Richepanse,48.868732845538226,2.3252555950039087,4bf58dd8d48988d1fa931735,Hotel
Paris,Place-Vendôme,48.86746340000001,2.3294281168251936,4c8b7bb1e51e6dcbf58a72de,La Cure Gourmande,48.8697887450351,2.332400679588318,4bf58dd8d48988d117951735,Candy Store
Paris,Place-Vendôme,48.86746340000001,2.3294281168251936,5dc1d642dde7cd0007296801,Cédric Grolet Opéra,48.867985,2.333187,4bf58dd8d48988d16a941735,Bakery
Paris,Place-Vendôme,48.86746340000001,2.3294281168251936,5d60faf7f3994200085693d4,Café Kitsuné,48.864451,2.33031,4bf58dd8d48988d1e0931735,Coffee Shop
Paris,Place-Vendôme,48.86746340000001,2.3294281168251936,4adcda04f964a5200c3221e3,Hôtel Brighton,48.864851029566395,2.329005330704668,4bf58dd8d48988d1fa931735,Hotel
Paris,Place-Vendôme,48.86746340000001,2.3294281168251936,4b751aa0f964a5200cfe2de3,Ebis,48.86537548985992,2.332309837176929,4bf58dd8d48988d111941735,Japanese Restaurant
Paris,Place-Vendôme,48.86746340000001,2.3294281168251936,5411de4d498e02d12f002001,Pierre Marcolini,48.86651120958976,2.3288288342952135,52f2ab2ebcbc57f1066b8b31,Chocolate Shop
Paris,Place-Vendôme,48.86746340000001,2.3294281168251936,4adcda1df964a5202b3921e3,WHSmith,48.86620819555761,2.325052118828308,4bf58dd8d48988d114951735,Bookstore
Paris,Place-Vendôme,48.86746340000001,2.3294281168251936,4bf431c298ac0f4735b563a8,Cercle Suédois - Svenska Klubben,48.866009843905864,2.3255255480227746,4bf58dd8d48988d1c6941735,Scandinavian Restaurant
Paris,Place-Vendôme,48.86746340000001,2.3294281168251936,4adcda20f964a5209a3921e3,Michel Cluizel,48.86504641171176,2.331745211681605,4bf58dd8d48988d117951735,Candy Store
Paris,Place-Vendôme,48.86746340000001,2.3294281168251936,4b5f3962f964a52068ae29e3,Ferdi,48.866383,2.3267124,4bf58dd8d48988d16c941735,Burger Joint
Paris,Place-Vendôme,48.86746340000001,2.3294281168251936,4b66c228f964a520dc292be3,Qualité & Co,48.86608409105402,2.331243591903877,4bf58dd8d48988d1c5941735,Sandwich Place
Paris,Place-Vendôme,48.86746340000001,2.3294281168251936,4e9d6adde5fa336fdb43cd62,Hôtel Le Pradey,48.86445923930909,2.33165399481692,4bf58dd8d48988d1fa931735,Hotel
Paris,Place-Vendôme,48.86746340000001,2.3294281168251936,4b75974df964a520a5162ee3,Bar 228,48.865336,2.328134,4bf58dd8d48988d1d5941735,Hotel Bar
Paris,Place-Vendôme,48.86746340000001,2.3294281168251936,5a233bc0178a2a17a852e725,Café Pouchkine,48.86962712816345,2.3252284272832857,4bf58dd8d48988d1d0941735,Dessert Shop
Paris,Place-Vendôme,48.86746340000001,2.3294281168251936,4b48d410f964a520ef5826e3,La Corte,48.86543289277699,2.3314002156257625,4bf58dd8d48988d110941735,Italian Restaurant
Paris,Place-Vendôme,48.86746340000001,2.3294281168251936,4cc69030806246880f9f422f,Spa Six Senses,48.86593583799367,2.3274841601956635,4bf58dd8d48988d1ed941735,Spa
Paris,Place-Vendôme,48.86746340000001,2.3294281168251936,4b2df9e3f964a52046dc24e3,Nomad's,48.86644566931371,2.3315343260765076,4bf58dd8d48988d10c941735,French Restaurant
Paris,Place-Vendôme,48.86746340000001,2.3294281168251936,4af868baf964a520fd0c22e3,Le Soufflé,48.866479192925254,2.326459586620331,4bf58dd8d48988d10c941735,French Restaurant
Paris,Place-Vendôme,48.86746340000001,2.3294281168251936,4c404db2520fa593edcac7ac,Kenzo,48.869358803964154,2.325088519528064,4bf58dd8d48988d103951735,Clothing Store
Paris,Place-Vendôme,48.86746340000001,2.3294281168251936,5926d26aa5a31517df1c82bc,Pret A Manger,48.87038211587155,2.326271040202572,4bf58dd8d48988d1c5941735,Sandwich Place
Paris,Place-Vendôme,48.86746340000001,2.3294281168251936,56978af4498e9a6d14defb8b,Taokan,48.865289,2.329614,52af3a7c3cf9994f4e043bed,Cantonese Restaurant
Paris,Place-Vendôme,48.86746340000001,2.3294281168251936,4bc30cc12a89ef3bf670f488,Place de l'Opéra,48.87086688393964,2.3321523722815702,4bf58dd8d48988d164941735,Plaza
Paris,Place-Vendôme,48.86746340000001,2.3294281168251936,4b1bb46ff964a520c0fc23e3,Kioko,48.867446074793556,2.3343399167060848,4d954b0ea243a5684a65b473,Convenience Store
Paris,Place-Vendôme,48.86746340000001,2.3294281168251936,50e9ddc7e4b05301d768b7e5,Da Rosa,48.86637831147618,2.3263391569564655,4bf58dd8d48988d1db931735,Tapas Restaurant
Paris,Place-Vendôme,48.86746340000001,2.3294281168251936,4adcda13f964a520e53621e3,Restaurant Le Meurice Alain Ducasse,48.86529145109384,2.3280563207176783,4bf58dd8d48988d10c941735,French Restaurant
Paris,Place-Vendôme,48.86746340000001,2.3294281168251936,4b6d9095f964a520e37c2ce3,Place de la Madeleine,48.86960564523478,2.324806669078412,4bf58dd8d48988d164941735,Plaza
Paris,Place-Vendôme,48.86746340000001,2.3294281168251936,583dc9c5dfa6ff7560fc2edd,Maisie Café,48.86634509834429,2.3267948627471924,4bf58dd8d48988d1d3941735,Vegetarian / Vegan Restaurant
Paris,Place-Vendôme,48.86746340000001,2.3294281168251936,4adcda1af964a520dc3821e3,Théâtre Edouard VII,48.87139401862037,2.3294059932231903,4bf58dd8d48988d137941735,Theater
Paris,Place-Vendôme,48.86746340000001,2.3294281168251936,5ab40f49e1f0aa01997a6dfb,Kanadé,48.86705014952429,2.3345598578453064,4bf58dd8d48988d111941735,Japanese Restaurant
Paris,Place-Vendôme,48.86746340000001,2.3294281168251936,583be543610528301a8ff84e,Ladurée,48.86533493268436,2.327821630451812,4bf58dd8d48988d1d0941735,Dessert Shop
Paris,Place-Vendôme,48.86746340000001,2.3294281168251936,4adcda1ef964a5204c3921e3,Maille,48.86927781455572,2.324478023087494,4bf58dd8d48988d1f5941735,Gourmet Shop
Paris,Place-Vendôme,48.86746340000001,2.3294281168251936,59f1c4e9bcbf7a18fbb66047,Chang,48.86593046151141,2.3339590430259705,4bf58dd8d48988d149941735,Thai Restaurant
Paris,Place-Vendôme,48.86746340000001,2.3294281168251936,579fbf15498e7f9f1b92154f,Nolinski,48.8653672585173,2.334584093466682,4bf58dd8d48988d1fa931735,Hotel
Paris,Place-Vendôme,48.86746340000001,2.3294281168251936,59942cddc9a5171a4b50d600,Echizensoba Togo,48.86623,2.332742,55a59bace4b013909087cb27,Soba Restaurant
Paris,Place-Vendôme,48.86746340000001,2.3294281168251936,4be6d2d6d4f7c9b6f1132720,Jeu de Paume,48.865906222068894,2.323751577280116,4bf58dd8d48988d18f941735,Art Museum
Paris,Place-Vendôme,48.86746340000001,2.3294281168251936,5ce7defc1fa7630039b67147,On the Bab,48.86641655668545,2.335109710693359,4bf58dd8d48988d113941735,Korean Restaurant
Paris,Place-Vendôme,48.86746340000001,2.3294281168251936,4b30f9bbf964a5208ffd24e3,Jardin des Tuileries,48.863641957269515,2.326483726501465,4bf58dd8d48988d15a941735,Garden
Paris,Place-Vendôme,48.86746340000001,2.3294281168251936,555e18a5498e26f7534a977c,Hakata Choten,48.867125,2.334818,4bf58dd8d48988d111941735,Japanese Restaurant
Paris,Place-Vendôme,48.86746340000001,2.3294281168251936,50afb3a9f31c158c03c45d71,Fauchon - Le Traiteur,48.870325539379465,2.3253981618235855,4bf58dd8d48988d1f5941735,Gourmet Shop
Paris,Place-Vendôme,48.86746340000001,2.3294281168251936,4f0b706de5e8207020057ed7,Sanukiya,48.86471330060748,2.333805151283741,55a59bace4b013909087cb2a,Udon Restaurant
Paris,Place-Vendôme,48.86746340000001,2.3294281168251936,4b0b4dfff964a520283023e3,Ladurée,48.8684378,2.3236443,4bf58dd8d48988d1d0941735,Dessert Shop
Paris,Place-Vendôme,48.86746340000001,2.3294281168251936,4c7553543adda143c7fe06af,Rossano Ferretti Shu Uemura Art of Hair,48.866405132266124,2.3255352862340213,4bf58dd8d48988d110951735,Salon / Barbershop
Paris,Place-Vendôme,48.86746340000001,2.3294281168251936,4b7920a2f964a52069ec2ee3,Kintaro,48.868972,2.334859,4bf58dd8d48988d111941735,Japanese Restaurant
Paris,Place-Vendôme,48.86746340000001,2.3294281168251936,4d7fb74387003704cc878a99,Place des Pyramides,48.863924276481605,2.332223653793335,4bf58dd8d48988d164941735,Plaza
Paris,Place-Vendôme,48.86746340000001,2.3294281168251936,57a62d2f498ea38dc4db9391,Brasserie Réjane,48.865485991272,2.3348240554332733,4bf58dd8d48988d1c4941735,Restaurant
Paris,Place-Vendôme,48.86746340000001,2.3294281168251936,56d6d7c638fab752656dd4f8,Le Petit Flottes,48.86624822140249,2.325386703014374,4bf58dd8d48988d1c7941735,Snack Place
Paris,Place-Vendôme,48.86746340000001,2.3294281168251936,5b2948de73fe25002c4e1bbc,Sanjo,48.866343,2.333132,55a59bace4b013909087cb24,Ramen Restaurant
Paris,Place-Vendôme,48.86746340000001,2.3294281168251936,4c360bbd93db0f4705641d92,Boulangerie Aki,48.86621097624905,2.335457623784485,4bf58dd8d48988d16a941735,Bakery
Paris,Place-Vendôme,48.86746340000001,2.3294281168251936,57c8039a498ea3934538d57a,Mister Garden,48.87022612741393,2.333923238248245,4bf58dd8d48988d1bd941735,Salad Place
Paris,Place-Vendôme,48.86746340000001,2.3294281168251936,4d3f9f9715a360fcbb297dbf,Gucci,48.86856114163442,2.323004901409149,4bf58dd8d48988d104951735,Boutique
Paris,Place-Vendôme,48.86746340000001,2.3294281168251936,4b7f20e7f964a5209b1830e3,Christian Dior,48.869140101597196,2.323401950644679,4bf58dd8d48988d104951735,Boutique
Paris,Place-Vendôme,48.86746340000001,2.3294281168251936,5603cf2e498e56742e72d924,Kosyuen 華修園,48.864163247442406,2.3335674783429994,4bf58dd8d48988d1dc931735,Tea Room
Paris,Place-Vendôme,48.86746340000001,2.3294281168251936,5a229ed7ca18ea73eb85db62,"L’Entente, Le British Brasserie",48.869037,2.335486,52e81612bcbc57f1066b7a05,English Restaurant
Paris,Place-Vendôme,48.86746340000001,2.3294281168251936,4adcda12f964a5205e3621e3,Fauchon – L'Épicerie,48.87069403282956,2.3254143487722874,4bf58dd8d48988d1f5941735,Gourmet Shop
Paris,Place-Vendôme,48.86746340000001,2.3294281168251936,4c28dda897d00f47f58540ea,BookOff,48.868945752843096,2.3354623240650625,4bf58dd8d48988d114951735,Bookstore
Paris,Place-Vendôme,48.86746340000001,2.3294281168251936,4adcda01f964a520fe3021e3,Hôtel Ascot Opéra,48.86823195689058,2.3351535465850186,4bf58dd8d48988d1fa931735,Hotel
Paris,Gaillon,48.86913515000001,2.3329087703355067,4bc30cc12a89ef3bf670f488,Place de l'Opéra,48.87086688393964,2.3321523722815702,4bf58dd8d48988d164941735,Plaza
Paris,Gaillon,48.86913515000001,2.3329087703355067,4adcda03f964a520d83121e3,Park Hyatt Paris-Vendôme,48.86889283393748,2.3303380608558655,4bf58dd8d48988d1fa931735,Hotel
Paris,Gaillon,48.86913515000001,2.3329087703355067,4cbdcb0b7148f04d510aefab,Pierre Hermé,48.86822151447183,2.333396617684349,5744ccdfe4b0c0459246b4e2,Pastry Shop
Paris,Gaillon,48.86913515000001,2.3329087703355067,4d4985a97d36f04da1a612e5,Cartier,48.8692635,2.3310218,4bf58dd8d48988d111951735,Jewelry Store
Paris,Gaillon,48.86913515000001,2.3329087703355067,4b212aa4f964a520983724e3,Charvet,48.868312152527395,2.3302816660179584,4bf58dd8d48988d106951735,Men's Store
Paris,Gaillon,48.86913515000001,2.3329087703355067,5a229ed7ca18ea73eb85db62,"L’Entente, Le British Brasserie",48.869037,2.335486,52e81612bcbc57f1066b7a05,English Restaurant
Paris,Gaillon,48.86913515000001,2.3329087703355067,4c8b7bb1e51e6dcbf58a72de,La Cure Gourmande,48.8697887450351,2.332400679588318,4bf58dd8d48988d117951735,Candy Store
Paris,Gaillon,48.86913515000001,2.3329087703355067,4f7c9505e4b0b7ee688be2db,Cantine California,48.86740061772486,2.3320168163937907,4bf58dd8d48988d1cb941735,Food Truck
Paris,Gaillon,48.86913515000001,2.3329087703355067,4fe068d4e4b0f752583ae146,Éléphant Paname,48.869328008845166,2.3301026897176005,4bf58dd8d48988d1e2931735,Art Gallery
Paris,Gaillon,48.86913515000001,2.3329087703355067,4c28dda897d00f47f58540ea,BookOff,48.868945752843096,2.3354623240650625,4bf58dd8d48988d114951735,Bookstore
Paris,Gaillon,48.86913515000001,2.3329087703355067,4c49b6e61b430f47dd1febc3,Tiffany & Co.,48.8685691,2.3309938,4bf58dd8d48988d111951735,Jewelry Store
Paris,Gaillon,48.86913515000001,2.3329087703355067,51767e3819a96e7715d52f55,Dance Studio at Elephant Paname,48.869334351796596,2.3300788714550436,4bf58dd8d48988d134941735,Dance Studio
Paris,Gaillon,48.86913515000001,2.3329087703355067,57c8039a498ea3934538d57a,Mister Garden,48.87022612741393,2.333923238248245,4bf58dd8d48988d1bd941735,Salad Place
Paris,Gaillon,48.86913515000001,2.3329087703355067,4bb9e9687421a593e723c340,Brentano's,48.868111613191154,2.3335079079517094,4bf58dd8d48988d114951735,Bookstore
Paris,Gaillon,48.86913515000001,2.3329087703355067,4b7920a2f964a52069ec2ee3,Kintaro,48.868972,2.334859,4bf58dd8d48988d111941735,Japanese Restaurant
Paris,Gaillon,48.86913515000001,2.3329087703355067,4adcda09f964a5200e3421e3,Place Vendôme,48.86779769319868,2.3297411847276526,4bf58dd8d48988d164941735,Plaza
Paris,Gaillon,48.86913515000001,2.3329087703355067,4b4db23ff964a520dad526e3,Le Petit Vendôme,48.86879949339372,2.329622322982693,57558b36e4b065ecebd306b8,Auvergne Restaurant
Paris,Gaillon,48.86913515000001,2.3329087703355067,4b1bb46ff964a520c0fc23e3,Kioko,48.867446074793556,2.3343399167060848,4d954b0ea243a5684a65b473,Convenience Store
Paris,Gaillon,48.86913515000001,2.3329087703355067,4adcda01f964a520fe3021e3,Hôtel Ascot Opéra,48.86823195689058,2.3351535465850186,4bf58dd8d48988d1fa931735,Hotel
Paris,Gaillon,48.86913515000001,2.3329087703355067,4b02f691f964a5207b4b22e3,Place du Marché Saint-Honoré,48.86737955827214,2.3322155174163828,4bf58dd8d48988d164941735,Plaza
Paris,Gaillon,48.86913515000001,2.3329087703355067,5dc1d642dde7cd0007296801,Cédric Grolet Opéra,48.867985,2.333187,4bf58dd8d48988d16a941735,Bakery
Paris,Gaillon,48.86913515000001,2.3329087703355067,5519894a498e3be5c5222550,Dynamo Cycling,48.86887066811056,2.3365812036147395,52f2ab2ebcbc57f1066b8b49,Cycle Studio
Paris,Gaillon,48.86913515000001,2.3329087703355067,53b65301498e8cb57224f80c,Hôtel Ritz,48.86814475882231,2.3289620876312256,4bf58dd8d48988d1fa931735,Hotel
Paris,Gaillon,48.86913515000001,2.3329087703355067,4b6ebe2af964a520b2c82ce3,Starbucks,48.870636299581186,2.3335862159729004,4bf58dd8d48988d1e0931735,Coffee Shop
Paris,Gaillon,48.86913515000001,2.3329087703355067,55a4b867498ed70fc1555c0d,Escape Hunt Paris,48.87012078204942,2.3353323340415955,5f2c2834b6d05514c704451e,Escape Room
Paris,Gaillon,48.86913515000001,2.3329087703355067,4db127c76e81a2637ee6037a,Lavrut,48.86831,2.33558,4bf58dd8d48988d127951735,Arts & Crafts Store
Paris,Gaillon,48.86913515000001,2.3329087703355067,5863a4aa9398ab5940613ea8,Aki Café,48.868730469871814,2.3365829467133916,4bf58dd8d48988d16d941735,Café
Paris,Gaillon,48.86913515000001,2.3329087703355067,4b39f154f964a520b25f25e3,Workshop Issé,48.8688947285211,2.33706581214639,4bf58dd8d48988d1f5941735,Gourmet Shop
Paris,Gaillon,48.86913515000001,2.3329087703355067,5ab40f49e1f0aa01997a6dfb,Kanadé,48.86705014952429,2.3345598578453064,4bf58dd8d48988d111941735,Japanese Restaurant
Paris,Gaillon,48.86913515000001,2.3329087703355067,55e9eee8498e43ed2bd190f8,Le Roch Hotel & Spa Paris,48.86620012005232,2.3329946840505174,4bf58dd8d48988d1fa931735,Hotel
Paris,Gaillon,48.86913515000001,2.3329087703355067,53cec051498ee536a9922406,Bottles,48.867864130283216,2.3362675512704465,4bf58dd8d48988d123941735,Wine Bar
Paris,Gaillon,48.86913515000001,2.3329087703355067,4b54148df964a520b0b127e3,Opéra Garnier,48.872124954463864,2.331708669662475,4bf58dd8d48988d136941735,Opera House
Paris,Gaillon,48.86913515000001,2.3329087703355067,4b641cf3f964a520ad9f2ae3,Little Séoul,48.867606770399405,2.335126807595745,4bf58dd8d48988d113941735,Korean Restaurant
Paris,Gaillon,48.86913515000001,2.3329087703355067,555e18a5498e26f7534a977c,Hakata Choten,48.867125,2.334818,4bf58dd8d48988d111941735,Japanese Restaurant
Paris,Gaillon,48.86913515000001,2.3329087703355067,4b89471af964a520f22732e3,L'Usine Opéra,48.86957686382949,2.3349103824765307,4bf58dd8d48988d175941735,Gym / Fitness Center
Paris,Gaillon,48.86913515000001,2.3329087703355067,4bd5ca1f6798ef3b50f6638d,Brioche Dorée,48.870408228192,2.3329187460328,4bf58dd8d48988d1c5941735,Sandwich Place
Paris,Gaillon,48.86913515000001,2.3329087703355067,4adcda15f964a520c53721e3,L'Olympia,48.870212,2.328331,5032792091d4c4b30a586d5c,Concert Hall
Paris,Gaillon,48.86913515000001,2.3329087703355067,4adcda1af964a520dc3821e3,Théâtre Edouard VII,48.87139401862037,2.3294059932231903,4bf58dd8d48988d137941735,Theater
Paris,Gaillon,48.86913515000001,2.3329087703355067,4adcda06f964a520fa3221e3,Bar Vendôme,48.8680354183143,2.3284611865243363,4bf58dd8d48988d10c941735,French Restaurant
Paris,Gaillon,48.86913515000001,2.3329087703355067,4b3636f4f964a520273125e3,Ace Mart,48.868074387581075,2.3364210368543303,4bf58dd8d48988d1f9941735,Food & Drink Shop
Paris,Gaillon,48.86913515000001,2.3329087703355067,53a95cac498e580a192f3b3e,Villa Dondelli,48.86843467342867,2.3352172507753366,4bf58dd8d48988d110941735,Italian Restaurant
Paris,Gaillon,48.86913515000001,2.3329087703355067,5ce7defc1fa7630039b67147,On the Bab,48.86641655668545,2.335109710693359,4bf58dd8d48988d113941735,Korean Restaurant
Paris,Gaillon,48.86913515000001,2.3329087703355067,4bc4cfe3461576b03c7d8032,Entre 2 Rives,48.870196954066934,2.335725963196314,4bf58dd8d48988d14a941735,Vietnamese Restaurant
Paris,Gaillon,48.86913515000001,2.3329087703355067,4ee64cdbe4b0f3c52da7b338,A L'heure Du Vin,48.86736735656931,2.336050613138774,4bf58dd8d48988d123941735,Wine Bar
Paris,Gaillon,48.86913515000001,2.3329087703355067,4b55fe7cf964a520ecfa27e3,ZenZoo,48.86777056872764,2.3370200016733134,52af3b813cf9994f4e043c04,Taiwanese Restaurant
Paris,Gaillon,48.86913515000001,2.3329087703355067,4d09ffa65edd54814b50039b,Épices Roellinger,48.86746605756848,2.3360988733440986,52f2ab2ebcbc57f1066b8b2c,Herbs & Spices Store
Paris,Gaillon,48.86913515000001,2.3329087703355067,57c18da1498e2696af0c7b11,Le Chocolat Alain Ducasse,48.866244,2.331209,52f2ab2ebcbc57f1066b8b31,Chocolate Shop
Paris,Gaillon,48.86913515000001,2.3329087703355067,4c360bbd93db0f4705641d92,Boulangerie Aki,48.86621097624905,2.335457623784485,4bf58dd8d48988d16a941735,Bakery
Paris,Gaillon,48.86913515000001,2.3329087703355067,4f606b63e4b006673ab72d57,Hôtel La Maison Favart,48.87080002201078,2.337290346622467,4bf58dd8d48988d1fa931735,Hotel
Paris,Gaillon,48.86913515000001,2.3329087703355067,526bde88498ede77eefe8135,Ari Ari,48.8675684785252,2.33515146841072,4bf58dd8d48988d113941735,Korean Restaurant
Paris,Gaillon,48.86913515000001,2.3329087703355067,4f58dfcfe4b0c3218c855f34,Balenciaga,48.8659267043082,2.330284387731581,4bf58dd8d48988d108951735,Women's Store
Paris,Gaillon,48.86913515000001,2.3329087703355067,5001951de4b04575fdb89702,ZenZoo – Bar à Thé,48.867020860798846,2.336737853474915,52e81612bcbc57f1066b7a0c,Bubble Tea Shop
Paris,Gaillon,48.86913515000001,2.3329087703355067,4b649f4af964a52006c32ae3,Juji-ya,48.86749292666208,2.3361173828149555,4bf58dd8d48988d111941735,Japanese Restaurant
Paris,Gaillon,48.86913515000001,2.3329087703355067,5b24014ac876c8002c0c5290,TeaYammi,48.86676,2.335194,4bf58dd8d48988d1dc931735,Tea Room
Paris,Gaillon,48.86913515000001,2.3329087703355067,52590aff11d29562bbc4d505,Boutique Lindt Opera,48.87237194198658,2.330646514892578,52f2ab2ebcbc57f1066b8b31,Chocolate Shop
Paris,Gaillon,48.86913515000001,2.3329087703355067,4bcc86443740b7131d256465,Passage Choiseul,48.86814316372607,2.3355284443052486,52e81612bcbc57f1066b7a25,Pedestrian Plaza
Paris,Gaillon,48.86913515000001,2.3329087703355067,5156d1eae4b0702abe4a37b4,Udon Jubey,48.866432,2.33557,55a59bace4b013909087cb2a,Udon Restaurant
Paris,Gaillon,48.86913515000001,2.3329087703355067,56c0c3c4cd10624fa74b530d,Sushi B,48.867914,2.33764,4bf58dd8d48988d1d2941735,Sushi Restaurant
Paris,Gaillon,48.86913515000001,2.3329087703355067,579c7ae7498e2db2e1b63a50,Mmmozza,48.868102,2.336445,4bf58dd8d48988d110941735,Italian Restaurant
Paris,Gaillon,48.86913515000001,2.3329087703355067,5bb5082c123a19002cb1e6b1,Wild & The Moon,48.866698,2.331141,4bf58dd8d48988d1c4941735,Restaurant
Paris,Gaillon,48.86913515000001,2.3329087703355067,4beeb21a2c082d7f96b53042,SEPHORA,48.87259976,2.3337384,4bf58dd8d48988d10c951735,Cosmetics Shop
Paris,Gaillon,48.86913515000001,2.3329087703355067,4b488e63f964a520464f26e3,Hotel Gramont Opera,48.87055013497135,2.336845398941014,4bf58dd8d48988d1fa931735,Hotel
Paris,Gaillon,48.86913515000001,2.3329087703355067,54402a4e498eb9147ea93b02,Dosanko どさん子,48.86701213570369,2.3358702234568858,4bf58dd8d48988d1d1941735,Noodle House
Paris,Gaillon,48.86913515000001,2.3329087703355067,4af43a06f964a520b6f021e3,Starbucks,48.86731904028564,2.3340073227882385,4bf58dd8d48988d1e0931735,Coffee Shop
Paris,Gaillon,48.86913515000001,2.3329087703355067,5abb92e04ac28a0dcf04773f,Ryô,48.86693969921077,2.3350265622138977,4bf58dd8d48988d111941735,Japanese Restaurant
Paris,Gaillon,48.86913515000001,2.3329087703355067,5839b709ba883710b2129d1b,Tomo,48.86775484250789,2.3369260537346714,5744ccdfe4b0c0459246b4e2,Pastry Shop
Paris,Gaillon,48.86913515000001,2.3329087703355067,4bc5b08341cb76b0f4a03e6f,Chez Miki,48.86834205885418,2.3368955654093604,4bf58dd8d48988d111941735,Japanese Restaurant
Paris,Gaillon,48.86913515000001,2.3329087703355067,4bbf4f51b083a593cc2aa3e9,Square Louvois,48.86796832438222,2.337596118450165,4bf58dd8d48988d163941735,Park
Paris,Gaillon,48.86913515000001,2.3329087703355067,4bc5b8304a9aa59371ca067b,Apple Opéra,48.8723225,2.3333579,4bf58dd8d48988d122951735,Electronics Store
Paris,Gaillon,48.86913515000001,2.3329087703355067,59f1c4e9bcbf7a18fbb66047,Chang,48.86593046151141,2.3339590430259705,4bf58dd8d48988d149941735,Thai Restaurant
Paris,Gaillon,48.86913515000001,2.3329087703355067,59bf71bba795bd2dcc07f878,Louis Vuitton,48.8666749,2.3288837,4bf58dd8d48988d104951735,Boutique
Paris,Gaillon,48.86913515000001,2.3329087703355067,579fbf15498e7f9f1b92154f,Nolinski,48.8653672585173,2.334584093466682,4bf58dd8d48988d1fa931735,Hotel
Paris,Gaillon,48.86913515000001,2.3329087703355067,4b65af53f964a52093f92ae3,Restaurant Kunitoraya,48.86611572520175,2.3364669084548946,4bf58dd8d48988d111941735,Japanese Restaurant
Paris,Gaillon,48.86913515000001,2.3329087703355067,514208e8e4b080a1fe3c7935,Jin,48.865348322565886,2.331786581284321,4bf58dd8d48988d111941735,Japanese Restaurant
Paris,Gaillon,48.86913515000001,2.3329087703355067,4adcda15f964a520953721e3,Opéra Comique,48.870981386347395,2.337786555290222,5032792091d4c4b30a586d5c,Concert Hall
Paris,Gaillon,48.86913515000001,2.3329087703355067,57a62d2f498ea38dc4db9391,Brasserie Réjane,48.865485991272,2.3348240554332733,4bf58dd8d48988d1c4941735,Restaurant
Paris,Gaillon,48.86913515000001,2.3329087703355067,4adcda04f964a5204b3221e3,Bar Hemingway,48.86874286694514,2.3275136947631836,4bf58dd8d48988d11e941735,Cocktail Bar
Paris,Gaillon,48.86913515000001,2.3329087703355067,4b673be3f964a520e5422be3,Galeries Lafayette Gourmet,48.873046,2.330438,4bf58dd8d48988d1f5941735,Gourmet Shop
Paris,Gaillon,48.86913515000001,2.3329087703355067,4b1fd384f964a520732924e3,L'Écume Saint-Honoré,48.86597192747403,2.331164574468804,4bf58dd8d48988d1ce941735,Seafood Restaurant
Paris,Gaillon,48.86913515000001,2.3329087703355067,4adcda1df964a5202a3921e3,CHANEL,48.86818882792764,2.3266343030758208,4bf58dd8d48988d104951735,Boutique
Paris,Gaillon,48.86913515000001,2.3329087703355067,4b1c15a4f964a520d90124e3,Aki,48.86614727762348,2.3354142848003927,4bf58dd8d48988d111941735,Japanese Restaurant
Paris,Gaillon,48.86913515000001,2.3329087703355067,4f684076e4b0b4f791ce4f7f,Télescope,48.86614042697531,2.3363059759140015,4bf58dd8d48988d1e0931735,Coffee Shop
Paris,Gaillon,48.86913515000001,2.3329087703355067,53c10d23498e6c9cbdc6296e,Udon Bistro Kunitoraya (Kunitoraya),48.865884035205355,2.336782068014145,55a59bace4b013909087cb2a,Udon Restaurant
Paris,Gaillon,48.86913515000001,2.3329087703355067,55c0bade498e7261dfc90bc6,Hanoi Cà Phê,48.871479252751186,2.3356756567955017,4bf58dd8d48988d14a941735,Vietnamese Restaurant
Paris,Gaillon,48.86913515000001,2.3329087703355067,4af4c47ff964a520f4f521e3,Starhotels Castille Paris,48.86847645388553,2.326880693435669,4bf58dd8d48988d1fa931735,Hotel
Paris,Gaillon,48.86913515000001,2.3329087703355067,50e16cdfe4b0439f0718ba5a,Ladurée,48.86612102985312,2.3284493959564543,4bf58dd8d48988d1d0941735,Dessert Shop
Paris,Gaillon,48.86913515000001,2.3329087703355067,4e6e4c1f45dd293273d08106,Verjus Bar à Vins,48.86630556463485,2.3374713957309723,4bf58dd8d48988d123941735,Wine Bar
Paris,Gaillon,48.86913515000001,2.3329087703355067,4b751aa0f964a5200cfe2de3,Ebis,48.86537548985992,2.332309837176929,4bf58dd8d48988d111941735,Japanese Restaurant
Paris,Gaillon,48.86913515000001,2.3329087703355067,4bc9d4260687ef3b1b88dacc,Terrasse des Galeries Lafayette,48.87333870999123,2.332170009613037,4bf58dd8d48988d133951735,Roof Deck
Paris,Gaillon,48.86913515000001,2.3329087703355067,4b94defef964a520ef8534e3,Goyard,48.86647624483724,2.328925407729518,4bf58dd8d48988d102951735,Accessories Store
Paris,Gaillon,48.86913515000001,2.3329087703355067,53ff2b53498ed3314ce29fa2,A. Noste,48.86912169955702,2.339137749319885,4bf58dd8d48988d1db931735,Tapas Restaurant
Paris,Gaillon,48.86913515000001,2.3329087703355067,4adcda1ff964a520673921e3,Jean-Paul Hévin,48.86611759485579,2.329147144992021,52f2ab2ebcbc57f1066b8b31,Chocolate Shop
Paris,Gaillon,48.86913515000001,2.3329087703355067,5699575c498edabe56c15ecf,Verjus,48.86639803045864,2.3373547196388245,4bf58dd8d48988d10c941735,French Restaurant
Paris,Gaillon,48.86913515000001,2.3329087703355067,4b549414f964a520e4c027e3,Carré des Feuillants,48.86623003973648,2.3287292149896883,4bf58dd8d48988d10c941735,French Restaurant
Paris,Gaillon,48.86913515000001,2.3329087703355067,4b6c1849f964a52094232ce3,JanTchi,48.86600128752999,2.335976674778051,4bf58dd8d48988d113941735,Korean Restaurant
Paris,Gaillon,48.86913515000001,2.3329087703355067,59288f080d173f5887669625,Balagan,48.865432333548,2.3296802389659015,56aa371be4b08b9a8d573529,Israeli Restaurant
Paris,Gaillon,48.86913515000001,2.3329087703355067,4f57c21ee4b0055170e84358,Place Édouard VII,48.871131927797514,2.3291281572039697,4bf58dd8d48988d164941735,Plaza
Paris,Gaillon,48.86913515000001,2.3329087703355067,4e8af48de5fa5654b596f417,Le Salon du Fromage Hisada,48.86624879517917,2.3371863375908837,4bf58dd8d48988d11e951735,Cheese Shop
Paris,Gaillon,48.86913515000001,2.3329087703355067,5b2948de73fe25002c4e1bbc,Sanjo,48.866343,2.333132,55a59bace4b013909087cb24,Ramen Restaurant
Paris,Gaillon,48.86913515000001,2.3329087703355067,59942cddc9a5171a4b50d600,Echizensoba Togo,48.86623,2.332742,55a59bace4b013909087cb27,Soba Restaurant
Paris,Vivienne,48.86885895,2.3393625582679,4b39f154f964a520b25f25e3,Workshop Issé,48.8688947285211,2.33706581214639,4bf58dd8d48988d1f5941735,Gourmet Shop
Paris,Vivienne,48.86885895,2.3393625582679,4bc324a874a9a5936c18d4f6,Le Moderne,48.868856,2.342142,4bf58dd8d48988d10c941735,French Restaurant
Paris,Vivienne,48.86885895,2.3393625582679,5519894a498e3be5c5222550,Dynamo Cycling,48.86887066811056,2.3365812036147395,52f2ab2ebcbc57f1066b8b49,Cycle Studio
Paris,Vivienne,48.86885895,2.3393625582679,53ff2b53498ed3314ce29fa2,A. Noste,48.86912169955702,2.339137749319885,4bf58dd8d48988d1db931735,Tapas Restaurant
Paris,Vivienne,48.86885895,2.3393625582679,4b095936f964a5200a1623e3,Galerie Vivienne,48.86673055550591,2.339799701984434,4deefb944765f83613cdba6e,Historic Site
Paris,Vivienne,48.86885895,2.3393625582679,575c8192498e3c8b2f8487cf,Danico,48.86707072006055,2.339413647446296,4bf58dd8d48988d11e941735,Cocktail Bar
Paris,Vivienne,48.86885895,2.3393625582679,546ca449498ebc466c2056ec,Le Nom M'échappe,48.86812495879136,2.3416726483111714,52e81612bcbc57f1066b79f1,Bistro
Paris,Vivienne,48.86885895,2.3393625582679,56c0c3c4cd10624fa74b530d,Sushi B,48.867914,2.33764,4bf58dd8d48988d1d2941735,Sushi Restaurant
Paris,Vivienne,48.86885895,2.3393625582679,5863a4aa9398ab5940613ea8,Aki Café,48.868730469871814,2.3365829467133916,4bf58dd8d48988d16d941735,Café
Paris,Vivienne,48.86885895,2.3393625582679,56027c80498e9242a62898da,Blün,48.8704771636465,2.3405277729034424,52e81612bcbc57f1066b79f2,Creperie
Paris,Vivienne,48.86885895,2.3393625582679,4b55fe7cf964a520ecfa27e3,ZenZoo,48.86777056872764,2.3370200016733134,52af3b813cf9994f4e043c04,Taiwanese Restaurant
Paris,Vivienne,48.86885895,2.3393625582679,59144a9ae97dfb02c92e3e3e,Karaage-Ya Bourse,48.87015,2.3418262,4bf58dd8d48988d111941735,Japanese Restaurant
Paris,Vivienne,48.86885895,2.3393625582679,4bbf4f51b083a593cc2aa3e9,Square Louvois,48.86796832438222,2.337596118450165,4bf58dd8d48988d163941735,Park
Paris,Vivienne,48.86885895,2.3393625582679,4f606b63e4b006673ab72d57,Hôtel La Maison Favart,48.87080002201078,2.337290346622467,4bf58dd8d48988d1fa931735,Hotel
Paris,Vivienne,48.86885895,2.3393625582679,53cec051498ee536a9922406,Bottles,48.867864130283216,2.3362675512704465,4bf58dd8d48988d123941735,Wine Bar
Paris,Vivienne,48.86885895,2.3393625582679,5a229ed7ca18ea73eb85db62,"L’Entente, Le British Brasserie",48.869037,2.335486,52e81612bcbc57f1066b7a05,English Restaurant
Paris,Vivienne,48.86885895,2.3393625582679,4adcda15f964a520953721e3,Opéra Comique,48.870981386347395,2.337786555290222,5032792091d4c4b30a586d5c,Concert Hall
Paris,Vivienne,48.86885895,2.3393625582679,4b27a468f964a520148824e3,Legrand Filles et Fils,48.866260970474386,2.3395365694081507,4bf58dd8d48988d119951735,Wine Shop
Paris,Vivienne,48.86885895,2.3393625582679,4b095f6df964a520511623e3,Passage des Panoramas,48.87099232463669,2.3416757583618164,52e81612bcbc57f1066b7a25,Pedestrian Plaza
Paris,Vivienne,48.86885895,2.3393625582679,4b3636f4f964a520273125e3,Ace Mart,48.868074387581075,2.3364210368543303,4bf58dd8d48988d1f9941735,Food & Drink Shop
Paris,Vivienne,48.86885895,2.3393625582679,4c28dda897d00f47f58540ea,BookOff,48.868945752843096,2.3354623240650625,4bf58dd8d48988d114951735,Bookstore
Paris,Vivienne,48.86885895,2.3393625582679,5001951de4b04575fdb89702,ZenZoo – Bar à Thé,48.867020860798846,2.336737853474915,52e81612bcbc57f1066b7a0c,Bubble Tea Shop
Paris,Vivienne,48.86885895,2.3393625582679,4e6e4c1f45dd293273d08106,Verjus Bar à Vins,48.86630556463485,2.3374713957309723,4bf58dd8d48988d123941735,Wine Bar
Paris,Vivienne,48.86885895,2.3393625582679,58bc834d7d0f6d34315f5cfe,Pizzeria Popolare,48.86807383225755,2.343378961086273,4bf58dd8d48988d1ca941735,Pizza Place
Paris,Vivienne,48.86885895,2.3393625582679,56d9e28fcd103af3d7014386,Canard & Champagne,48.87136313755697,2.341702079509351,4bf58dd8d48988d10c941735,French Restaurant
Paris,Vivienne,48.86885895,2.3393625582679,4defc926c65bf3f03e9f47eb,Le Silencio,48.868998,2.343417,4bf58dd8d48988d11f941735,Nightclub
Paris,Vivienne,48.86885895,2.3393625582679,5699575c498edabe56c15ecf,Verjus,48.86639803045864,2.3373547196388245,4bf58dd8d48988d10c941735,French Restaurant
Paris,Vivienne,48.86885895,2.3393625582679,4adcda15f964a5208e3721e3,Théâtre du Palais-Royal,48.86600524368278,2.3376850883287545,4bf58dd8d48988d137941735,Theater
Paris,Vivienne,48.86885895,2.3393625582679,4adcda13f964a520e63621e3,Le Grand Véfour,48.86613492,2.33793892,4bf58dd8d48988d10c941735,French Restaurant
Paris,Vivienne,48.86885895,2.3393625582679,4b7920a2f964a52069ec2ee3,Kintaro,48.868972,2.334859,4bf58dd8d48988d111941735,Japanese Restaurant
Paris,Vivienne,48.86885895,2.3393625582679,4ba882e5f964a520f7dd39e3,Le Comptoir des Petits Champs,48.86629233761211,2.337873826187643,4bf58dd8d48988d10c941735,French Restaurant
Paris,Vivienne,48.86885895,2.3393625582679,4e8af48de5fa5654b596f417,Le Salon du Fromage Hisada,48.86624879517917,2.3371863375908837,4bf58dd8d48988d11e951735,Cheese Shop
Paris,Vivienne,48.86885895,2.3393625582679,4b408661f964a520bbb825e3,Place des Victoires,48.865759373109775,2.341219220887502,4bf58dd8d48988d164941735,Plaza
Paris,Vivienne,48.86885895,2.3393625582679,4e9fcb5102d54bd975b801fc,Devialet,48.868108406935534,2.343808047395095,4bf58dd8d48988d1fe941735,Music Store
Paris,Vivienne,48.86885895,2.3393625582679,4e83cd284fc6f78732f55272,Place de la Bourse,48.868703251266595,2.3417216866044663,4bf58dd8d48988d164941735,Plaza
Paris,Vivienne,48.86885895,2.3393625582679,53c10d23498e6c9cbdc6296e,Udon Bistro Kunitoraya (Kunitoraya),48.865884035205355,2.336782068014145,55a59bace4b013909087cb2a,Udon Restaurant
Paris,Vivienne,48.86885895,2.3393625582679,4adcda05f964a520883221e3,Willi's Wine Bar,48.866311115770245,2.3383002959921697,4bf58dd8d48988d123941735,Wine Bar
Paris,Vivienne,48.86885895,2.3393625582679,4e36eee61850ad8463dc9da5,Maison Kitsuné,48.866372,2.337087,4bf58dd8d48988d103951735,Clothing Store
Paris,Vivienne,48.86885895,2.3393625582679,4b65af53f964a52093f92ae3,Restaurant Kunitoraya,48.86611572520175,2.3364669084548946,4bf58dd8d48988d111941735,Japanese Restaurant
Paris,Vivienne,48.86885895,2.3393625582679,4c1c9e70fcf8c9b6b256aa0b,Restaurant du Palais Royal,48.86574578621022,2.338547512884462,4bf58dd8d48988d10c941735,French Restaurant
Paris,Vivienne,48.86885895,2.3393625582679,4bf5508de5eba593e2982090,Librairie Gourmande,48.866951226870775,2.3439955538464465,4bf58dd8d48988d114951735,Bookstore
Paris,Vivienne,48.86885895,2.3393625582679,527e3948498e3c991897db98,Le Moulin de la Vierge,48.86620190566684,2.3411547392606735,4bf58dd8d48988d16a941735,Bakery
Paris,Vivienne,48.86885895,2.3393625582679,4c360bbd93db0f4705641d92,Boulangerie Aki,48.86621097624905,2.335457623784485,4bf58dd8d48988d16a941735,Bakery
Paris,Vivienne,48.86885895,2.3393625582679,4f684076e4b0b4f791ce4f7f,Télescope,48.86614042697531,2.3363059759140015,4bf58dd8d48988d1e0931735,Coffee Shop
Paris,Vivienne,48.86885895,2.3393625582679,5511b895498e1e2d8edb73e8,Ellsworth,48.865527916411786,2.337056774451994,4bf58dd8d48988d10c941735,French Restaurant
Paris,Vivienne,48.86885895,2.3393625582679,52da534c498e2acc573449fb,Café Kitsuné,48.86543988887562,2.3375840216232477,4bf58dd8d48988d16d941735,Café
Paris,Vivienne,48.86885895,2.3393625582679,56225067498e997b024a1adc,L'Appartement Sézane,48.8695741819002,2.345060413685246,4bf58dd8d48988d108951735,Women's Store
Paris,Vivienne,48.86885895,2.3393625582679,4ba8b650f964a520f5e839e3,Jardin du Palais Royal,48.86494061245833,2.3377275466918945,4bf58dd8d48988d15a941735,Garden
Paris,Vivienne,48.86885895,2.3393625582679,4adcda12f964a520523621e3,Juveniles,48.86621687123557,2.337148998297595,4bf58dd8d48988d123941735,Wine Bar
Paris,Vivienne,48.86885895,2.3393625582679,5ce7defc1fa7630039b67147,On the Bab,48.86641655668545,2.335109710693359,4bf58dd8d48988d113941735,Korean Restaurant
Paris,Vivienne,48.86885895,2.3393625582679,5156d1eae4b0702abe4a37b4,Udon Jubey,48.866432,2.33557,55a59bace4b013909087cb2a,Udon Restaurant
Paris,Vivienne,48.86885895,2.3393625582679,4bbb5d897421a5939eb9c440,Les Fines Gueules,48.865171886388225,2.340644784271717,4bf58dd8d48988d10c941735,French Restaurant
Paris,Vivienne,48.86885895,2.3393625582679,4cbdcb0b7148f04d510aefab,Pierre Hermé,48.86822151447183,2.333396617684349,5744ccdfe4b0c0459246b4e2,Pastry Shop
Paris,Vivienne,48.86885895,2.3393625582679,4bd862ba35aad13a64b790f3,Acne Studios,48.86544796697722,2.3385786953983883,4bf58dd8d48988d103951735,Clothing Store
Paris,Vivienne,48.86885895,2.3393625582679,55aa3cec498e57df008a0066,La Crème de Paris,48.871721,2.34331,52e81612bcbc57f1066b79f2,Creperie
Paris,Vivienne,48.86885895,2.3393625582679,57c8039a498ea3934538d57a,Mister Garden,48.87022612741393,2.333923238248245,4bf58dd8d48988d1bd941735,Salad Place
Paris,Vivienne,48.86885895,2.3393625582679,4b1bb46ff964a520c0fc23e3,Kioko,48.867446074793556,2.3343399167060848,4d954b0ea243a5684a65b473,Convenience Store
Paris,Vivienne,48.86885895,2.3393625582679,5a626b3d2632ec04b3b341b3,Hôtel des Grands Boulevards,48.870800399082455,2.3448864108663963,4bf58dd8d48988d1fa931735,Hotel
Paris,Vivienne,48.86885895,2.3393625582679,4bb9e9687421a593e723c340,Brentano's,48.868111613191154,2.3335079079517094,4bf58dd8d48988d114951735,Bookstore
Paris,Vivienne,48.86885895,2.3393625582679,4b489b20f964a5204e5026e3,Rick Owens,48.865193447990556,2.338485269139365,4bf58dd8d48988d104951735,Boutique
Paris,Vivienne,48.86885895,2.3393625582679,4b6c1849f964a52094232ce3,JanTchi,48.86600128752999,2.335976674778051,4bf58dd8d48988d113941735,Korean Restaurant
Paris,Vivienne,48.86885895,2.3393625582679,4b0ec8cdf964a520fb5a23e3,Max Linder Panorama,48.87138398457992,2.344808578491211,4bf58dd8d48988d17e941735,Indie Movie Theater
Paris,Vivienne,48.86885895,2.3393625582679,5712aee8498e153edb8b77c2,Mersea,48.871975572746514,2.3431841769993706,4edd64a0c7ddd24ca188df1a,Fish & Chips Shop
Paris,Vivienne,48.86885895,2.3393625582679,4bcc86443740b7131d256465,Passage Choiseul,48.86814316372607,2.3355284443052486,52e81612bcbc57f1066b7a25,Pedestrian Plaza
Paris,Vivienne,48.86885895,2.3393625582679,4bf13b5a3a15d13a2c4d3f9f,Hôtel des Ventes Drouot,48.87306094102725,2.340101103627914,4bf58dd8d48988d116951735,Antique Shop
Paris,Vivienne,48.86885895,2.3393625582679,4fa81d41e4b0d6f4be98c6bd,Reebok CrossFit Louvre,48.86726626129496,2.3334686520958163,4bf58dd8d48988d176941735,Gym
Paris,Vivienne,48.86885895,2.3393625582679,5398b167498e67ef85f08433,Les Gouttes de Dieux,48.87311470529806,2.3394127933680955,4bf58dd8d48988d123941735,Wine Bar
Paris,Vivienne,48.86885895,2.3393625582679,4b1c15a4f964a520d90124e3,Aki,48.86614727762348,2.3354142848003927,4bf58dd8d48988d111941735,Japanese Restaurant
Paris,Vivienne,48.86885895,2.3393625582679,5b2d4fcf4acb19002cd1ece2,The Shed,48.870824,2.3449,4bf58dd8d48988d11e941735,Cocktail Bar
Paris,Vivienne,48.86885895,2.3393625582679,56c5ca55cd1031bcae7c8ea9,Made.com,48.865759985961816,2.3421696239113734,4bf58dd8d48988d1f8941735,Furniture / Home Store
Paris,Vivienne,48.86885895,2.3393625582679,4b4723cbf964a520d92b26e3,Bistrot Victoires,48.86552339307843,2.3403647694601255,52e81612bcbc57f1066b79f1,Bistro
Paris,Vivienne,48.86885895,2.3393625582679,4bffb4ad369476b05c248e1f,Olio Pane Vino,48.86466930258046,2.3406910643425047,4bf58dd8d48988d110941735,Italian Restaurant
Paris,Vivienne,48.86885895,2.3393625582679,4d878fb87d552d43abc0d0eb,Hôtel Molière,48.86546909587968,2.3362403879499856,4bf58dd8d48988d1fa931735,Hotel
Paris,Vivienne,48.86885895,2.3393625582679,54226789498e3226ba794e5e,Matamata,48.866044,2.343956,4bf58dd8d48988d1e0931735,Coffee Shop
Paris,Vivienne,48.86885895,2.3393625582679,4eb42aad61af0dda8fcb1389,Blend Argout,48.865958165150715,2.343484093370061,4bf58dd8d48988d16c941735,Burger Joint
Paris,Vivienne,48.86885895,2.3393625582679,5dc1d642dde7cd0007296801,Cédric Grolet Opéra,48.867985,2.333187,4bf58dd8d48988d16a941735,Bakery
Paris,Vivienne,48.86885895,2.3393625582679,4b488ee0f964a520534f26e3,Yasube,48.86597257347491,2.3353320123068517,4bf58dd8d48988d111941735,Japanese Restaurant
Paris,Vivienne,48.86885895,2.3393625582679,4c0f7dc62466a593a4a47a21,Lémoni,48.86479526144143,2.3412924967853854,4bf58dd8d48988d1bd941735,Salad Place
Paris,Vivienne,48.86885895,2.3393625582679,4fcfb74ee4b0ed600de110fd,Nose,48.866242,2.344885,52f2ab2ebcbc57f1066b8b23,Perfume Shop
Paris,Vivienne,48.86885895,2.3393625582679,4cb74ecf64998cfaa7551ca2,LECLAIREUR Hérold,48.86483172222586,2.3415299473017144,4bf58dd8d48988d103951735,Clothing Store
Paris,Vivienne,48.86885895,2.3393625582679,4adcda00f964a520ed3021e3,Hôtel Edouard 7,48.868357432638625,2.3330182044620926,4bf58dd8d48988d1fa931735,Hotel
Paris,Vivienne,48.86885895,2.3393625582679,4c974644f7cfa1cd95c3cc15,Serge Lutens - Les Salons du Palais Royal,48.8649660434172,2.338126213235043,4bf58dd8d48988d10c951735,Cosmetics Shop
Paris,Vivienne,48.86885895,2.3393625582679,52d044af498e9005a488ddcf,Chez Philibert,48.868918013407566,2.345776129753177,4bf58dd8d48988d1bd941735,Salad Place
Paris,Vivienne,48.86885895,2.3393625582679,4b6ebe2af964a520b2c82ce3,Starbucks,48.870636299581186,2.3335862159729004,4bf58dd8d48988d1e0931735,Coffee Shop
Paris,Vivienne,48.86885895,2.3393625582679,5390a81c498ea09f06efb75c,Hotel Crayon Rouge,48.86461119355507,2.3404032102769885,4bf58dd8d48988d1fa931735,Hotel
Paris,Vivienne,48.86885895,2.3393625582679,4bf18d63324cc9b62b2bcc92,Gambino,48.867305021992415,2.3330856045899147,4bf58dd8d48988d110941735,Italian Restaurant
Paris,Vivienne,48.86885895,2.3393625582679,5af03ffec58ed7002c722561,Flyview,48.870292452095924,2.3331014566603763,5109983191d435c0d71c2bb1,Theme Park Ride / Attraction
Paris,Vivienne,48.86885895,2.3393625582679,580fc4cf38fa3ac061da81a2,Comptoir Montevideo,48.864697,2.3407886,4bf58dd8d48988d1cd941735,South American Restaurant
Paris,Vivienne,48.86885895,2.3393625582679,4e84be772fb6611bdfd70908,Hôtel Odyssey,48.865080155791944,2.3417756464352446,4bf58dd8d48988d1fa931735,Hotel
Paris,Vivienne,48.86885895,2.3393625582679,596208189ad60e2131b53411,Salatim,48.869192371250335,2.3459705903081125,56aa371be4b08b9a8d573529,Israeli Restaurant
Paris,Vivienne,48.86885895,2.3393625582679,4af43a06f964a520b6f021e3,Starbucks,48.86731904028564,2.3340073227882385,4bf58dd8d48988d1e0931735,Coffee Shop
Paris,Vivienne,48.86885895,2.3393625582679,4adcda1af964a520c83821e3,Sentier des Halles,48.86738242621467,2.345620158825648,5032792091d4c4b30a586d5c,Concert Hall
Paris,Vivienne,48.86885895,2.3393625582679,56137365498ee376961ba86f,Sneakersnstuff,48.86758354290015,2.3459208293118095,4bf58dd8d48988d107951735,Shoe Store
Paris,Mail,48.8680539,2.344592949731121,57054c44498ed5a375ce4b86,Hoppy Corner,48.86772619731469,2.3473745971313704,56aa371ce4b08b9a8d57356c,Beer Bar
Paris,Mail,48.8680539,2.344592949731121,56225067498e997b024a1adc,L'Appartement Sézane,48.8695741819002,2.345060413685246,4bf58dd8d48988d108951735,Women's Store
Paris,Mail,48.8680539,2.344592949731121,4bf5508de5eba593e2982090,Librairie Gourmande,48.866951226870775,2.3439955538464465,4bf58dd8d48988d114951735,Bookstore
Paris,Mail,48.8680539,2.344592949731121,4bc324a874a9a5936c18d4f6,Le Moderne,48.868856,2.342142,4bf58dd8d48988d10c941735,French Restaurant
Paris,Mail,48.8680539,2.344592949731121,52ab22bf11d2464466e73347,Lockwood,48.86772674428229,2.3469454610004647,4bf58dd8d48988d11e941735,Cocktail Bar
Paris,Mail,48.8680539,2.344592949731121,58bc834d7d0f6d34315f5cfe,Pizzeria Popolare,48.86807383225755,2.343378961086273,4bf58dd8d48988d1ca941735,Pizza Place
Paris,Mail,48.8680539,2.344592949731121,4db6accaa86e8d2707af8562,Dionysos,48.86694192727211,2.347265677932837,4bf58dd8d48988d10e941735,Greek Restaurant
Paris,Mail,48.8680539,2.344592949731121,4e9fcb5102d54bd975b801fc,Devialet,48.868108406935534,2.343808047395095,4bf58dd8d48988d1fe941735,Music Store
Paris,Mail,48.8680539,2.344592949731121,578c91ca498e19140dba9785,Boneshaker Doughnuts,48.86785725724388,2.347340691499821,4bf58dd8d48988d148941735,Donut Shop
Paris,Mail,48.8680539,2.344592949731121,546fd2d0498ee87303529fc7,Mabel,48.8675440546188,2.3461500391476022,4bf58dd8d48988d11e941735,Cocktail Bar
Paris,Mail,48.8680539,2.344592949731121,4fcfb74ee4b0ed600de110fd,Nose,48.866242,2.344885,52f2ab2ebcbc57f1066b8b23,Perfume Shop
Paris,Mail,48.8680539,2.344592949731121,4defc926c65bf3f03e9f47eb,Le Silencio,48.868998,2.343417,4bf58dd8d48988d11f941735,Nightclub
Paris,Mail,48.8680539,2.344592949731121,546ca449498ebc466c2056ec,Le Nom M'échappe,48.86812495879136,2.3416726483111714,52e81612bcbc57f1066b79f1,Bistro
Paris,Mail,48.8680539,2.344592949731121,599f10d89b04730cde6d8bf4,The Hoxton Paris,48.8701794,2.3466316,4bf58dd8d48988d1fa931735,Hotel
Paris,Mail,48.8680539,2.344592949731121,567566b2498e54c42fd070f9,La Boulangerie du Nil,48.86772200463062,2.347654348090177,4bf58dd8d48988d16a941735,Bakery
Paris,Mail,48.8680539,2.344592949731121,56e00c68498e1e5a759f1228,Lemon,48.86804870285503,2.3475281207393395,4bf58dd8d48988d112941735,Juice Bar
Paris,Mail,48.8680539,2.344592949731121,578161c1498eb537b596b391,Frenchie Bar A Vins,48.86781182099964,2.3479165881872177,4bf58dd8d48988d123941735,Wine Bar
Paris,Mail,48.8680539,2.344592949731121,51a70e3b498eaaf621340fc0,Frenchie to Go,48.86769308541349,2.347740232944488,4bf58dd8d48988d1c5941735,Sandwich Place
Paris,Mail,48.8680539,2.344592949731121,52ebfc9d498e376b2833f4f2,Filakia,48.86564638918743,2.3456186056137085,52e81612bcbc57f1066b79f3,Souvlaki Shop
Paris,Mail,48.8680539,2.344592949731121,5474e08e498e26dc5e12ebb5,Les Amis des Messina,48.867165717937475,2.3484202823949536,4bf58dd8d48988d110941735,Italian Restaurant
Paris,Mail,48.8680539,2.344592949731121,55deca05498e952c0f31e84e,Foodi Jia-Ba-Buay,48.867894221731895,2.3482659459114075,4bf58dd8d48988d142941735,Asian Restaurant
Paris,Mail,48.8680539,2.344592949731121,56f5b383498efedad05db938,La Boissonnière,48.869418597019404,2.3476892709732056,4bf58dd8d48988d116941735,Bar
Paris,Mail,48.8680539,2.344592949731121,58024949d67c533488517968,Grom,48.86605483558375,2.3470948937116414,4bf58dd8d48988d1c9941735,Ice Cream Shop
Paris,Mail,48.8680539,2.344592949731121,51e4adea5019b96d28967a7f,La Cevicheria,48.86619159489603,2.3454737663269043,4eb1bfa43b7b52c0e1adc2e8,Peruvian Restaurant
Paris,Mail,48.8680539,2.344592949731121,52d044af498e9005a488ddcf,Chez Philibert,48.868918013407566,2.345776129753177,4bf58dd8d48988d1bd941735,Salad Place
Paris,Mail,48.8680539,2.344592949731121,5a626b3d2632ec04b3b341b3,Hôtel des Grands Boulevards,48.870800399082455,2.3448864108663963,4bf58dd8d48988d1fa931735,Hotel
Paris,Mail,48.8680539,2.344592949731121,54226789498e3226ba794e5e,Matamata,48.866044,2.343956,4bf58dd8d48988d1e0931735,Coffee Shop
Paris,Mail,48.8680539,2.344592949731121,4d85d18481fdb1f7425419c0,Rue Montorgueil,48.86604470753487,2.3470938205718994,52e81612bcbc57f1066b7a25,Pedestrian Plaza
Paris,Mail,48.8680539,2.344592949731121,54e4e3ce498e07cde7479535,Redd,48.86623685868873,2.3477715657647504,4bf58dd8d48988d123941735,Wine Bar
Paris,Mail,48.8680539,2.344592949731121,59a2c2924c954c5afed081e1,Rivié,48.87020064681438,2.3464849501827985,4bf58dd8d48988d1d5941735,Hotel Bar
Paris,Mail,48.8680539,2.344592949731121,4b7d9611f964a5204cc82fe3,Frenchie,48.86773860029535,2.347993031144142,4bf58dd8d48988d10c941735,French Restaurant
Paris,Mail,48.8680539,2.344592949731121,5cf26ac2b3d8e2002c131417,Tigermilk,48.868234,2.347351,4bf58dd8d48988d1c1941735,Mexican Restaurant
Paris,Mail,48.8680539,2.344592949731121,57dd0809cd10776425c22dd7,Cloud Cakes,48.86564146123004,2.34630173279246,4bf58dd8d48988d16a941735,Bakery
Paris,Mail,48.8680539,2.344592949731121,5b45f018dee770002bbe5b97,Breizh Café,48.866854,2.347258,52e81612bcbc57f1066b79f2,Creperie
Paris,Mail,48.8680539,2.344592949731121,59144a9ae97dfb02c92e3e3e,Karaage-Ya Bourse,48.87015,2.3418262,4bf58dd8d48988d111941735,Japanese Restaurant
Paris,Mail,48.8680539,2.344592949731121,572a55a4498e35811755b711,Le Compère,48.866598,2.345694,4bf58dd8d48988d10c941735,French Restaurant
Paris,Mail,48.8680539,2.344592949731121,5464a8e6498e60235e91db20,& Other Stories,48.8652293767804,2.3447490519036633,4bf58dd8d48988d108951735,Women's Store
Paris,Mail,48.8680539,2.344592949731121,4ccc69b6ba79a1cd3e223bcb,L'Ivress Sentier,48.868704051885636,2.347624897956848,4bf58dd8d48988d123941735,Wine Bar
Paris,Mail,48.8680539,2.344592949731121,556dd3de498eebb864d8fb7e,Brew Unique,48.868778310137714,2.34764306139859,50327c8591d4c4b30a586d5d,Brewery
Paris,Mail,48.8680539,2.344592949731121,4eb42aad61af0dda8fcb1389,Blend Argout,48.865958165150715,2.343484093370061,4bf58dd8d48988d16c941735,Burger Joint
Paris,Mail,48.8680539,2.344592949731121,51bd909c498e0570185d0778,Keep Cool,48.868188269041475,2.346728858839657,4bf58dd8d48988d176941735,Gym
Paris,Mail,48.8680539,2.344592949731121,596208189ad60e2131b53411,Salatim,48.869192371250335,2.3459705903081125,56aa371be4b08b9a8d573529,Israeli Restaurant
Paris,Mail,48.8680539,2.344592949731121,4adcda1af964a520c83821e3,Sentier des Halles,48.86738242621467,2.345620158825648,5032792091d4c4b30a586d5c,Concert Hall
Paris,Mail,48.8680539,2.344592949731121,4b0ec8cdf964a520fb5a23e3,Max Linder Panorama,48.87138398457992,2.344808578491211,4bf58dd8d48988d17e941735,Indie Movie Theater
Paris,Mail,48.8680539,2.344592949731121,5b2d4fcf4acb19002cd1ece2,The Shed,48.870824,2.3449,4bf58dd8d48988d11e941735,Cocktail Bar
Paris,Mail,48.8680539,2.344592949731121,4b408661f964a520bbb825e3,Place des Victoires,48.865759373109775,2.341219220887502,4bf58dd8d48988d164941735,Plaza
Paris,Mail,48.8680539,2.344592949731121,4bdf3f9cbe5120a103b1fe70,Thaïsil,48.86775889038076,2.348080202937126,4bf58dd8d48988d149941735,Thai Restaurant
Paris,Mail,48.8680539,2.344592949731121,55df4c57498e2abd14b76b73,Hôtel Bachaumont,48.86617629790189,2.3449255329280247,4bf58dd8d48988d1fa931735,Hotel
Paris,Mail,48.8680539,2.344592949731121,5d514b4832ac8d0008ad2543,Riha Durum,48.866488014924556,2.347056269645691,4bf58dd8d48988d1c5941735,Sandwich Place
Paris,Mail,48.8680539,2.344592949731121,4adcda15f964a520b03721e3,Le Grand Rex,48.870470106609815,2.3476409912109375,4bf58dd8d48988d17e941735,Indie Movie Theater
Paris,Mail,48.8680539,2.344592949731121,52fcb8ba498e31c1f281ca7e,Mariage Frères,48.86592264517343,2.3470645073391414,4bf58dd8d48988d1dc931735,Tea Room
Paris,Mail,48.8680539,2.344592949731121,4b181e1cf964a5203acd23e3,Experimental Cocktail Club,48.86615088435938,2.3483697974431506,4bf58dd8d48988d11e941735,Cocktail Bar
Paris,Mail,48.8680539,2.344592949731121,4b095936f964a5200a1623e3,Galerie Vivienne,48.86673055550591,2.339799701984434,4deefb944765f83613cdba6e,Historic Site
Paris,Mail,48.8680539,2.344592949731121,5c1265d9b6b04b002c105e63,Ibrik Kitchen,48.868767,2.346726,52960bac3cf9994f4e043ac4,Romanian Restaurant
Paris,Mail,48.8680539,2.344592949731121,4bd32e73b221c9b61a0ed9d0,La Fermette,48.865877260578316,2.346997460261535,4bf58dd8d48988d11e951735,Cheese Shop
Paris,Mail,48.8680539,2.344592949731121,54479500498ec5f5c5a9e8d0,Kapunka,48.86622564267205,2.3477632388713405,4bf58dd8d48988d149941735,Thai Restaurant
Paris,Mail,48.8680539,2.344592949731121,56137365498ee376961ba86f,Sneakersnstuff,48.86758354290015,2.3459208293118095,4bf58dd8d48988d107951735,Shoe Store
Paris,Mail,48.8680539,2.344592949731121,4adcda20f964a520a33921e3,Stohrer,48.86525325072182,2.346816211938858,5744ccdfe4b0c0459246b4e2,Pastry Shop
Paris,Mail,48.8680539,2.344592949731121,50cc76f1e4b0262edfa7d19a,Terroirs d'Avenir,48.86777264233697,2.347769665567521,4bf58dd8d48988d1fa941735,Farmers Market
Paris,Mail,48.8680539,2.344592949731121,4adcda08f964a5208b3321e3,Comedy Club,48.87064568961842,2.348375540100513,4bf58dd8d48988d18e941735,Comedy Club
Paris,Mail,48.8680539,2.344592949731121,4e83cd284fc6f78732f55272,Place de la Bourse,48.868703251266595,2.3417216866044663,4bf58dd8d48988d164941735,Plaza
Paris,Mail,48.8680539,2.344592949731121,4adcda14f964a520023721e3,Le Comptoir de la Gastronomie,48.864555479743366,2.345258763984336,4bf58dd8d48988d10c941735,French Restaurant
Paris,Mail,48.8680539,2.344592949731121,527ce1b8498e46ac545d34aa,Johana's Fish & Chips,48.86625582652217,2.3475763233005273,4edd64a0c7ddd24ca188df1a,Fish & Chips Shop
Paris,Mail,48.8680539,2.344592949731121,4b095f6df964a520511623e3,Passage des Panoramas,48.87099232463669,2.3416757583618164,52e81612bcbc57f1066b7a25,Pedestrian Plaza
Paris,Mail,48.8680539,2.344592949731121,56919259498ebce4c186eab0,Le Distrait,48.869892,2.349226,4bf58dd8d48988d116941735,Bar
Paris,Mail,48.8680539,2.344592949731121,59aaf730c824ae769283889a,Jacques’ Bar,48.87014223572917,2.346597822090189,4bf58dd8d48988d11e941735,Cocktail Bar
Paris,Mail,48.8680539,2.344592949731121,527e3948498e3c991897db98,Le Moulin de la Vierge,48.86620190566684,2.3411547392606735,4bf58dd8d48988d16a941735,Bakery
Paris,Mail,48.8680539,2.344592949731121,575c019e498ee773ff9b655a,Ippudo,48.864649476657775,2.3448380827903748,55a59bace4b013909087cb24,Ramen Restaurant
Paris,Mail,48.8680539,2.344592949731121,593fc02b60255e13a3a472df,Zouzou,48.8664086168748,2.3466968536376953,4bf58dd8d48988d1e0931735,Coffee Shop
Paris,Mail,48.8680539,2.344592949731121,5a8f2234d41bb75e48b87e99,Bocamexa,48.86709892107616,2.3486494368054145,4bf58dd8d48988d1c1941735,Mexican Restaurant
Paris,Mail,48.8680539,2.344592949731121,56c5ca55cd1031bcae7c8ea9,Made.com,48.865759985961816,2.3421696239113734,4bf58dd8d48988d1f8941735,Furniture / Home Store
