City,Neighbourhood,Neighbourhood Latitude,Neighbourhood Longitude,Venue Id,Venue,Venue Latitude,Venue Longitude,Venue Category Id,Venue Category Name
Vienna,Innere Stadt,48.2090229,16.36985112569659,4d7cb65c86cfa1435ce4cea0,Stephansplatz,48.208299497606895,16.371879843615737,4bf58dd8d48988d164941735,Plaza
Vienna,Innere Stadt,48.2090229,16.36985112569659,4b058890f964a520c2cd22e3,DO & CO Restaurant,48.20823979720303,16.371758177641706,4bf58dd8d48988d1c4941735,Restaurant
Vienna,Innere Stadt,48.2090229,16.36985112569659,4b058899f964a520accf22e3,Graben,48.2089149326547,16.36937850431819,52e81612bcbc57f1066b7a25,Pedestrian Plaza
Vienna,Innere Stadt,48.2090229,16.36985112569659,4b058892f964a52067ce22e3,Stephansdom,48.208626,16.372672,4bf58dd8d48988d132941735,Church
Vienna,Innere Stadt,48.2090229,16.36985112569659,4b058896f964a52038cf22e3,Zum Schwarzen Kameel,48.2100099,16.36824,52e81612bcbc57f1066b7a01,Austrian Restaurant
Vienna,Innere Stadt,48.2090229,16.36985112569659,4ba68690f964a520145b39e3,Julius Meinl,48.20941606744026,16.368587775379268,4bf58dd8d48988d1f5941735,Gourmet Shop
Vienna,Innere Stadt,48.2090229,16.36985112569659,4c07ee257e3fc928ba7aef82,Ilona Stüberl,48.2084818411421,16.369516547200895,52e81612bcbc57f1066b79fa,Hungarian Restaurant
Vienna,Innere Stadt,48.2090229,16.36985112569659,4b6c911af964a520a4432ce3,Kolar,48.2105380682773,16.370033124045836,4bf58dd8d48988d155941735,Gastropub
Vienna,Innere Stadt,48.2090229,16.36985112569659,5040ce2ce4b01330203b195b,COS,48.20935936973534,16.37159057207792,4bf58dd8d48988d103951735,Clothing Store
Vienna,Innere Stadt,48.2090229,16.36985112569659,4c5c79d6ed29ef3b06c48576,Gucci,48.20891228565936,16.36805847287178,4bf58dd8d48988d104951735,Boutique
Vienna,Innere Stadt,48.2090229,16.36985112569659,4b058899f964a520c3cf22e3,Kohlmarkt,48.2087315,16.3679161,5744ccdfe4b0c0459246b4dc,Shopping Plaza
Vienna,Innere Stadt,48.2090229,16.36985112569659,52e130cc498e0002e9ccc6b3,Roberto American Bar,48.20988869013428,16.372319734930045,4bf58dd8d48988d11e941735,Cocktail Bar
Vienna,Innere Stadt,48.2090229,16.36985112569659,513f0da8e4b0be38aa6bfe03,Park Hyatt Vienna,48.210691467830806,16.367787655840928,4bf58dd8d48988d1fa931735,Hotel
Vienna,Innere Stadt,48.2090229,16.36985112569659,4bdc5773c79cc928a51786e9,Eissalon Tuchlauben,48.21049261171438,16.37091754521238,4bf58dd8d48988d1c9941735,Ice Cream Shop
Vienna,Innere Stadt,48.2090229,16.36985112569659,4b058891f964a520f6cd22e3,Meinl's Weinbar,48.2097863262778,16.3683266745546,4bf58dd8d48988d123941735,Wine Bar
Vienna,Innere Stadt,48.2090229,16.36985112569659,4c7120099375a09325e50837,Michaelerplatz,48.2080072898127,16.366624878657298,4bf58dd8d48988d164941735,Plaza
Vienna,Innere Stadt,48.2090229,16.36985112569659,4b058890f964a520e1cd22e3,Nightfly's Club American Bar,48.20705548710415,16.368883196708808,4bf58dd8d48988d11e941735,Cocktail Bar
Vienna,Innere Stadt,48.2090229,16.36985112569659,4d028da12f96f04daf841254,zum finsteren stern,48.21106138157032,16.369153293642345,4bf58dd8d48988d1c4941735,Restaurant
Vienna,Innere Stadt,48.2090229,16.36985112569659,4b14e6e6f964a5204da723e3,Kärntner Straße,48.20700229821187,16.371795303421095,52e81612bcbc57f1066b7a25,Pedestrian Plaza
Vienna,Innere Stadt,48.2090229,16.36985112569659,589cd4edd4ab736cbdd71323,Apple Kärntner Straße,48.20704525996968,16.37174569120412,4bf58dd8d48988d122951735,Electronics Store
Vienna,Innere Stadt,48.2090229,16.36985112569659,4b058890f964a520b1cd22e3,Demel – K.u.K. Hofzuckerbäcker,48.20859,16.36721,4bf58dd8d48988d1d0941735,Dessert Shop
Vienna,Innere Stadt,48.2090229,16.36985112569659,4da421d7e8ff2c0fec32b0cd,Philipp Plein Vienna,48.20903265892371,16.37080776571131,4bf58dd8d48988d103951735,Clothing Store
Vienna,Innere Stadt,48.2090229,16.36985112569659,4de3ba3d1f6e3190cd2dbf39,Kurt - Pure Frozen Yogurt,48.2111752829476,16.37155783271426,512e7cae91d4cbb4e5efe0af,Frozen Yogurt Shop
Vienna,Innere Stadt,48.2090229,16.36985112569659,57343537498e15f0e5a75815,Caffe a Casa,48.211019,16.372706,4bf58dd8d48988d16d941735,Café
Vienna,Innere Stadt,48.2090229,16.36985112569659,523c249911d27d4734254a83,Πνύκα (Pnyka) (Pnyka),48.21046294819937,16.37226696168311,4bf58dd8d48988d16a941735,Bakery
Vienna,Innere Stadt,48.2090229,16.36985112569659,5076c3d8e4b0c84a1274608c,MERKUR Hoher Markt,48.21068958416128,16.373336734896696,52f2ab2ebcbc57f1066b8b46,Supermarket
Vienna,Innere Stadt,48.2090229,16.36985112569659,4b6c68e2f964a520bc372ce3,Artis International Wien,48.211403136609206,16.37096497768221,4bf58dd8d48988d17f941735,Movie Theater
Vienna,Innere Stadt,48.2090229,16.36985112569659,4c042368310fc9b69fe3c661,Steigenberger Hotel Herrenhof,48.209731938090805,16.365828725653124,4bf58dd8d48988d1fa931735,Hotel
Vienna,Innere Stadt,48.2090229,16.36985112569659,4c109abdce640f476e373a52,Dorotheum,48.20634,16.36863,4bf58dd8d48988d116951735,Antique Shop
Vienna,Innere Stadt,48.2090229,16.36985112569659,4b6c1e0ef964a520b6242ce3,Haas & Haas Teehaus,48.208177561049744,16.373780800734853,4bf58dd8d48988d1dc931735,Tea Room
Vienna,Innere Stadt,48.2090229,16.36985112569659,4c0158fb4f1ea593b55a6b7d,Am Hof,48.211002341587616,16.367627686502704,4bf58dd8d48988d164941735,Plaza
Vienna,Innere Stadt,48.2090229,16.36985112569659,4b058895f964a5200dcf22e3,Ofenloch,48.2109997708798,16.36964319638368,4bf58dd8d48988d1c4941735,Restaurant
Vienna,Innere Stadt,48.2090229,16.36985112569659,4b07eed2f964a5204c0123e3,Spanische Hofreitschule,48.207765893898475,16.366453086611646,4deefb944765f83613cdba6e,Historic Site
Vienna,Innere Stadt,48.2090229,16.36985112569659,4bc9a79f68f976b0d39b5d83,Gelateria Hoher Markt,48.211121566728956,16.372613731038843,4bf58dd8d48988d1c9941735,Ice Cream Shop
Vienna,Innere Stadt,48.2090229,16.36985112569659,4bfd022c2b83b7137b9ca998,Würstelstand Hoher Markt,48.21113316179447,16.372437409432184,56aa371ce4b08b9a8d57358e,Bratwurst Joint
Vienna,Innere Stadt,48.2090229,16.36985112569659,4e8d8a74775bde318a84fc16,Beaulieu,48.21084115407185,16.365328655319043,4bf58dd8d48988d10c941735,French Restaurant
Vienna,Innere Stadt,48.2090229,16.36985112569659,55d74314498ecf05fbb0d344,IKO,48.21152970818783,16.37148144545248,4bf58dd8d48988d142941735,Asian Restaurant
Vienna,Innere Stadt,48.2090229,16.36985112569659,4ccac4dfc4d06dcb43ea6403,BILLA,48.2068637,16.3709682,52f2ab2ebcbc57f1066b8b46,Supermarket
Vienna,Innere Stadt,48.2090229,16.36985112569659,4cdbb51299026dcbcb860e81,Prunksaal der Nationalbibliothek,48.20618185496205,16.366775035858154,4deefb944765f83613cdba6e,Historic Site
Vienna,Innere Stadt,48.2090229,16.36985112569659,4a112513f964a5200e771fe3,Hofburg,48.20662874392594,16.3655948638916,52e81612bcbc57f1066b7a14,Palace
Vienna,Innere Stadt,48.2090229,16.36985112569659,58dd29457220e66fd103eb95,Needle Vinyl Bar,48.21222856309134,16.36891195666124,4bf58dd8d48988d116941735,Bar
Vienna,Innere Stadt,48.2090229,16.36985112569659,50d1c833e4b01d819ca0670d,Joma,48.21082326644233,16.37320928597275,4bf58dd8d48988d16d941735,Café
Vienna,Innere Stadt,48.2090229,16.36985112569659,4b058892f964a5204dce22e3,Hoher Markt,48.211020849473044,16.372659651175216,4bf58dd8d48988d164941735,Plaza
Vienna,Innere Stadt,48.2090229,16.36985112569659,4b058891f964a5200bce22e3,SKY,48.20642675059718,16.372075080871582,4bf58dd8d48988d11e941735,Cocktail Bar
Vienna,Innere Stadt,48.2090229,16.36985112569659,548ecec9498ef3749fb7a9f2,Lugeck Figlmüller,48.209682,16.375169,52e81612bcbc57f1066b7a01,Austrian Restaurant
Vienna,Innere Stadt,48.2090229,16.36985112569659,4b058890f964a520cacd22e3,Zanoni & Zanoni,48.21013726877021,16.37430531024073,4bf58dd8d48988d1c9941735,Ice Cream Shop
Vienna,Innere Stadt,48.2090229,16.36985112569659,4b79771ff964a520d0fa2ee3,Nespresso Boutique,48.208266509370056,16.370641606348975,4bf58dd8d48988d1e0931735,Coffee Shop
Vienna,Innere Stadt,48.2090229,16.36985112569659,4f7fe43de4b0c7b8549280dd,Hotel Topazz,48.21045641317164,16.373670004952842,4bf58dd8d48988d1fa931735,Hotel
Vienna,Innere Stadt,48.2090229,16.36985112569659,5c1d2c8341b6c90025d26dcf,Le Burger,48.210200999145776,16.37412913207422,4bf58dd8d48988d16c941735,Burger Joint
Vienna,Innere Stadt,48.2090229,16.36985112569659,57f7e0bb498e90a77d7dddf3,Schachtelwirt,48.2114103036467,16.373666538803935,52e81612bcbc57f1066b7a01,Austrian Restaurant
Vienna,Innere Stadt,48.2090229,16.36985112569659,53fdbcc0498e491b20b69b1a,Lilette's,48.21078405951799,16.37134449328894,4bf58dd8d48988d112941735,Juice Bar
Vienna,Innere Stadt,48.2090229,16.36985112569659,552a9a03498ea4c3e3ad8a0a,Mel's Craft Beers & Diner,48.212127463902426,16.369991149748124,4bf58dd8d48988d116941735,Bar
Vienna,Innere Stadt,48.2090229,16.36985112569659,4bd96d3c5f50b7133413e0d1,hiddenkitchen,48.212360397545226,16.36904342380426,4bf58dd8d48988d1bd941735,Salad Place
Vienna,Innere Stadt,48.2090229,16.36985112569659,5bb4f19a123a19002c9e9510,Die Feinkosterei Schwarz-Hirsch,48.211742,16.3692,4bf58dd8d48988d1c4941735,Restaurant
Vienna,Innere Stadt,48.2090229,16.36985112569659,4be98dfb61aca59335ad8200,Altes Rathaus,48.21192626718067,16.370643063699656,4bf58dd8d48988d129941735,City Hall
Vienna,Innere Stadt,48.2090229,16.36985112569659,5a450845f870fd694cf13665,Parémi,48.20913259310059,16.3759602275945,4bf58dd8d48988d16a941735,Bakery
Vienna,Innere Stadt,48.2090229,16.36985112569659,52f651bf498e274f7d6af263,Figlmüller,48.209364118352575,16.375613749881484,52e81612bcbc57f1066b7a01,Austrian Restaurant
Vienna,Innere Stadt,48.2090229,16.36985112569659,5306036c498e71c633c34f6b,Neuer Markt,48.20608846181787,16.370819061153945,4bf58dd8d48988d164941735,Plaza
Vienna,Innere Stadt,48.2090229,16.36985112569659,5562c149498e7b19f7011726,Mercure Vienna First,48.2114300912843,16.37393622598256,4bf58dd8d48988d1fa931735,Hotel
Vienna,Innere Stadt,48.2090229,16.36985112569659,53592c5d498eca6a14b1de18,simply raw bakery,48.21158063276073,16.368907758326287,4bf58dd8d48988d16a941735,Bakery
Vienna,Innere Stadt,48.2090229,16.36985112569659,52334d8b498e6d69271bd64c,CaffèCouture District 1,48.21139362467169,16.365711620609506,4bf58dd8d48988d1e0931735,Coffee Shop
Vienna,Innere Stadt,48.2090229,16.36985112569659,4d9b01e859f2145639f52dc6,Eis-Greissler,48.21064169476712,16.374764770356858,4bf58dd8d48988d1c9941735,Ice Cream Shop
Vienna,Innere Stadt,48.2090229,16.36985112569659,4c154f6fa9c220a166f8589d,Freyung,48.21168120014734,16.365562860519933,4bf58dd8d48988d164941735,Plaza
Vienna,Innere Stadt,48.2090229,16.36985112569659,4bb9e0187421a5933018c340,Kaiserliche Schatzkammer,48.206955818905044,16.36576666024485,4bf58dd8d48988d190941735,History Museum
Vienna,Innere Stadt,48.2090229,16.36985112569659,590c880918d43b3d8cbf73d7,Kitcha,48.212439729681414,16.37285356437814,4bf58dd8d48988d142941735,Asian Restaurant
Vienna,Innere Stadt,48.2090229,16.36985112569659,506d8e9ce4b0acdb51edf169,Ferstel Passage,48.21137840663519,16.365733290793735,4bf58dd8d48988d1fd941735,Shopping Mall
Vienna,Innere Stadt,48.2090229,16.36985112569659,4b05889af964a520cbcf22e3,Steffl Department Store,48.20639879266867,16.371535963335173,4bf58dd8d48988d1f6941735,Department Store
Vienna,Innere Stadt,48.2090229,16.36985112569659,513a47e0e4b06cdafa419239,Vulcanothek,48.21141027000374,16.365758213071427,4bf58dd8d48988d123941735,Wine Bar
Vienna,Innere Stadt,48.2090229,16.36985112569659,4dd50a5b1f6ec4e0bb87182d,Lugeck,48.20989449537002,16.374935254200096,4bf58dd8d48988d164941735,Plaza
Vienna,Innere Stadt,48.2090229,16.36985112569659,4be7dffdd837c9b6d69ca406,Biomarkt Freyung,48.21176098292969,16.365645459463128,4bf58dd8d48988d1fa941735,Farmers Market
Vienna,Innere Stadt,48.2090229,16.36985112569659,4fe34597e4b0efa3a65d1b89,ra'mien go,48.211134622056335,16.37244256596112,4bf58dd8d48988d142941735,Asian Restaurant
Vienna,Innere Stadt,48.2090229,16.36985112569659,4b71b73df964a52026582de3,Café Daniel Moser,48.210523376983446,16.37481801546528,4bf58dd8d48988d16d941735,Café
Vienna,Innere Stadt,48.2090229,16.36985112569659,4ca5fb6e97c8a1cdedbb6ba5,Bank Austria Kunstforum Wien,48.211408628430995,16.366187456129456,4bf58dd8d48988d1e2931735,Art Gallery
Vienna,Innere Stadt,48.2090229,16.36985112569659,5bf1263fecb3ed002575f7d5,Wiki Wiki Poke,48.21251909999999,16.3686172,5bae9231bedf3950379f89d4,Poke Place
Vienna,Innere Stadt,48.2090229,16.36985112569659,51cc1e8f454a4182ccb2573c,The Guesthouse Vienna,48.20478372963652,16.368875368798996,4bf58dd8d48988d1fa931735,Hotel
Vienna,Innere Stadt,48.2090229,16.36985112569659,4b058896f964a52026cf22e3,Da Capo,48.207842095015444,16.376276992721905,4bf58dd8d48988d110941735,Italian Restaurant
Vienna,Innere Stadt,48.2090229,16.36985112569659,4b058892f964a5205ece22e3,Judenplatz,48.2115857339814,16.36968028869339,4bf58dd8d48988d164941735,Plaza
Vienna,Innere Stadt,48.2090229,16.36985112569659,4e52388e1f6e68a6b3ec5658,Giorgina,48.21060109273312,16.363979000297014,4bf58dd8d48988d1c4941735,Restaurant
Vienna,Innere Stadt,48.2090229,16.36985112569659,572b522b498e554ddb805347,Buxbaum Restaurant,48.209955,16.376354,52e81612bcbc57f1066b7a01,Austrian Restaurant
Vienna,Innere Stadt,48.2090229,16.36985112569659,4b0e63e1f964a5204b5723e3,reisinger's am salzgries,48.21335970474757,16.371306498478837,4bf58dd8d48988d1c4941735,Restaurant
Vienna,Innere Stadt,48.2090229,16.36985112569659,54f33580498eb4b23a5d6023,doktor yoga,48.21291646039742,16.370015589753194,4bf58dd8d48988d102941735,Yoga Studio
Vienna,Innere Stadt,48.2090229,16.36985112569659,4c447f5c36d6a593698a6aa8,Kornat,48.21235797592537,16.37346839331189,4bf58dd8d48988d1ce941735,Seafood Restaurant
Vienna,Innere Stadt,48.2090229,16.36985112569659,5abea2f2ff0306051db539e7,Cafe Restaurant Leto,48.212525,16.369467,4bf58dd8d48988d1c0941735,Mediterranean Restaurant
Vienna,Innere Stadt,48.2090229,16.36985112569659,4c17c07b834e2d7f0fd72780,Ella's,48.21161611308791,16.369523878999292,4bf58dd8d48988d1c0941735,Mediterranean Restaurant
Vienna,Innere Stadt,48.2090229,16.36985112569659,4c2fea6166e40f476ad5c28b,Bane's Bar,48.210233981238964,16.375558371360125,4bf58dd8d48988d116941735,Bar
Vienna,Innere Stadt,48.2090229,16.36985112569659,59ce6f69e1f2284e67e06503,Joseph Brot Bagelmanufaktur,48.20494827393073,16.369582502862798,4bf58dd8d48988d179941735,Bagel Shop
Vienna,Innere Stadt,48.2090229,16.36985112569659,577a81cd498e9a0813df69ca,Cafe Frei Wien,48.21284433858733,16.372827121978585,4bf58dd8d48988d16d941735,Café
Vienna,Innere Stadt,48.2090229,16.36985112569659,55edb700498e32ce2c4dbd03,Max & Benito,48.212857457444834,16.36837941202685,4bf58dd8d48988d153941735,Burrito Place
Vienna,Innere Stadt,48.2090229,16.36985112569659,4c0f397cc6cf76b045098251,Xocolat,48.21134991632568,16.365684973020283,4bf58dd8d48988d117951735,Candy Store
Vienna,Innere Stadt,48.2090229,16.36985112569659,563de217cd100389bece57d2,Veggiezz,48.21309107883542,16.372377887064104,4bf58dd8d48988d1d3941735,Vegetarian / Vegan Restaurant
Vienna,Innere Stadt,48.2090229,16.36985112569659,4b927c74f964a52057fd33e3,Kaffee Alt Wien,48.209147,16.376177,4bf58dd8d48988d16d941735,Café
Vienna,Innere Stadt,48.2090229,16.36985112569659,54870fd9498eb846eb97ac31,Stadtcafe,48.21143606442306,16.3660127540739,4bf58dd8d48988d16d941735,Café
Vienna,Innere Stadt,48.2090229,16.36985112569659,4e5d1865d4c076413608e870,Peek & Cloppenburg,48.20561519414904,16.371417939662933,4bf58dd8d48988d103951735,Clothing Store
Vienna,Innere Stadt,48.2090229,16.36985112569659,4bbe486b53e9952191072da9,First Floor,48.211815302544224,16.374980482571598,4bf58dd8d48988d116941735,Bar
Vienna,Innere Stadt,48.2090229,16.36985112569659,4c19e28ff551ef3b77464768,EMI - The Music Store,48.20474412524875,16.370690774144254,4bf58dd8d48988d1fe941735,Music Store
Vienna,Innere Stadt,48.2090229,16.36985112569659,4b9be2eaf964a520883136e3,Salzamt,48.21201623985345,16.374106459577238,4bf58dd8d48988d1c4941735,Restaurant
Vienna,Innere Stadt,48.2090229,16.36985112569659,534aa8ce498ecf32f55f8d1c,Hard Rock Cafe,48.21131735081294,16.375482215979446,4bf58dd8d48988d14e941735,American Restaurant
Vienna,Innere Stadt,48.2090229,16.36985112569659,4b425ac4f964a52039d225e3,Pickwick's,48.21262479430046,16.373878309501496,52e81612bcbc57f1066b7a06,Irish Pub
Vienna,Innere Stadt,48.2090229,16.36985112569659,4e2bbc2a52b1b8f198651f16,Hotel Kärntnerhof,48.21016,16.37606,4bf58dd8d48988d1fa931735,Hotel
Vienna,Innere Stadt,48.2090229,16.36985112569659,4dd6edfa1838b8561cda1f37,Hotel Das Tigra,48.2124944630163,16.36816273322435,4bf58dd8d48988d1fa931735,Hotel
Vienna,Jägerzeile,48.2166064,16.3894325,537f7848498e5da65078f58d,Supersense,48.21698069036133,16.38897395117081,52f2ab2ebcbc57f1066b8b3d,Pop-Up Shop
Vienna,Jägerzeile,48.2166064,16.3894325,4b33dc84f964a520c42025e3,Austria Classic Hotel Wien,48.21704,16.3895,4bf58dd8d48988d1fa931735,Hotel
Vienna,Jägerzeile,48.2166064,16.3894325,5a65e80d4940bc6e0616df76,Kate's CafeBar,48.21752447767635,16.39234185218811,4bf58dd8d48988d16d941735,Café
Vienna,Jägerzeile,48.2166064,16.3894325,5756ae07cd106221118a0a70,Coconut Curry,48.216729215499235,16.38823371723444,4bf58dd8d48988d142941735,Asian Restaurant
Vienna,Jägerzeile,48.2166064,16.3894325,4bcc5eb6aeaaeee165f13d6d,Das Capri,48.215482609056956,16.386030133240286,4bf58dd8d48988d1fa931735,Hotel
Vienna,Jägerzeile,48.2166064,16.3894325,533d3bc2498e841816e41ed9,Zweistern,48.218380249175866,16.39007483840793,4bf58dd8d48988d16d941735,Café
Vienna,Jägerzeile,48.2166064,16.3894325,5350ed2b498e0ab1e53d91fa,Balthasar,48.21501152661394,16.384957892300903,4bf58dd8d48988d1e0931735,Coffee Shop
Vienna,Jägerzeile,48.2166064,16.3894325,4d9437f63048b1f7f60e2c64,Café Else,48.21897396750457,16.388945346829594,4bf58dd8d48988d16d941735,Café
Vienna,Jägerzeile,48.2166064,16.3894325,4b76ea7cf964a520356a2ee3,Gasthaus Schosztarich,48.214974983335146,16.391303385231005,4bf58dd8d48988d1c4941735,Restaurant
Vienna,Jägerzeile,48.2166064,16.3894325,4dc444307d8b14fb460c973e,Würstelstand Bitzinger,48.2176682758472,16.39410375030673,4bf58dd8d48988d16f941735,Hot Dog Joint
Vienna,Jägerzeile,48.2166064,16.3894325,4bcf6b7f0ffdce720875b2c0,Adlon Hotel Vienna,48.2152067988199,16.390314518703175,4bf58dd8d48988d1fa931735,Hotel
Vienna,Jägerzeile,48.2166064,16.3894325,4c3eeecf0e0d0f47c42a167f,Osteria Stradina,48.215201137760594,16.385372067064196,55a5a1ebe4b013909087cb7f,Trattoria/Osteria
Vienna,Jägerzeile,48.2166064,16.3894325,4d5514f6143ca0938c01abfc,g.maqroll Hafenkneipe,48.21361043071303,16.39024972915649,52e81612bcbc57f1066b7a0d,Beach Bar
Vienna,Jägerzeile,48.2166064,16.3894325,4d46f3e53616b60c10f3fcc2,Asia Supermarket Nakwon 2,48.21678402874982,16.38584513692807,4bf58dd8d48988d118951735,Grocery Store
Vienna,Jägerzeile,48.2166064,16.3894325,4e9888b030f87b6eacdfe2b6,New Bar,48.21692210576046,16.385152222726003,4bf58dd8d48988d116941735,Bar
Vienna,Jägerzeile,48.2166064,16.3894325,52e14bf6498e80019280f4f2,Lunzers Maß-Greißlerei,48.219414936472226,16.387923011591653,4bf58dd8d48988d1f5941735,Gourmet Shop
Vienna,Jägerzeile,48.2166064,16.3894325,4bbc8527e436ef3bf5995664,Wiener Riesenrad,48.216695225127765,16.395914554595947,5109983191d435c0d71c2bb1,Theme Park Ride / Attraction
Vienna,Jägerzeile,48.2166064,16.3894325,4b065c63f964a52023eb22e3,Gasthaus Nestroy,48.215070460414,16.38416573701454,52e81612bcbc57f1066b7a01,Austrian Restaurant
Vienna,Jägerzeile,48.2166064,16.3894325,53d75796498e5f0cda875b0e,Falaferia Praterstern,48.218664662136554,16.39278839427622,4bf58dd8d48988d10b941735,Falafel Restaurant
Vienna,Jägerzeile,48.2166064,16.3894325,524710f711d2fda7af69a001,Wiesbauer Zelt,48.21676492272033,16.394506074114826,4bf58dd8d48988d117941735,Beer Garden
Vienna,Jägerzeile,48.2166064,16.3894325,4b058894f964a520d7ce22e3,Planetarium,48.21635385110375,16.394934666881056,4bf58dd8d48988d192941735,Planetarium
Vienna,Jägerzeile,48.2166064,16.3894325,4c2529e0c11dc9b615bb2624,Praterstern,48.21822690957657,16.393142316357537,4bf58dd8d48988d164941735,Plaza
Vienna,Jägerzeile,48.2166064,16.3894325,4fafeb1ee4b0d39d538ed2e1,Nestroyplatz,48.21531456478716,16.38560004532698,4bf58dd8d48988d164941735,Plaza
Vienna,Jägerzeile,48.2166064,16.3894325,4d20240bdd6a236af13e3538,Hotel Wilhelmshof,48.21852213829022,16.387874127334285,4bf58dd8d48988d1fa931735,Hotel
Vienna,Jägerzeile,48.2166064,16.3894325,4d3bdee6557d6dcb01633544,Felber,48.21871137070052,16.39231128244681,4bf58dd8d48988d16a941735,Bakery
Vienna,Jägerzeile,48.2166064,16.3894325,4b058898f964a52088cf22e3,fluc,48.21782805547041,16.393224032342502,4bf58dd8d48988d11f941735,Nightclub
Vienna,Jägerzeile,48.2166064,16.3894325,4bc820ad6501c9b694a33f29,Ströck,48.21896848884809,16.39273077249527,4bf58dd8d48988d16a941735,Bakery
Vienna,Jägerzeile,48.2166064,16.3894325,50d0a43ce4b05d30a983254b,Quick Wu,48.21772070076809,16.39242053327299,4bf58dd8d48988d111941735,Japanese Restaurant
Vienna,Jägerzeile,48.2166064,16.3894325,4bf8506f5317a5931c9eff7e,fluc_wanne,48.217677,16.393358,4bf58dd8d48988d11f941735,Nightclub
Vienna,Jägerzeile,48.2166064,16.3894325,4d95e48ad7366a315520f30a,GAL Apartments Vienna,48.21722794477073,16.383127094301717,4f4530a74b9074f6e4fb0100,Boarding House
Vienna,Jägerzeile,48.2166064,16.3894325,4dd9f860d22d38ef43255797,Radetzkyplatz,48.21233190325768,16.39116355827467,4bf58dd8d48988d164941735,Plaza
Vienna,Jägerzeile,48.2166064,16.3894325,4c13d8a282a3c9b64a38fcf8,Gasthof Hansy,48.21799411482183,16.39038303802883,4bf58dd8d48988d1c4941735,Restaurant
Vienna,Jägerzeile,48.2166064,16.3894325,4bb9d9e57421a593ae10c340,Stadtgasthaus Eisvogel,48.21754349310924,16.395970183584723,52e81612bcbc57f1066b7a01,Austrian Restaurant
Vienna,Jägerzeile,48.2166064,16.3894325,4b05888ff964a52089cd22e3,Hotel KUNSThof,48.22096730800057,16.388993048549477,4bf58dd8d48988d1fa931735,Hotel
Vienna,Jägerzeile,48.2166064,16.3894325,4bd7c143304fce72d7fb33ab,Hotel Vienna,48.21960162708912,16.386307136825863,4bf58dd8d48988d1fa931735,Hotel
Vienna,Jägerzeile,48.2166064,16.3894325,4cd544ea2944b1f7acde5bec,BILLA,48.2186883,16.3920491,52f2ab2ebcbc57f1066b8b46,Supermarket
Vienna,Jägerzeile,48.2166064,16.3894325,52974a2c11d27a78d2dfc4eb,Cafe Heine,48.218870832856034,16.389170538518158,4bf58dd8d48988d16d941735,Café
Vienna,Jägerzeile,48.2166064,16.3894325,542468a9498e37bb9de45aa6,McDonald's,48.218214455162155,16.391379684092716,4bf58dd8d48988d16e941735,Fast Food Restaurant
Vienna,Jägerzeile,48.2166064,16.3894325,4ea912d6d5fbfbf82b9fa412,Segafredo,48.218279085781866,16.39143276885121,4bf58dd8d48988d16d941735,Café
Vienna,Jägerzeile,48.2166064,16.3894325,4be0523a4f15c928d7c5ca0b,Ginza Running Sushi,48.21834339315776,16.393325964547405,4bf58dd8d48988d142941735,Asian Restaurant
Vienna,Jägerzeile,48.2166064,16.3894325,4da9623acda1652a2b7207bf,Libro,48.21769522506704,16.39165822975881,4bf58dd8d48988d121951735,Paper / Office Supplies Store
Vienna,Jägerzeile,48.2166064,16.3894325,4d2ccbf179bc721e0fbce5ee,Fischrestaurant KAJ,48.22099252018087,16.38813845886876,4bf58dd8d48988d1c0941735,Mediterranean Restaurant
Vienna,Jägerzeile,48.2166064,16.3894325,4d37112dd8caa1cd745e73d6,Radatz,48.218867622100205,16.391175377863107,4bf58dd8d48988d11d951735,Butcher
Vienna,Jägerzeile,48.2166064,16.3894325,4c473b5096abd13a73137001,Mr Lee,48.217826169081846,16.392806296410427,4bf58dd8d48988d142941735,Asian Restaurant
Vienna,Jägerzeile,48.2166064,16.3894325,4d36a8254d8a6dcb579e623f,Mostlandl,48.21937275082789,16.38717557372838,4bf58dd8d48988d155941735,Gastropub
Vienna,Jägerzeile,48.2166064,16.3894325,5b8e84f65ba046002c040198,Cafe Zweisam,48.21924012996237,16.388656497001648,4bf58dd8d48988d16d941735,Café
Vienna,Jägerzeile,48.2166064,16.3894325,4be5fe348a8cb7133370c4a0,Türkis,48.21916788971388,16.391086243158313,4f04af1f2fb6e1c99f3db0bb,Turkish Restaurant
Vienna,Jägerzeile,48.2166064,16.3894325,4c3c0f00b36ac92877a30386,Ströck,48.21923298153047,16.391429901123047,4bf58dd8d48988d16a941735,Bakery
Vienna,Jägerzeile,48.2166064,16.3894325,59b53cb05d891b3e55bbd6db,Chocolate Museum,48.217172,16.395333,4bf58dd8d48988d181941735,Museum
Vienna,Leopoldstadt,48.200638399999995,16.426948118875448,5031b3bde4b00d67efb3e333,Wiener Prater,48.19947268919053,16.425834596157074,4bf58dd8d48988d163941735,Park
Vienna,Leopoldstadt,48.200638399999995,16.426948118875448,4be119eec1732d7f5d495b9a,Stadionbad,48.20407606168939,16.423165798187256,4bf58dd8d48988d15e941735,Pool
Vienna,Leopoldstadt,48.200638399999995,16.426948118875448,4fc33a93e4b0c1dd0a8696b7,Discgolf-Anlage,48.19956932326458,16.4241899443758,52e81612bcbc57f1066b79e8,Disc Golf
Vienna,Leopoldstadt,48.200638399999995,16.426948118875448,4fd0b883e4b0144cfde3a321,friss oder stirb wiese,48.199047,16.429308,4bf58dd8d48988d1ce941735,Seafood Restaurant
Vienna,Leopoldstadt,48.200638399999995,16.426948118875448,516d5628498e0d6864776ad0,Kleingartenverein Sonnenschein,48.20259869837198,16.432108090345757,4bf58dd8d48988d15a941735,Garden
Vienna,Zwischenbrücken,48.234821200000006,16.386601300000002,51bb5eb3498ebeb35cc61c89,Gastwirtschaft zum Nussgart'l,48.23426381526607,16.389621551577733,52e81612bcbc57f1066b7a01,Austrian Restaurant
Vienna,Zwischenbrücken,48.234821200000006,16.386601300000002,4bd2d4ac41b9ef3ba1bffee5,Gasthaus Kopp,48.23787288785448,16.38746373430079,52e81612bcbc57f1066b7a01,Austrian Restaurant
Vienna,Zwischenbrücken,48.234821200000006,16.386601300000002,4c56bf3a1ec29521f62accfc,Hofer,48.23642269806166,16.39027525013978,52f2ab2ebcbc57f1066b8b46,Supermarket
Vienna,Zwischenbrücken,48.234821200000006,16.386601300000002,51fa84109119658042709cea,Merkur,48.23624096096263,16.38480466237071,52f2ab2ebcbc57f1066b8b46,Supermarket
Vienna,Zwischenbrücken,48.234821200000006,16.386601300000002,4cc2227782388cfaee325e35,Dal Maestro,48.237568,16.387729,4bf58dd8d48988d110941735,Italian Restaurant
Vienna,Zwischenbrücken,48.234821200000006,16.386601300000002,5b71eb9b1c0b34003905b122,Niu Franz,48.231330036401076,16.38669214891973,4bf58dd8d48988d1fa931735,Hotel
Vienna,Zwischenbrücken,48.234821200000006,16.386601300000002,51e51efa498e270b3dd3a2b0,ra'mien go,48.23588927653247,16.380703812254655,4bf58dd8d48988d142941735,Asian Restaurant
Vienna,Zwischenbrücken,48.234821200000006,16.386601300000002,4b604054f964a520fcdb29e3,S Traisengasse,48.23500235954729,16.3832048778855,4bf58dd8d48988d129951735,Train Station
Vienna,Zwischenbrücken,48.234821200000006,16.386601300000002,4db15e32a86e63d2116917b7,Mortarapark,48.23415416872291,16.386893333553733,4bf58dd8d48988d163941735,Park
Vienna,Zwischenbrücken,48.234821200000006,16.386601300000002,4d792791930ef04d2f1bc24f,Treppelweg,48.23701904501265,16.39151845130053,52e81612bcbc57f1066b7a25,Pedestrian Plaza
Vienna,Zwischenbrücken,48.234821200000006,16.386601300000002,4cde7c48ffcf370475d21282,"Engerthstraße, Traisengasse (5A/11A/11B/37A)",48.23611449151019,16.38879011995032,52f2ab2ebcbc57f1066b8b4f,Bus Stop
Vienna,Zwischenbrücken,48.234821200000006,16.386601300000002,4c3b81da4565e21e63d6566a,H Allerheiligengasse,48.23868927652548,16.386512003865057,52f2ab2ebcbc57f1066b8b4f,Bus Stop
Vienna,Landstraße,48.19364355,16.39628639135705,5447dbe2498edd27c7590e77,Satraj,48.192942871644966,16.398756995457695,4bf58dd8d48988d10f941735,Indian Restaurant
Vienna,Landstraße,48.19364355,16.39628639135705,4b1cae3cf964a520000924e3,Rochusmarkt,48.1941134,16.3953555,50be8ee891d4fa8dcc7199a7,Market
Vienna,Landstraße,48.19364355,16.39628639135705,50b33ff2e4b03b4498ac5ef1,Al Sarago,48.19662034605719,16.396019046821156,4bf58dd8d48988d110941735,Italian Restaurant
Vienna,Landstraße,48.19364355,16.39628639135705,4e8f37819a52db7db9c432d5,Black Lounge,48.19588098513117,16.397918027228087,4bf58dd8d48988d119941735,Hookah Bar
Vienna,Landstraße,48.19364355,16.39628639135705,4f89cd5ae4b0a95f94445fd3,Landstein,48.19529767968797,16.396715052902685,4bf58dd8d48988d1c4941735,Restaurant
Vienna,Landstraße,48.19364355,16.39628639135705,4bb232a9a32876b0b14300fe,Eurostars Embassy Hotel,48.19649438298895,16.395981264892598,4bf58dd8d48988d1fa931735,Hotel
Vienna,Landstraße,48.19364355,16.39628639135705,4d63e240625f6dcbe877705e,Cooper's No. 1,48.19216639499757,16.39433655664796,4bf58dd8d48988d11b941735,Pub
Vienna,Landstraße,48.19364355,16.39628639135705,4bcf1b630ffdce72763eb2c0,Gartenhotel Gabriel Vienna,48.191334376917155,16.400627182372762,4bf58dd8d48988d1fa931735,Hotel
Vienna,Landstraße,48.19364355,16.39628639135705,4b058897f964a52066cf22e3,Rabenhof Theater,48.196055375205106,16.401417246356463,4bf58dd8d48988d135941735,Indie Theater
Vienna,Landstraße,48.19364355,16.39628639135705,4d454b9414aa8cfac3d3703d,That's Amore,48.197899,16.395374,4bf58dd8d48988d110941735,Italian Restaurant
Vienna,Landstraße,48.19364355,16.39628639135705,4f6b0c7ee4b0b949c49835b0,Best Western Plus Hotel Amedia Wien,48.19239771100836,16.399516183737433,4bf58dd8d48988d1fa931735,Hotel
Vienna,Landstraße,48.19364355,16.39628639135705,4cacfb238882199ca33947d4,ausklang | bar cafe restaurant,48.19327525098009,16.390540001522556,4bf58dd8d48988d116941735,Bar
Vienna,Landstraße,48.19364355,16.39628639135705,4b9bb442f964a520d81b36e3,Pizzeria Modena,48.195352234026444,16.396563291366327,4bf58dd8d48988d1ca941735,Pizza Place
Vienna,Landstraße,48.19364355,16.39628639135705,4b14d92ff964a520ffa623e3,EUROSPAR,48.19320231750777,16.391249745350933,52f2ab2ebcbc57f1066b8b46,Supermarket
Vienna,Landstraße,48.19364355,16.39628639135705,4dff27ffae605b47b1749794,EUROSPAR,48.193313,16.3979818,52f2ab2ebcbc57f1066b8b46,Supermarket
Vienna,Landstraße,48.19364355,16.39628639135705,58011e0cd67cf0750bf1f36b,BiBim,48.19261244974377,16.393017768859863,4bf58dd8d48988d113941735,Korean Restaurant
Vienna,Landstraße,48.19364355,16.39628639135705,4b9bee4df964a5203a3736e3,Ristorante Paolo,48.19292741342818,16.401028242762802,4bf58dd8d48988d110941735,Italian Restaurant
Vienna,Landstraße,48.19364355,16.39628639135705,4bba1f6398c7ef3b53b93202,Eissalon Bortolotti,48.196600816841666,16.39599655636146,4bf58dd8d48988d1c9941735,Ice Cream Shop
Vienna,Landstraße,48.19364355,16.39628639135705,4b69bbc3f964a520a8b02be3,Cafe Dreier,48.196617307151215,16.392576984664345,4bf58dd8d48988d16d941735,Café
Vienna,Landstraße,48.19364355,16.39628639135705,4b5fee45f964a520eed029e3,Aida Café-Konditorei Wien,48.19671172689991,16.395583168849228,4bf58dd8d48988d16d941735,Café
Vienna,Landstraße,48.19364355,16.39628639135705,4c41cb97ff711b8d986d1205,MERKUR,48.197313749834564,16.39574011605758,52f2ab2ebcbc57f1066b8b46,Supermarket
Vienna,Landstraße,48.19364355,16.39628639135705,4d87920899b78cfae9fcfb1f,Gasthaus Sagmeister,48.19299669547467,16.401655228945902,52e81612bcbc57f1066b7a01,Austrian Restaurant
Vienna,Landstraße,48.19364355,16.39628639135705,4bc1ed8bf8219c74d5f0b310,Heuriger zur alten Weinpresse,48.19603643599603,16.39616002572051,4bf58dd8d48988d123941735,Wine Bar
Vienna,Landstraße,48.19364355,16.39628639135705,4f3cc42ce4b04e058b8f3839,74A Petrusgasse,48.19265013536637,16.39880630499246,52f2ab2ebcbc57f1066b8b4f,Bus Stop
Vienna,Landstraße,48.19364355,16.39628639135705,4f4d0646e4b0657aa4d11604,Tabak Trafik,48.191783272174696,16.399795875518315,4bf58dd8d48988d123951735,Smoke Shop
Vienna,Landstraße,48.19364355,16.39628639135705,4e5e6e49e4cdfc603edb2416,H Viehmarktgasse,48.19069050721236,16.401375729690344,52f2ab2ebcbc57f1066b8b51,Tram Station
Vienna,Erdberg,48.1914136,16.414156900000002,4ba615e2f964a5208a3239e3,Tennispoint Vienna,48.19057238882784,16.410043981289213,4e39a891bd410d7aed40cbc2,Tennis Stadium
Vienna,Erdberg,48.1914136,16.414156900000002,4fb8dcc7e4b0851f2a20e8bf,Gusto,48.19337660773299,16.41178546400616,4bf58dd8d48988d1c4941735,Restaurant
Vienna,Erdberg,48.1914136,16.414156900000002,4b2c3261f964a52089c324e3,Arena,48.18722531705874,16.412892321368776,4bf58dd8d48988d1e5931735,Music Venue
Vienna,Erdberg,48.1914136,16.414156900000002,4dad63d40cb6f003f4874e9c,Gastwirtschaft Schmitzberger,48.19051822540857,16.41065656160934,4bf58dd8d48988d1c4941735,Restaurant
Vienna,Erdberg,48.1914136,16.414156900000002,4c47cff4972c0f4704282521,Injoy Wien,48.19456617920721,16.410977981789035,4bf58dd8d48988d176941735,Gym
Vienna,Erdberg,48.1914136,16.414156900000002,4df87a221495b7db1b0e9de1,BILLA,48.19256915766814,16.411848909811514,52f2ab2ebcbc57f1066b8b46,Supermarket
Vienna,Erdberg,48.1914136,16.414156900000002,4bd051ccfb2cce7266de3bd2,Vienna Sporthotel,48.19130560888505,16.408348205640973,4bf58dd8d48988d1fa931735,Hotel
Vienna,Erdberg,48.1914136,16.414156900000002,4b058898f964a52095cf22e3,Arena Beisl,48.18769804878256,16.41310107294624,4bf58dd8d48988d116941735,Bar
Vienna,Erdberg,48.1914136,16.414156900000002,4f167bb4e4b03856f55b8dc8,Anker,48.19095,16.414856,4bf58dd8d48988d16a941735,Bakery
Vienna,Erdberg,48.1914136,16.414156900000002,4be6b452bcef2d7f935e05e5,Club Danube Erdberg,48.19079794352143,16.413304584228303,4bf58dd8d48988d175941735,Gym / Fitness Center
Vienna,Erdberg,48.1914136,16.414156900000002,5155fbcce4b0d20cc5a89c1a,Marx Bier Und Mehr,48.188962678166604,16.415182989902934,4bf58dd8d48988d116941735,Bar
Vienna,Erdberg,48.1914136,16.414156900000002,4c471813c047be9ad3652f79,Pizzeria Peccino,48.190193,16.414365,4bf58dd8d48988d1ca941735,Pizza Place
Vienna,Erdberg,48.1914136,16.414156900000002,52cd2cc7498e4af42f12c4cb,Blossom,48.19307846969436,16.411670038425196,4bf58dd8d48988d14a941735,Vietnamese Restaurant
Vienna,Erdberg,48.1914136,16.414156900000002,5424157b498eb6929f1c87ba,Die Kantine,48.19448167553437,16.41197794101751,4bf58dd8d48988d11f941735,Nightclub
Vienna,Erdberg,48.1914136,16.414156900000002,4faa4459e4b07c4654a67c47,LAC Kantine,48.19092172392801,16.409212632188126,4bf58dd8d48988d1c4941735,Restaurant
Vienna,Erdberg,48.1914136,16.414156900000002,4f4dd130e4b05dbcebbbf14b,Scala Bar e Vini,48.19131808960407,16.408394842740407,4bf58dd8d48988d110941735,Italian Restaurant
Vienna,Weißgerberviertel,48.2109115,16.3901908,4bf6fa445ec320a1762386d3,Kuchlmasterei,48.211387395858765,16.387841,4bf58dd8d48988d10c941735,French Restaurant
Vienna,Weißgerberviertel,48.2109115,16.3901908,4bcf2e729854d13a3e89f54d,Indus,48.21186388115066,16.39071238006193,4bf58dd8d48988d10f941735,Indian Restaurant
Vienna,Weißgerberviertel,48.2109115,16.3901908,4b058894f964a520cdce22e3,KUNST HAUS WIEN. Museum Hundertwasser,48.21117481258405,16.393431815769596,4bf58dd8d48988d18f941735,Art Museum
Vienna,Weißgerberviertel,48.2109115,16.3901908,4e2aafe11f6ebe54424ac7f7,Trattoria Federico II,48.210588289015256,16.39350746497688,55a5a1ebe4b013909087cb7f,Trattoria/Osteria
Vienna,Weißgerberviertel,48.2109115,16.3901908,4b5d822ef964a520655f29e3,Schaukuchl,48.20986359513151,16.386540405120606,4bf58dd8d48988d155941735,Gastropub
Vienna,Weißgerberviertel,48.2109115,16.3901908,4bd96e40e914a593656e56fa,Wild,48.21068417437373,16.389992951819444,52e81612bcbc57f1066b7a01,Austrian Restaurant
Vienna,Weißgerberviertel,48.2109115,16.3901908,54528d02498e4c34955aaf23,Garage01,48.210653527104476,16.390088347565502,4c2cd86ed066bed06c3c5209,Gluten-free Restaurant
Vienna,Weißgerberviertel,48.2109115,16.3901908,4b058891f964a52006ce22e3,Strandbar Herrmann,48.211953768017906,16.385822960718887,52e81612bcbc57f1066b7a0d,Beach Bar
Vienna,Weißgerberviertel,48.2109115,16.3901908,4dd9f860d22d38ef43255797,Radetzkyplatz,48.21233190325768,16.39116355827467,4bf58dd8d48988d164941735,Plaza
Vienna,Weißgerberviertel,48.2109115,16.3901908,4d5514f6143ca0938c01abfc,g.maqroll Hafenkneipe,48.21361043071303,16.39024972915649,52e81612bcbc57f1066b7a0d,Beach Bar
Vienna,Weißgerberviertel,48.2109115,16.3901908,4b058893f964a52096ce22e3,Hundertwasserhaus,48.2074682876185,16.39379024505615,4bf58dd8d48988d12d941735,Monument / Landmark
Vienna,Weißgerberviertel,48.2109115,16.3901908,4b705380f964a520e0122de3,Stadtwirt,48.20721,16.387712,52e81612bcbc57f1066b7a01,Austrian Restaurant
Vienna,Weißgerberviertel,48.2109115,16.3901908,5211cc277e48ca0dbf58fdef,Ruby Hotel Sofie Vienna,48.20657576544878,16.391394993494814,4bf58dd8d48988d1fa931735,Hotel
Vienna,Weißgerberviertel,48.2109115,16.3901908,4b058893f964a52090ce22e3,Urania Sternwarte,48.21134014695028,16.383562086927785,4bf58dd8d48988d192941735,Planetarium
Vienna,Weißgerberviertel,48.2109115,16.3901908,4c0cc7cd2466a593ac807621,Hitomi,48.20693303107927,16.38932738852448,4bf58dd8d48988d142941735,Asian Restaurant
Vienna,Weißgerberviertel,48.2109115,16.3901908,4bd97b99e914a593589b56fa,Gruab’n,48.207733164200185,16.38764938179823,4bf58dd8d48988d155941735,Gastropub
Vienna,Weißgerberviertel,48.2109115,16.3901908,5665ff02498e213b3b8859e7,Wasabi,48.20736964944476,16.393067895045938,4bf58dd8d48988d142941735,Asian Restaurant
Vienna,Weißgerberviertel,48.2109115,16.3901908,4b802677f964a520df5630e3,Kimchi Restaurant,48.20684564222314,16.39024131172035,4bf58dd8d48988d113941735,Korean Restaurant
Vienna,Weißgerberviertel,48.2109115,16.3901908,5805ed1938fabbec4b9b412c,Alaverdi,48.207019,16.387966,4bf58dd8d48988d109941735,Eastern European Restaurant
Vienna,Weißgerberviertel,48.2109115,16.3901908,4b76ea7cf964a520356a2ee3,Gasthaus Schosztarich,48.214974983335146,16.391303385231005,4bf58dd8d48988d1c4941735,Restaurant
Vienna,Weißgerberviertel,48.2109115,16.3901908,4bcf6b7f0ffdce720875b2c0,Adlon Hotel Vienna,48.2152067988199,16.390314518703175,4bf58dd8d48988d1fa931735,Hotel
Vienna,Weißgerberviertel,48.2109115,16.3901908,4cb0372475ebb60c7eabc2ad,Kunst-Cafe im Hundertwasserhaus,48.20761104710883,16.39372211520998,4bf58dd8d48988d16d941735,Café
Vienna,Weißgerberviertel,48.2109115,16.3901908,517a3f8b498ef6c9d5edf41c,McShark,48.20765148507095,16.385892250994186,4bf58dd8d48988d122951735,Electronics Store
Vienna,Weißgerberviertel,48.2109115,16.3901908,4ccfd0be6449a0938ac7c6cf,Wien Drei,48.206987803994544,16.38826549542149,4bf58dd8d48988d1c4941735,Restaurant
Vienna,Weißgerberviertel,48.2109115,16.3901908,5409fc33498edabfc901b48c,The Room,48.206521710200846,16.391405905150677,4bf58dd8d48988d1c4941735,Restaurant
Vienna,Weißgerberviertel,48.2109115,16.3901908,4e81a497722e51d270e89782,Hundertwasser Village,48.20762159194132,16.394005342026862,4bf58dd8d48988d128951735,Gift Shop
Vienna,Weißgerberviertel,48.2109115,16.3901908,4bb0b6f3f964a52001573ce3,BILLA,48.207372510851684,16.386991355548354,52f2ab2ebcbc57f1066b8b46,Supermarket
Vienna,Weißgerberviertel,48.2109115,16.3901908,4d3b5d8ed9a86a31bff806ab,Fälschermuseum | Museum of Fake Art,48.20777769352079,16.39344492161069,4bf58dd8d48988d18f941735,Art Museum
Vienna,Weißgerberviertel,48.2109115,16.3901908,4e7c6e13d22dd5545a1ac21d,Ströck,48.20762881900807,16.39368646363474,4bf58dd8d48988d16a941735,Bakery
Vienna,Weißgerberviertel,48.2109115,16.3901908,54e49eb7498e07cde7418273,Wienna,48.208426614794604,16.393263833538278,4bf58dd8d48988d1fa931735,Hotel
Vienna,Weißgerberviertel,48.2109115,16.3901908,4ca457231ee76dcb2bc000de,H Löwengasse,48.20813822500692,16.393842232173338,52f2ab2ebcbc57f1066b8b51,Tram Station
Vienna,Weißgerberviertel,48.2109115,16.3901908,530325d5498e30a617b41546,Ströck beim Hundertwasserhaus,48.2076215138773,16.393801187274008,4bf58dd8d48988d16a941735,Bakery
Vienna,Hungelbrunn,48.1876488,16.3659396,50862ef1e4b0cd2841844c40,denn's Biomarkt,48.18938410840119,16.365710324423784,52f2ab2ebcbc57f1066b8b45,Organic Grocery
Vienna,Hungelbrunn,48.1876488,16.3659396,4b7ec015f964a520c4fc2fe3,Rudi's Beisl,48.18745718192765,16.36412507217123,52e81612bcbc57f1066b7a01,Austrian Restaurant
Vienna,Hungelbrunn,48.1876488,16.3659396,4b7068d2f964a520a6182de3,Alois-Drasche-Park,48.186573,16.367714,4bf58dd8d48988d163941735,Park
Vienna,Hungelbrunn,48.1876488,16.3659396,4c0f39a915c2ef3bc5641b08,Palais Schönburg,48.188585631761626,16.36985421180725,52e81612bcbc57f1066b7a14,Palace
Vienna,Hungelbrunn,48.1876488,16.3659396,4e7dd8ded3e3294a67bfa303,Yogaloft Vienna,48.18932464670185,16.364849121040116,4bf58dd8d48988d102941735,Yoga Studio
Vienna,Hungelbrunn,48.1876488,16.3659396,4cc742923477b60c31e5746a,Sokrates,48.19072575363679,16.366562694370895,4bf58dd8d48988d10e941735,Greek Restaurant
Vienna,Hungelbrunn,48.1876488,16.3659396,5798efef498ed3a5cb52e15a,Dining Ruhm,48.19034,16.364798,52e81612bcbc57f1066b79f9,Modern European Restaurant
Vienna,Hungelbrunn,48.1876488,16.3659396,53d6919b498e87e251e1b15b,Mishi,48.188956157392205,16.36518166404975,4bf58dd8d48988d142941735,Asian Restaurant
Vienna,Hungelbrunn,48.1876488,16.3659396,4c110d81ce640f47f3e13a52,Gelateria Giardino,48.19163553332118,16.366808456049522,4bf58dd8d48988d1c9941735,Ice Cream Shop
Vienna,Hungelbrunn,48.1876488,16.3659396,4e970de9722eef174f5e0065,Wallner,48.190284,16.366063,50aa9e744b90af0d42d5de0e,Health Food Store
Vienna,Hungelbrunn,48.1876488,16.3659396,4cdc15b4a1bba35d785198e5,SPAR Gourmet,48.18888705601757,16.365542682249952,4bf58dd8d48988d118951735,Grocery Store
Vienna,Hungelbrunn,48.1876488,16.3659396,551d846b498e2d9b07141562,Duspara,48.18448434807615,16.361576340286028,52e81612bcbc57f1066b7a01,Austrian Restaurant
Vienna,Hungelbrunn,48.1876488,16.3659396,4f35192ae4b0b9c464c7a6c0,Wald/4tler Stubn,48.18686205657654,16.36401239596192,4bf58dd8d48988d1c4941735,Restaurant
Vienna,Hungelbrunn,48.1876488,16.3659396,4b6032bcf964a5208bd929e3,Koo,48.19040032837689,16.366238251953614,4bf58dd8d48988d142941735,Asian Restaurant
Vienna,Hungelbrunn,48.1876488,16.3659396,4b7d8805f964a520ddc42fe3,Tancredi,48.1914917130804,16.365593135632924,4bf58dd8d48988d147941735,Diner
Vienna,Hungelbrunn,48.1876488,16.3659396,4cb47a001168a093b1f54823,Steirerstuben,48.18484685506577,16.362107744716088,4bf58dd8d48988d1c4941735,Restaurant
Vienna,Hungelbrunn,48.1876488,16.3659396,519a7c80498e1b5149891c91,Restaurant Homolje Grill,48.185652462715375,16.36305489304149,4bf58dd8d48988d1df931735,BBQ Joint
Vienna,Hungelbrunn,48.1876488,16.3659396,4ed3b90bd3e3521ce9863fb5,Asian Pocket,48.18844244660993,16.364760990170144,4bf58dd8d48988d142941735,Asian Restaurant
Vienna,Hungelbrunn,48.1876488,16.3659396,4c94791772dd224b32759a91,Blumenwerkstatt Rath,48.19154058489431,16.366632429360173,4bf58dd8d48988d11b951735,Flower Shop
Vienna,Hungelbrunn,48.1876488,16.3659396,4bd9df843904a59339ff439e,Cafe Gitarre,48.18795453457066,16.37236510360198,4bf58dd8d48988d116941735,Bar
Vienna,Hungelbrunn,48.1876488,16.3659396,4bc6ec9392b376b0a2c34e3a,Café Wortner,48.19173550631814,16.36687180355832,4bf58dd8d48988d16d941735,Café
Vienna,Hungelbrunn,48.1876488,16.3659396,5399df2f498ea108fbfad4db,lima56,48.18898,16.37237,4eb1bfa43b7b52c0e1adc2e8,Peruvian Restaurant
Vienna,Hungelbrunn,48.1876488,16.3659396,4cb6dabbe262b60c00b671e0,Hofer,48.18685049486944,16.362557321236864,52f2ab2ebcbc57f1066b8b46,Supermarket
Vienna,Hungelbrunn,48.1876488,16.3659396,4b702499f964a520b2082de3,Carla Mittersteig - Caritas Wien,48.191433310632256,16.36289597122227,4bf58dd8d48988d101951735,Thrift / Vintage Store
Vienna,Hungelbrunn,48.1876488,16.3659396,4d8a05b699c2a1cdae3287d7,Suppan & Suppan Möbel & Interieur,48.190223200908285,16.362675214557072,4bf58dd8d48988d1f8941735,Furniture / Home Store
Vienna,Hungelbrunn,48.1876488,16.3659396,4c94d2ff58d4b60c73022c29,dm drogerie markt,48.18993556728516,16.36575117457187,5745c2e4498e11e7bccabdbd,Drugstore
Vienna,Hungelbrunn,48.1876488,16.3659396,4bbc7237e5b0d13a5c386f7c,Restaurant Ferdinand,48.18979529325961,16.363880151620602,52e81612bcbc57f1066b7a01,Austrian Restaurant
Vienna,Hungelbrunn,48.1876488,16.3659396,4cde6eeeaba88cfa9ebb41d7,Aida Café-Konditorei Wien,48.191470861826424,16.36660932305097,4bf58dd8d48988d16d941735,Café
Vienna,Hungelbrunn,48.1876488,16.3659396,4cb81333f50e224bc9d0e3fb,FITINN Fitnessstudio,48.18738615704239,16.363495782949663,4bf58dd8d48988d175941735,Gym / Fitness Center
Vienna,Hungelbrunn,48.1876488,16.3659396,4d6146d7b19fa143492800c9,Tanti Saluti,48.187664760000004,16.36585576,4bf58dd8d48988d1ca941735,Pizza Place
Vienna,Hungelbrunn,48.1876488,16.3659396,4c1b977bb9f876b08f737a46,EUROSPAR,48.1872877,16.3595307,52f2ab2ebcbc57f1066b8b46,Supermarket
Vienna,Hungelbrunn,48.1876488,16.3659396,4c53fb44a724e21eb0fda1f5,Galerie Wieden,48.18937169597106,16.365650252850543,4bf58dd8d48988d1fd941735,Shopping Mall
Vienna,Hungelbrunn,48.1876488,16.3659396,4d1482d26c8b54818f5ad7cc,BILLA,48.18754,16.36874,52f2ab2ebcbc57f1066b8b46,Supermarket
Vienna,Hungelbrunn,48.1876488,16.3659396,533597f3498e935381df9147,kebap a la carte,48.186334260680816,16.363237414502677,4bf58dd8d48988d16e941735,Fast Food Restaurant
Vienna,Hungelbrunn,48.1876488,16.3659396,4e3176d088775a302cf5b837,Johann Strauß Apotheke,48.18666967924436,16.36909432845154,4bf58dd8d48988d10f951735,Pharmacy
Vienna,Hungelbrunn,48.1876488,16.3659396,512bcc33e4b066f6b72e8074,Taubstummengasse,48.1891289470334,16.371161169806268,4bf58dd8d48988d1fc931735,Light Rail Station
Vienna,Hungelbrunn,48.1876488,16.3659396,4e2d7c16a809f1b16424856b,Margarete-Schütte-Lihotsky-Park,48.189901713654535,16.36116921901703,4bf58dd8d48988d163941735,Park
Vienna,Hungelbrunn,48.1876488,16.3659396,4bab091cf964a520ab923ae3,H Blechturmgasse,48.18359021191712,16.366191784556946,52f2ab2ebcbc57f1066b8b51,Tram Station
Vienna,Hungelbrunn,48.1876488,16.3659396,4e50b9e0c65bb313ba98df12,USTRAB Kliebergasse,48.183524994587714,16.366124244867574,4bf58dd8d48988d1fc931735,Light Rail Station
Vienna,Schaumburgergrund,48.189035600000004,16.3682893,50862ef1e4b0cd2841844c40,denn's Biomarkt,48.18938410840119,16.365710324423784,52f2ab2ebcbc57f1066b8b45,Organic Grocery
Vienna,Schaumburgergrund,48.189035600000004,16.3682893,4c0f39a915c2ef3bc5641b08,Palais Schönburg,48.188585631761626,16.36985421180725,52e81612bcbc57f1066b7a14,Palace
Vienna,Schaumburgergrund,48.189035600000004,16.3682893,4cc742923477b60c31e5746a,Sokrates,48.19072575363679,16.366562694370895,4bf58dd8d48988d10e941735,Greek Restaurant
Vienna,Schaumburgergrund,48.189035600000004,16.3682893,4c110d81ce640f47f3e13a52,Gelateria Giardino,48.19163553332118,16.366808456049522,4bf58dd8d48988d1c9941735,Ice Cream Shop
Vienna,Schaumburgergrund,48.189035600000004,16.3682893,4c7e32cf8da18cfa5c73a1ce,Opocensky Edelgreisslerei,48.19015033786398,16.372120638073532,4bf58dd8d48988d1f5941735,Gourmet Shop
Vienna,Schaumburgergrund,48.189035600000004,16.3682893,4b7068d2f964a520a6182de3,Alois-Drasche-Park,48.186573,16.367714,4bf58dd8d48988d163941735,Park
Vienna,Schaumburgergrund,48.189035600000004,16.3682893,5798efef498ed3a5cb52e15a,Dining Ruhm,48.19034,16.364798,52e81612bcbc57f1066b79f9,Modern European Restaurant
Vienna,Schaumburgergrund,48.189035600000004,16.3682893,4b7ec015f964a520c4fc2fe3,Rudi's Beisl,48.18745718192765,16.36412507217123,52e81612bcbc57f1066b7a01,Austrian Restaurant
Vienna,Schaumburgergrund,48.189035600000004,16.3682893,4e970de9722eef174f5e0065,Wallner,48.190284,16.366063,50aa9e744b90af0d42d5de0e,Health Food Store
Vienna,Schaumburgergrund,48.189035600000004,16.3682893,4e7dd8ded3e3294a67bfa303,Yogaloft Vienna,48.18932464670185,16.364849121040116,4bf58dd8d48988d102941735,Yoga Studio
Vienna,Schaumburgergrund,48.189035600000004,16.3682893,53d6919b498e87e251e1b15b,Mishi,48.188956157392205,16.36518166404975,4bf58dd8d48988d142941735,Asian Restaurant
Vienna,Schaumburgergrund,48.189035600000004,16.3682893,4b714c91f964a5200b402de3,Sebastiano,48.19231596070676,16.36738437274083,4bf58dd8d48988d1c0941735,Mediterranean Restaurant
Vienna,Schaumburgergrund,48.189035600000004,16.3682893,4b6032bcf964a5208bd929e3,Koo,48.19040032837689,16.366238251953614,4bf58dd8d48988d142941735,Asian Restaurant
Vienna,Schaumburgergrund,48.189035600000004,16.3682893,543788c6498e1b6b7d31a9d3,15 süße Minuten,48.187662044358156,16.373341605800967,4bf58dd8d48988d16a941735,Bakery
Vienna,Schaumburgergrund,48.189035600000004,16.3682893,4cdc15b4a1bba35d785198e5,SPAR Gourmet,48.18888705601757,16.365542682249952,4bf58dd8d48988d118951735,Grocery Store
Vienna,Schaumburgergrund,48.189035600000004,16.3682893,4b7d8805f964a520ddc42fe3,Tancredi,48.1914917130804,16.365593135632924,4bf58dd8d48988d147941735,Diner
Vienna,Schaumburgergrund,48.189035600000004,16.3682893,4c24e809f1272d7fe8d383c5,Entler,48.19338336592414,16.367601620221787,4bf58dd8d48988d1c4941735,Restaurant
Vienna,Schaumburgergrund,48.189035600000004,16.3682893,4d20ea486e8c3704a3e5fd9f,Austria Trend Hotel Beim Theresianium,48.189351263238166,16.37225322006322,4bf58dd8d48988d1fa931735,Hotel
Vienna,Schaumburgergrund,48.189035600000004,16.3682893,54b8fd35498e8cea01e786fc,Das Lokal im Hof,48.18862963419264,16.373887135550213,4bf58dd8d48988d1c4941735,Restaurant
Vienna,Schaumburgergrund,48.189035600000004,16.3682893,4b46e674f964a520672926e3,Corto e Nero,48.193015704021455,16.367073252785694,4bf58dd8d48988d16d941735,Café
Vienna,Schaumburgergrund,48.189035600000004,16.3682893,5399df2f498ea108fbfad4db,lima56,48.18898,16.37237,4eb1bfa43b7b52c0e1adc2e8,Peruvian Restaurant
Vienna,Schaumburgergrund,48.189035600000004,16.3682893,4bd9df843904a59339ff439e,Cafe Gitarre,48.18795453457066,16.37236510360198,4bf58dd8d48988d116941735,Bar
Vienna,Schaumburgergrund,48.189035600000004,16.3682893,4c94791772dd224b32759a91,Blumenwerkstatt Rath,48.19154058489431,16.366632429360173,4bf58dd8d48988d11b951735,Flower Shop
Vienna,Schaumburgergrund,48.189035600000004,16.3682893,4bc6ec9392b376b0a2c34e3a,Café Wortner,48.19173550631814,16.36687180355832,4bf58dd8d48988d16d941735,Café
Vienna,Schaumburgergrund,48.189035600000004,16.3682893,4c1b86a6624b9c74249f1204,HANGLOOSE Boardsports Store,48.19295725827117,16.370625532273447,4bf58dd8d48988d1f2941735,Sporting Goods Shop
Vienna,Schaumburgergrund,48.189035600000004,16.3682893,4b968d39f964a52010d434e3,Fladerei Mittersteig,48.192375907611016,16.36390230861906,52e81612bcbc57f1066b7a01,Austrian Restaurant
Vienna,Schaumburgergrund,48.189035600000004,16.3682893,4d75d347b8e28cfa0fc7fd66,Hofer,48.18931652951467,16.372645016268507,52f2ab2ebcbc57f1066b8b46,Supermarket
Vienna,Schaumburgergrund,48.189035600000004,16.3682893,4f35192ae4b0b9c464c7a6c0,Wald/4tler Stubn,48.18686205657654,16.36401239596192,4bf58dd8d48988d1c4941735,Restaurant
Vienna,Schaumburgergrund,48.189035600000004,16.3682893,4ed3b90bd3e3521ce9863fb5,Asian Pocket,48.18844244660993,16.364760990170144,4bf58dd8d48988d142941735,Asian Restaurant
Vienna,Schaumburgergrund,48.189035600000004,16.3682893,5a7b6ee48194fc36a44b557e,Do Step Inn Central,48.18667005574818,16.373390839989494,4bf58dd8d48988d1ee931735,Hostel
Vienna,Schaumburgergrund,48.189035600000004,16.3682893,52209c1c11d2ef1bc85feb0c,SPAR,48.190488144797875,16.37194421829531,52f2ab2ebcbc57f1066b8b46,Supermarket
Vienna,Schaumburgergrund,48.189035600000004,16.3682893,4cde6eeeaba88cfa9ebb41d7,Aida Café-Konditorei Wien,48.191470861826424,16.36660932305097,4bf58dd8d48988d16d941735,Café
Vienna,Schaumburgergrund,48.189035600000004,16.3682893,4c94d2ff58d4b60c73022c29,dm drogerie markt,48.18993556728516,16.36575117457187,5745c2e4498e11e7bccabdbd,Drugstore
Vienna,Schaumburgergrund,48.189035600000004,16.3682893,4b702499f964a520b2082de3,Carla Mittersteig - Caritas Wien,48.191433310632256,16.36289597122227,4bf58dd8d48988d101951735,Thrift / Vintage Store
Vienna,Schaumburgergrund,48.189035600000004,16.3682893,4bbc7237e5b0d13a5c386f7c,Restaurant Ferdinand,48.18979529325961,16.363880151620602,52e81612bcbc57f1066b7a01,Austrian Restaurant
Vienna,Schaumburgergrund,48.189035600000004,16.3682893,4d8a05b699c2a1cdae3287d7,Suppan & Suppan Möbel & Interieur,48.190223200908285,16.362675214557072,4bf58dd8d48988d1f8941735,Furniture / Home Store
Vienna,Schaumburgergrund,48.189035600000004,16.3682893,4cac59d736fa6dcbc77bdd78,SPAR,48.19231566962594,16.368449154637233,52f2ab2ebcbc57f1066b8b46,Supermarket
Vienna,Schaumburgergrund,48.189035600000004,16.3682893,4d7687a71d7ab1f754488cfb,Cafe Frey,48.19027604580429,16.371833903466047,4bf58dd8d48988d16d941735,Café
Vienna,Schaumburgergrund,48.189035600000004,16.3682893,4cb6dabbe262b60c00b671e0,Hofer,48.18685049486944,16.362557321236864,52f2ab2ebcbc57f1066b8b46,Supermarket
Vienna,Schaumburgergrund,48.189035600000004,16.3682893,56a519c0498ee12538c1d566,le bakery,48.18762,16.373577,4bf58dd8d48988d16a941735,Bakery
Vienna,Schaumburgergrund,48.189035600000004,16.3682893,4cb81333f50e224bc9d0e3fb,FITINN Fitnessstudio,48.18738615704239,16.363495782949663,4bf58dd8d48988d175941735,Gym / Fitness Center
Vienna,Schaumburgergrund,48.189035600000004,16.3682893,4d6146d7b19fa143492800c9,Tanti Saluti,48.187664760000004,16.36585576,4bf58dd8d48988d1ca941735,Pizza Place
Vienna,Schaumburgergrund,48.189035600000004,16.3682893,4d773a0078d5a0933aa27c72,Südtiroler Platz,48.186547068633125,16.373448371887207,4bf58dd8d48988d164941735,Plaza
Vienna,Schaumburgergrund,48.189035600000004,16.3682893,4c53fb44a724e21eb0fda1f5,Galerie Wieden,48.18937169597106,16.365650252850543,4bf58dd8d48988d1fd941735,Shopping Mall
Vienna,Schaumburgergrund,48.189035600000004,16.3682893,4d1482d26c8b54818f5ad7cc,BILLA,48.18754,16.36874,52f2ab2ebcbc57f1066b8b46,Supermarket
Vienna,Schaumburgergrund,48.189035600000004,16.3682893,512bcc33e4b066f6b72e8074,Taubstummengasse,48.1891289470334,16.371161169806268,4bf58dd8d48988d1fc931735,Light Rail Station
Vienna,Schaumburgergrund,48.189035600000004,16.3682893,4e3176d088775a302cf5b837,Johann Strauß Apotheke,48.18666967924436,16.36909432845154,4bf58dd8d48988d10f951735,Pharmacy
Vienna,Schaumburgergrund,48.189035600000004,16.3682893,4dde9e8b1838779139a24395,Schnitzelcenter,48.18955662748923,16.372106550974067,4d4b7105d754a06374d81259,Food
Vienna,Schaumburgergrund,48.189035600000004,16.3682893,4c5876956418a593fabb810e,Pizzeria La Favorita,48.18891945519582,16.372497363485238,4bf58dd8d48988d1ca941735,Pizza Place
Vienna,Schaumburgergrund,48.189035600000004,16.3682893,4c46ee0a417b20a1d9e7dba9,ShinJu,48.18874539744878,16.372713778394168,4bf58dd8d48988d142941735,Asian Restaurant
Vienna,Schaumburgergrund,48.189035600000004,16.3682893,4d8de4fc3bfef04daea38a86,BIPA,48.188055095414754,16.372808606585842,4bf58dd8d48988d10c951735,Cosmetics Shop
Vienna,Schaumburgergrund,48.189035600000004,16.3682893,576e72a0498e628230be3298,Grace,48.19218510707143,16.369494795799255,4bf58dd8d48988d1c4941735,Restaurant
Vienna,Schaumburgergrund,48.189035600000004,16.3682893,4ca5c15144a8224b2952fc3f,Gasthaus Engelhart,48.189940540599395,16.37345160118243,4bf58dd8d48988d1c4941735,Restaurant
Vienna,Schaumburgergrund,48.189035600000004,16.3682893,57b4454d498ec361b6a3b938,Eissalon Salek,48.187763,16.373475,4bf58dd8d48988d1c9941735,Ice Cream Shop
Vienna,Schaumburgergrund,48.189035600000004,16.3682893,533597f3498e935381df9147,kebap a la carte,48.186334260680816,16.363237414502677,4bf58dd8d48988d16e941735,Fast Food Restaurant
Vienna,Wieden,48.19231435,16.371367094176243,4c7e32cf8da18cfa5c73a1ce,Opocensky Edelgreisslerei,48.19015033786398,16.372120638073532,4bf58dd8d48988d1f5941735,Gourmet Shop
Vienna,Wieden,48.19231435,16.371367094176243,4c110d81ce640f47f3e13a52,Gelateria Giardino,48.19163553332118,16.366808456049522,4bf58dd8d48988d1c9941735,Ice Cream Shop
Vienna,Wieden,48.19231435,16.371367094176243,4b058898f964a52086cf22e3,ORF Funkhaus / Radiokulturhaus,48.19467642057849,16.372525464195004,5032856091d4c4b30a586d63,Radio Station
Vienna,Wieden,48.19231435,16.371367094176243,4c24e809f1272d7fe8d383c5,Entler,48.19338336592414,16.367601620221787,4bf58dd8d48988d1c4941735,Restaurant
Vienna,Wieden,48.19231435,16.371367094176243,4fde27b0e4b090d3f657a5c2,Suite Hotel 900m,48.19351723017524,16.367123365384078,4bf58dd8d48988d1fa931735,Hotel
Vienna,Wieden,48.19231435,16.371367094176243,4c1b86a6624b9c74249f1204,HANGLOOSE Boardsports Store,48.19295725827117,16.370625532273447,4bf58dd8d48988d1f2941735,Sporting Goods Shop
Vienna,Wieden,48.19231435,16.371367094176243,4b714c91f964a5200b402de3,Sebastiano,48.19231596070676,16.36738437274083,4bf58dd8d48988d1c0941735,Mediterranean Restaurant
Vienna,Wieden,48.19231435,16.371367094176243,4c0f39a915c2ef3bc5641b08,Palais Schönburg,48.188585631761626,16.36985421180725,52e81612bcbc57f1066b7a14,Palace
Vienna,Wieden,48.19231435,16.371367094176243,4cc742923477b60c31e5746a,Sokrates,48.19072575363679,16.366562694370895,4bf58dd8d48988d10e941735,Greek Restaurant
Vienna,Wieden,48.19231435,16.371367094176243,4b058895f964a52004cf22e3,Artner auf der Wieden,48.19472666986352,16.36841307397372,4bf58dd8d48988d1c4941735,Restaurant
Vienna,Wieden,48.19231435,16.371367094176243,4b46e674f964a520672926e3,Corto e Nero,48.193015704021455,16.367073252785694,4bf58dd8d48988d16d941735,Café
Vienna,Wieden,48.19231435,16.371367094176243,53f85c9c498e7b0959970e41,Allergiker Café,48.19463235852849,16.36709225295849,4c2cd86ed066bed06c3c5209,Gluten-free Restaurant
Vienna,Wieden,48.19231435,16.371367094176243,4d9991b2e07ea35d97380b03,Kaffeefabrik,48.195904,16.368565,4bf58dd8d48988d1e0931735,Coffee Shop
Vienna,Wieden,48.19231435,16.371367094176243,4c0e1e8f7189c928c3ecd7b6,Chang,48.194729,16.366717,4bf58dd8d48988d142941735,Asian Restaurant
Vienna,Wieden,48.19231435,16.371367094176243,4bbb67f098c7ef3b051a3402,PAKAT SUITES Hotel,48.191781652728096,16.376956489127096,4bf58dd8d48988d1fa931735,Hotel
Vienna,Wieden,48.19231435,16.371367094176243,52653b3411d230d50d026693,Santos Wieden | Mexican Grill & Bar,48.195756,16.368777,4bf58dd8d48988d1c1941735,Mexican Restaurant
Vienna,Wieden,48.19231435,16.371367094176243,58d00d63084be50860dffc4b,Sha Guo,48.194219,16.367629,4bf58dd8d48988d142941735,Asian Restaurant
Vienna,Wieden,48.19231435,16.371367094176243,4be2adea21d5a5934efe1611,salon wichtig,48.19663157321895,16.369761934757868,4bf58dd8d48988d149941735,Thai Restaurant
Vienna,Wieden,48.19231435,16.371367094176243,4b058897f964a5206ccf22e3,Theater Akzent,48.192500958906066,16.374680326065523,4bf58dd8d48988d137941735,Theater
Vienna,Wieden,48.19231435,16.371367094176243,54b8fd35498e8cea01e786fc,Das Lokal im Hof,48.18862963419264,16.373887135550213,4bf58dd8d48988d1c4941735,Restaurant
Vienna,Wieden,48.19231435,16.371367094176243,4d20ea486e8c3704a3e5fd9f,Austria Trend Hotel Beim Theresianium,48.189351263238166,16.37225322006322,4bf58dd8d48988d1fa931735,Hotel
Vienna,Wieden,48.19231435,16.371367094176243,4bcc5eb8aeaaeee166f13d6d,Schick Hotel Erzherzog Rainer,48.1952138781801,16.367323223548087,4bf58dd8d48988d1fa931735,Hotel
Vienna,Wieden,48.19231435,16.371367094176243,4b7d8805f964a520ddc42fe3,Tancredi,48.1914917130804,16.365593135632924,4bf58dd8d48988d147941735,Diner
Vienna,Wieden,48.19231435,16.371367094176243,4af2b070f964a5203ee821e3,BOK,48.19556900418336,16.369041100054627,4bf58dd8d48988d142941735,Asian Restaurant
Vienna,Wieden,48.19231435,16.371367094176243,4b6d6038f964a520a5732ce3,Cafe Goldegg,48.189654,16.376129,4bf58dd8d48988d16d941735,Café
Vienna,Wieden,48.19231435,16.371367094176243,51d468ed498e009c2a956379,Zur Herknerin,48.195073036533124,16.36712255621056,52e81612bcbc57f1066b7a01,Austrian Restaurant
Vienna,Wieden,48.19231435,16.371367094176243,4e970de9722eef174f5e0065,Wallner,48.190284,16.366063,50aa9e744b90af0d42d5de0e,Health Food Store
Vienna,Wieden,48.19231435,16.371367094176243,4bdf0de7e75c0f47a0bec903,Wiener Wiaz'Haus,48.19657211485871,16.369694143218748,4bf58dd8d48988d155941735,Gastropub
Vienna,Wieden,48.19231435,16.371367094176243,4c94791772dd224b32759a91,Blumenwerkstatt Rath,48.19154058489431,16.366632429360173,4bf58dd8d48988d11b951735,Flower Shop
Vienna,Wieden,48.19231435,16.371367094176243,4def4666ae609ae4fa43ea1a,BILLA,48.1941218,16.3763715,52f2ab2ebcbc57f1066b8b46,Supermarket
Vienna,Wieden,48.19231435,16.371367094176243,4bc096f174a9a5937a3cd0f6,RadioCafé,48.19454527381202,16.373351815425206,4bf58dd8d48988d16d941735,Café
Vienna,Wieden,48.19231435,16.371367094176243,4bc6ec9392b376b0a2c34e3a,Café Wortner,48.19173550631814,16.36687180355832,4bf58dd8d48988d16d941735,Café
Vienna,Wieden,48.19231435,16.371367094176243,5399df2f498ea108fbfad4db,lima56,48.18898,16.37237,4eb1bfa43b7b52c0e1adc2e8,Peruvian Restaurant
Vienna,Wieden,48.19231435,16.371367094176243,4b6032bcf964a5208bd929e3,Koo,48.19040032837689,16.366238251953614,4bf58dd8d48988d142941735,Asian Restaurant
Vienna,Wieden,48.19231435,16.371367094176243,52209c1c11d2ef1bc85feb0c,SPAR,48.190488144797875,16.37194421829531,52f2ab2ebcbc57f1066b8b46,Supermarket
Vienna,Wieden,48.19231435,16.371367094176243,4d75d347b8e28cfa0fc7fd66,Hofer,48.18931652951467,16.372645016268507,52f2ab2ebcbc57f1066b8b46,Supermarket
Vienna,Wieden,48.19231435,16.371367094176243,4bcc8afd3740b7139b2f6465,Ristorante Caso Alberto,48.19618696597519,16.372504991314,4bf58dd8d48988d110941735,Italian Restaurant
Vienna,Wieden,48.19231435,16.371367094176243,4bd9df843904a59339ff439e,Cafe Gitarre,48.18795453457066,16.37236510360198,4bf58dd8d48988d116941735,Bar
Vienna,Wieden,48.19231435,16.371367094176243,4eece309a69d8afe6a4dfcaf,Sankt-Elisabeth-Platz,48.190727040186665,16.375312268932525,4bf58dd8d48988d164941735,Plaza
Vienna,Wieden,48.19231435,16.371367094176243,4c8e7935d2aea09318bbce69,Demi Tass,48.19400106102635,16.37745023028059,4bf58dd8d48988d10f941735,Indian Restaurant
Vienna,Wieden,48.19231435,16.371367094176243,568a617838fa80c61380ff09,Guerilla Bakery - Kaffeehaus.Greisslerei,48.19551336508846,16.369506173034775,4bf58dd8d48988d16d941735,Café
Vienna,Wieden,48.19231435,16.371367094176243,4cac59d736fa6dcbc77bdd78,SPAR,48.19231566962594,16.368449154637233,52f2ab2ebcbc57f1066b8b46,Supermarket
Vienna,Wieden,48.19231435,16.371367094176243,4cde6eeeaba88cfa9ebb41d7,Aida Café-Konditorei Wien,48.191470861826424,16.36660932305097,4bf58dd8d48988d16d941735,Café
Vienna,Wieden,48.19231435,16.371367094176243,4d7687a71d7ab1f754488cfb,Cafe Frey,48.19027604580429,16.371833903466047,4bf58dd8d48988d16d941735,Café
Vienna,Wieden,48.19231435,16.371367094176243,4b60ab8ef964a5203df329e3,Wieden Bräu,48.194861,16.366366,50327c8591d4c4b30a586d5d,Brewery
Vienna,Wieden,48.19231435,16.371367094176243,4b05888ff964a5208ccd22e3,Hotel Papageno,48.1955362654656,16.367532743710303,4bf58dd8d48988d1fa931735,Hotel
Vienna,Wieden,48.19231435,16.371367094176243,4b8bfe7af964a52017b732e3,Wiener Wirtschaft - Restaurant im Hotel Erzherzog Rainer,48.19520630612201,16.3671840657568,4bf58dd8d48988d1c4941735,Restaurant
Vienna,Wieden,48.19231435,16.371367094176243,4c7908dd3badb1f7d48f4d54,SPAR Gourmet,48.18939811242071,16.375922544321725,52f2ab2ebcbc57f1066b8b46,Supermarket
Vienna,Wieden,48.19231435,16.371367094176243,4b05888ff964a52098cd22e3,Hotel Johann Strauss ****,48.1949772446464,16.369492061208735,4bf58dd8d48988d1fa931735,Hotel
Vienna,Wieden,48.19231435,16.371367094176243,4c94d2ff58d4b60c73022c29,dm drogerie markt,48.18993556728516,16.36575117457187,5745c2e4498e11e7bccabdbd,Drugstore
Vienna,Wieden,48.19231435,16.371367094176243,4bcf1b5d0ffdce72703eb2c0,Clima Cityhotel Vienna,48.191536124119494,16.374411815874847,4bf58dd8d48988d1fa931735,Hotel
Vienna,Wieden,48.19231435,16.371367094176243,4d87655281fdb1f75cae37c0,Friendly House,48.19361061969823,16.367170297468558,4bf58dd8d48988d1fe941735,Music Store
Vienna,Wieden,48.19231435,16.371367094176243,4dde9e8b1838779139a24395,Schnitzelcenter,48.18955662748923,16.372106550974067,4d4b7105d754a06374d81259,Food
Vienna,Wieden,48.19231435,16.371367094176243,512bcc33e4b066f6b72e8074,Taubstummengasse,48.1891289470334,16.371161169806268,4bf58dd8d48988d1fc931735,Light Rail Station
Vienna,Wieden,48.19231435,16.371367094176243,4c5876956418a593fabb810e,Pizzeria La Favorita,48.18891945519582,16.372497363485238,4bf58dd8d48988d1ca941735,Pizza Place
Vienna,Wieden,48.19231435,16.371367094176243,4dac2b658154abafc2d12d26,Mozartplatz,48.195233719396846,16.36822614048093,4bf58dd8d48988d164941735,Plaza
Vienna,Wieden,48.19231435,16.371367094176243,4c46ee0a417b20a1d9e7dba9,ShinJu,48.18874539744878,16.372713778394168,4bf58dd8d48988d142941735,Asian Restaurant
Vienna,Wieden,48.19231435,16.371367094176243,4d8de4fc3bfef04daea38a86,BIPA,48.188055095414754,16.372808606585842,4bf58dd8d48988d10c951735,Cosmetics Shop
Vienna,Hundsturm,48.1869295,16.3470949,5237707311d2799b0ab13650,Falkensteiner Hotel & Residence,48.187046240508394,16.344323520364675,4bf58dd8d48988d1fa931735,Hotel
Vienna,Hundsturm,48.1869295,16.3470949,573765b6498ed9e514a470f9,stephan die gastwirtschaft,48.188749,16.348722,52e81612bcbc57f1066b7a01,Austrian Restaurant
Vienna,Hundsturm,48.1869295,16.3470949,4baf7020f964a520d1ff3be3,Rupp's,48.18469344796217,16.347557989908733,4bf58dd8d48988d11b941735,Pub
Vienna,Hundsturm,48.1869295,16.3470949,588ce211f5bfab372c902760,Xin Chào,48.190556,16.344501,4bf58dd8d48988d14a941735,Vietnamese Restaurant
Vienna,Hundsturm,48.1869295,16.3470949,4c5db9b89b28d13a076f5a70,Senhor Vinho,48.187310784849124,16.353561343461788,4def73e84765ae376e57713a,Portuguese Restaurant
Vienna,Hundsturm,48.1869295,16.3470949,51dda680498e84448f600461,Pizzeria Disco Volante,48.19132429513201,16.347587181444588,4bf58dd8d48988d1ca941735,Pizza Place
Vienna,Hundsturm,48.1869295,16.3470949,4b571343f964a520662528e3,BILLA,48.18856077150452,16.34773405018713,52f2ab2ebcbc57f1066b8b46,Supermarket
Vienna,Hundsturm,48.1869295,16.3470949,4b668d81f964a5200b242be3,Bruno-Kreisky-Park,48.18810015429603,16.343717037155518,4bf58dd8d48988d163941735,Park
Vienna,Hundsturm,48.1869295,16.3470949,4bac5f7df964a52051f23ae3,H Margaretengürtel,48.1883380978783,16.341782355146538,52f2ab2ebcbc57f1066b8b51,Tram Station
Vienna,Hundsturm,48.1869295,16.3470949,4c690bd98d22c928002eb645,Am Hundsturm,48.18796227184893,16.34568376841722,4bf58dd8d48988d164941735,Plaza
Vienna,Hundsturm,48.1869295,16.3470949,5127787fe4b07724f9a7dd59,Mimoza,48.185452673285724,16.353397831057574,4bf58dd8d48988d115941735,Middle Eastern Restaurant
Vienna,Hundsturm,48.1869295,16.3470949,4bc8e6cf762beee17eab3d38,Cryston Hotel Vienna,48.18775808384129,16.3413748769134,4bf58dd8d48988d1fa931735,Hotel
Vienna,Hundsturm,48.1869295,16.3470949,4d21cdd12eb1f04dff08fbc1,Vietnam Bistro,48.189547565955856,16.35213134377913,4bf58dd8d48988d14a941735,Vietnamese Restaurant
Vienna,Hundsturm,48.1869295,16.3470949,4fd3995b0cd684d74fdaf7a2,Queens Apartments,48.18786671874693,16.347003873380864,4bf58dd8d48988d1fa931735,Hotel
Vienna,Hundsturm,48.1869295,16.3470949,4bb8e2e8314e9521c4e2489d,ibis Wien City,48.18894792230042,16.34950865893643,4bf58dd8d48988d1fa931735,Hotel
Vienna,Hundsturm,48.1869295,16.3470949,4f5bacb7e4b0c4b688ffddc9,Beyzade Shisha,48.18388217875376,16.345263864057923,4bf58dd8d48988d119941735,Hookah Bar
Vienna,Hundsturm,48.1869295,16.3470949,4be6eef3cf200f47a905153c,La Gondola,48.18964215129951,16.35237801970138,4bf58dd8d48988d110941735,Italian Restaurant
Vienna,Hundsturm,48.1869295,16.3470949,51f38a1c498e1493873cff49,Ströck,48.188800725066315,16.351609208902005,4bf58dd8d48988d16a941735,Bakery
Vienna,Hundsturm,48.1869295,16.3470949,4bf658c3bfeac928a6269436,Hofer,48.188911595077094,16.352544781620963,52f2ab2ebcbc57f1066b8b46,Supermarket
Vienna,Hundsturm,48.1869295,16.3470949,4bb199cdf964a520919b3ce3,H Arbeitergasse / Margaretengürtel,48.18438345234254,16.345661011898294,52f2ab2ebcbc57f1066b8b51,Tram Station
Vienna,Hundsturm,48.1869295,16.3470949,4b50c786f964a5201d3227e3,Colombo Hoppers,48.18970693106047,16.350754501185783,4bf58dd8d48988d10f941735,Indian Restaurant
Vienna,Hundsturm,48.1869295,16.3470949,4c264f28136d20a10e1de561,La Sette Fontane,48.18545604364516,16.353436025276924,4bf58dd8d48988d1c9941735,Ice Cream Shop
Vienna,Laurenzergrund,48.1849105,16.3630223,551d846b498e2d9b07141562,Duspara,48.18448434807615,16.361576340286028,52e81612bcbc57f1066b7a01,Austrian Restaurant
Vienna,Laurenzergrund,48.1849105,16.3630223,4b7ec015f964a520c4fc2fe3,Rudi's Beisl,48.18745718192765,16.36412507217123,52e81612bcbc57f1066b7a01,Austrian Restaurant
Vienna,Laurenzergrund,48.1849105,16.3630223,4cee4887ed62721e21c25afd,Ammersin Getränkeshop Margareten,48.18337862734759,16.36023720954222,4bf58dd8d48988d186941735,Liquor Store
Vienna,Laurenzergrund,48.1849105,16.3630223,4cb47a001168a093b1f54823,Steirerstuben,48.18484685506577,16.362107744716088,4bf58dd8d48988d1c4941735,Restaurant
Vienna,Laurenzergrund,48.1849105,16.3630223,4b7068d2f964a520a6182de3,Alois-Drasche-Park,48.186573,16.367714,4bf58dd8d48988d163941735,Park
Vienna,Laurenzergrund,48.1849105,16.3630223,53dcaa5b498e43c1f962e2fa,Omnom Burger,48.18327677853808,16.36037708120095,4bf58dd8d48988d16c941735,Burger Joint
Vienna,Laurenzergrund,48.1849105,16.3630223,4f35192ae4b0b9c464c7a6c0,Wald/4tler Stubn,48.18686205657654,16.36401239596192,4bf58dd8d48988d1c4941735,Restaurant
Vienna,Laurenzergrund,48.1849105,16.3630223,519a7c80498e1b5149891c91,Restaurant Homolje Grill,48.185652462715375,16.36305489304149,4bf58dd8d48988d1df931735,BBQ Joint
Vienna,Laurenzergrund,48.1849105,16.3630223,53d6919b498e87e251e1b15b,Mishi,48.188956157392205,16.36518166404975,4bf58dd8d48988d142941735,Asian Restaurant
Vienna,Laurenzergrund,48.1849105,16.3630223,4cdc15b4a1bba35d785198e5,SPAR Gourmet,48.18888705601757,16.365542682249952,4bf58dd8d48988d118951735,Grocery Store
Vienna,Laurenzergrund,48.1849105,16.3630223,4cb6dabbe262b60c00b671e0,Hofer,48.18685049486944,16.362557321236864,52f2ab2ebcbc57f1066b8b46,Supermarket
Vienna,Laurenzergrund,48.1849105,16.3630223,4cf134741d18a1439da551ec,BILLA,48.18317205906962,16.36414256001585,52f2ab2ebcbc57f1066b8b46,Supermarket
Vienna,Laurenzergrund,48.1849105,16.3630223,4ed3b90bd3e3521ce9863fb5,Asian Pocket,48.18844244660993,16.364760990170144,4bf58dd8d48988d142941735,Asian Restaurant
Vienna,Laurenzergrund,48.1849105,16.3630223,4bab091cf964a520ab923ae3,H Blechturmgasse,48.18359021191712,16.366191784556946,52f2ab2ebcbc57f1066b8b51,Tram Station
Vienna,Laurenzergrund,48.1849105,16.3630223,4e50b9e0c65bb313ba98df12,USTRAB Kliebergasse,48.183524994587714,16.366124244867574,4bf58dd8d48988d1fc931735,Light Rail Station
Vienna,Laurenzergrund,48.1849105,16.3630223,50615c78e4b0c4f8db86fd5c,Waldmüllerpark,48.18064404292802,16.364691795894355,4bf58dd8d48988d163941735,Park
Vienna,Laurenzergrund,48.1849105,16.3630223,4e3176d088775a302cf5b837,Johann Strauß Apotheke,48.18666967924436,16.36909432845154,4bf58dd8d48988d10f951735,Pharmacy
Vienna,Margareten,48.18807345,16.35338607721009,4bf034431f17ef3bbfbe9bc8,Woracziczky Gasthaus,48.189187366075984,16.353057580496237,52e81612bcbc57f1066b7a01,Austrian Restaurant
Vienna,Margareten,48.18807345,16.35338607721009,4c5db9b89b28d13a076f5a70,Senhor Vinho,48.187310784849124,16.353561343461788,4def73e84765ae376e57713a,Portuguese Restaurant
Vienna,Margareten,48.18807345,16.35338607721009,53adcb90498e4de5ea72bf17,Gerstäcker Wien GmbH,48.18868968829032,16.354263621969533,4bf58dd8d48988d127951735,Arts & Crafts Store
Vienna,Margareten,48.18807345,16.35338607721009,4fc8b88ce4b08eb1f5800a83,Nam-Nam Deli,48.18680266945639,16.353955372945002,4bf58dd8d48988d10f941735,Indian Restaurant
Vienna,Margareten,48.18807345,16.35338607721009,4e1b67c41495517ce51b163a,pentahotel Vienna,48.1899725236352,16.35678380727768,4bf58dd8d48988d1fa931735,Hotel
Vienna,Margareten,48.18807345,16.35338607721009,55e5e32a498ef60f1b00abc6,Wiental Terrasse,48.190716006849826,16.352648991701255,52e81612bcbc57f1066b7a25,Pedestrian Plaza
Vienna,Margareten,48.18807345,16.35338607721009,4ecbaaa9775b4671dbd1e920,Tabacchi,48.19036654925218,16.354973788867238,4bf58dd8d48988d116941735,Bar
Vienna,Margareten,48.18807345,16.35338607721009,4c39fc38ae2da593226103c6,Siebenbrunnenplatz,48.18565706517138,16.35391942553349,4bf58dd8d48988d164941735,Plaza
Vienna,Margareten,48.18807345,16.35338607721009,4d21cdd12eb1f04dff08fbc1,Vietnam Bistro,48.189547565955856,16.35213134377913,4bf58dd8d48988d14a941735,Vietnamese Restaurant
Vienna,Margareten,48.18807345,16.35338607721009,573765b6498ed9e514a470f9,stephan die gastwirtschaft,48.188749,16.348722,52e81612bcbc57f1066b7a01,Austrian Restaurant
Vienna,Margareten,48.18807345,16.35338607721009,4ca890cef47ea143e6207621,Gregors,48.191838515770655,16.356274871503736,4bf58dd8d48988d1d0941735,Dessert Shop
Vienna,Margareten,48.18807345,16.35338607721009,5127787fe4b07724f9a7dd59,Mimoza,48.185452673285724,16.353397831057574,4bf58dd8d48988d115941735,Middle Eastern Restaurant
Vienna,Margareten,48.18807345,16.35338607721009,4bcd9c1a937ca59387f3ac92,Stöger,48.19041312212512,16.354995925457768,52e81612bcbc57f1066b7a01,Austrian Restaurant
Vienna,Margareten,48.18807345,16.35338607721009,4c6578c79cb82d7f65db8dd2,Bacherpark,48.18779100996498,16.35524038072002,4bf58dd8d48988d163941735,Park
Vienna,Margareten,48.18807345,16.35338607721009,4c31947c3896e21ec642e790,Ristorante Maria-Rosa,48.185499241664,16.353533097158916,4bf58dd8d48988d110941735,Italian Restaurant
Vienna,Margareten,48.18807345,16.35338607721009,4af99ccdf964a520931222e3,werkzeugH,48.191163691517986,16.355876647670822,4bf58dd8d48988d116941735,Bar
Vienna,Margareten,48.18807345,16.35338607721009,4f1c29afe4b0d9f8ba11be92,Sofia,48.18449733307001,16.35358648262983,56aa371be4b08b9a8d5734f3,Bulgarian Restaurant
Vienna,Margareten,48.18807345,16.35338607721009,4be6eef3cf200f47a905153c,La Gondola,48.18964215129951,16.35237801970138,4bf58dd8d48988d110941735,Italian Restaurant
Vienna,Margareten,48.18807345,16.35338607721009,4b571343f964a520662528e3,BILLA,48.18856077150452,16.34773405018713,52f2ab2ebcbc57f1066b8b46,Supermarket
Vienna,Margareten,48.18807345,16.35338607721009,51f38a1c498e1493873cff49,Ströck,48.188800725066315,16.351609208902005,4bf58dd8d48988d16a941735,Bakery
Vienna,Margareten,48.18807345,16.35338607721009,4b1ebc19f964a520b81e24e3,Cafe Siebenbrunnen,48.18567178317245,16.353982944828434,4bf58dd8d48988d16d941735,Café
Vienna,Margareten,48.18807345,16.35338607721009,4bf658c3bfeac928a6269436,Hofer,48.188911595077094,16.352544781620963,52f2ab2ebcbc57f1066b8b46,Supermarket
Vienna,Margareten,48.18807345,16.35338607721009,4bb8e2e8314e9521c4e2489d,ibis Wien City,48.18894792230042,16.34950865893643,4bf58dd8d48988d1fa931735,Hotel
Vienna,Margareten,48.18807345,16.35338607721009,4b50c786f964a5201d3227e3,Colombo Hoppers,48.18970693106047,16.350754501185783,4bf58dd8d48988d10f941735,Indian Restaurant
Vienna,Margareten,48.18807345,16.35338607721009,4fd3995b0cd684d74fdaf7a2,Queens Apartments,48.18786671874693,16.347003873380864,4bf58dd8d48988d1fa931735,Hotel
Vienna,Margareten,48.18807345,16.35338607721009,4c6eff32fa49a1cd57aaa1e3,neville brücke - grenzübergang,48.18887913572589,16.348740143123774,52f2ab2ebcbc57f1066b8b4b,Border Crossing
Vienna,Margareten,48.18807345,16.35338607721009,4c6ad070e503c9286c9046b3,Einsiedlerpark,48.185675252560664,16.349823021144964,4bf58dd8d48988d1e7941735,Playground
Vienna,Margareten,48.18807345,16.35338607721009,4e1d41b6887794dc24905ca0,Neuber's Enkel,48.18981005814915,16.34816784095466,5745c2e4498e11e7bccabdbd,Drugstore
Vienna,Margareten,48.18807345,16.35338607721009,4c863b7d2f1c236a9c1c5b43,H Am Hundsturm (12A),48.18676523452666,16.347248554229736,52f2ab2ebcbc57f1066b8b4f,Bus Stop
Vienna,Matzleinsdorf,48.1825854,16.3581841,4cee4887ed62721e21c25afd,Ammersin Getränkeshop Margareten,48.18337862734759,16.36023720954222,4bf58dd8d48988d186941735,Liquor Store
Vienna,Matzleinsdorf,48.1825854,16.3581841,4ceed978ecb66a3188d42c4c,Hotel Allegro,48.18114487486511,16.35863479050352,4bf58dd8d48988d1fa931735,Hotel
Vienna,Matzleinsdorf,48.1825854,16.3581841,551d846b498e2d9b07141562,Duspara,48.18448434807615,16.361576340286028,52e81612bcbc57f1066b7a01,Austrian Restaurant
Vienna,Matzleinsdorf,48.1825854,16.3581841,53dcaa5b498e43c1f962e2fa,Omnom Burger,48.18327677853808,16.36037708120095,4bf58dd8d48988d16c941735,Burger Joint
Vienna,Matzleinsdorf,48.1825854,16.3581841,4c39fc38ae2da593226103c6,Siebenbrunnenplatz,48.18565706517138,16.35391942553349,4bf58dd8d48988d164941735,Plaza
Vienna,Matzleinsdorf,48.1825854,16.3581841,4cb47a001168a093b1f54823,Steirerstuben,48.18484685506577,16.362107744716088,4bf58dd8d48988d1c4941735,Restaurant
Vienna,Matzleinsdorf,48.1825854,16.3581841,5127787fe4b07724f9a7dd59,Mimoza,48.185452673285724,16.353397831057574,4bf58dd8d48988d115941735,Middle Eastern Restaurant
Vienna,Matzleinsdorf,48.1825854,16.3581841,4f1c29afe4b0d9f8ba11be92,Sofia,48.18449733307001,16.35358648262983,56aa371be4b08b9a8d5734f3,Bulgarian Restaurant
Vienna,Matzleinsdorf,48.1825854,16.3581841,4c31947c3896e21ec642e790,Ristorante Maria-Rosa,48.185499241664,16.353533097158916,4bf58dd8d48988d110941735,Italian Restaurant
Vienna,Matzleinsdorf,48.1825854,16.3581841,519a7c80498e1b5149891c91,Restaurant Homolje Grill,48.185652462715375,16.36305489304149,4bf58dd8d48988d1df931735,BBQ Joint
Vienna,Matzleinsdorf,48.1825854,16.3581841,4b1ebc19f964a520b81e24e3,Cafe Siebenbrunnen,48.18567178317245,16.353982944828434,4bf58dd8d48988d16d941735,Café
Vienna,Matzleinsdorf,48.1825854,16.3581841,584144d25490d303581d677e,SPAR,48.18213581138469,16.353279755196827,52f2ab2ebcbc57f1066b8b46,Supermarket
Vienna,Matzleinsdorf,48.1825854,16.3581841,4c1f20d5920076b07e54c4e9,S Matzleinsdorfer Platz,48.18061215016672,16.358568782147945,4bf58dd8d48988d129951735,Train Station
Vienna,Matzleinsdorf,48.1825854,16.3581841,4baf532ff964a5200af83be3,Rainers Hotel,48.17926591699813,16.362416341680895,4bf58dd8d48988d1fa931735,Hotel
Vienna,Matzleinsdorf,48.1825854,16.3581841,4cf134741d18a1439da551ec,BILLA,48.18317205906962,16.36414256001585,52f2ab2ebcbc57f1066b8b46,Supermarket
Vienna,Matzleinsdorf,48.1825854,16.3581841,4f040cbee30090dfdb74bb36,Anker,48.180805773393516,16.358585488143923,4bf58dd8d48988d16a941735,Bakery
Vienna,Matzleinsdorf,48.1825854,16.3581841,4be677edbcef2d7f0a3605e5,H Matzleinsdorfer Platz,48.1807241996899,16.358814239501953,52f2ab2ebcbc57f1066b8b51,Tram Station
Vienna,Matzleinsdorf,48.1825854,16.3581841,55d4fb4f498ee74dc5a68da4,48er-Tandler,48.181652006474266,16.35280955212082,4bf58dd8d48988d1f7941735,Flea Market
Vienna,Matzleinsdorf,48.1825854,16.3581841,553b6eb7498e9eecfd7bbd2f,OBI Gartenparadies,48.17866537222037,16.357057600026188,4eb1c0253b7b52c0e1adc2e9,Garden Center
Vienna,Matzleinsdorf,48.1825854,16.3581841,50f3149ae4b0f39bd3d13cf0,Nessus Rechenzentrum NDC1,48.180034388119566,16.363653074090625,4bf58dd8d48988d122951735,Electronics Store
Vienna,Nikolsdorf,48.1871818,16.3623106,4b7ec015f964a520c4fc2fe3,Rudi's Beisl,48.18745718192765,16.36412507217123,52e81612bcbc57f1066b7a01,Austrian Restaurant
Vienna,Nikolsdorf,48.1871818,16.3623106,551d846b498e2d9b07141562,Duspara,48.18448434807615,16.361576340286028,52e81612bcbc57f1066b7a01,Austrian Restaurant
Vienna,Nikolsdorf,48.1871818,16.3623106,50862ef1e4b0cd2841844c40,denn's Biomarkt,48.18938410840119,16.365710324423784,52f2ab2ebcbc57f1066b8b45,Organic Grocery
Vienna,Nikolsdorf,48.1871818,16.3623106,4e7dd8ded3e3294a67bfa303,Yogaloft Vienna,48.18932464670185,16.364849121040116,4bf58dd8d48988d102941735,Yoga Studio
Vienna,Nikolsdorf,48.1871818,16.3623106,5798efef498ed3a5cb52e15a,Dining Ruhm,48.19034,16.364798,52e81612bcbc57f1066b79f9,Modern European Restaurant
Vienna,Nikolsdorf,48.1871818,16.3623106,4b7068d2f964a520a6182de3,Alois-Drasche-Park,48.186573,16.367714,4bf58dd8d48988d163941735,Park
Vienna,Nikolsdorf,48.1871818,16.3623106,4cb47a001168a093b1f54823,Steirerstuben,48.18484685506577,16.362107744716088,4bf58dd8d48988d1c4941735,Restaurant
Vienna,Nikolsdorf,48.1871818,16.3623106,53d6919b498e87e251e1b15b,Mishi,48.188956157392205,16.36518166404975,4bf58dd8d48988d142941735,Asian Restaurant
Vienna,Nikolsdorf,48.1871818,16.3623106,4bc05d86abf495213c23bf93,Silberwirt,48.191084269315915,16.35906319214014,52e81612bcbc57f1066b7a01,Austrian Restaurant
Vienna,Nikolsdorf,48.1871818,16.3623106,4cee4887ed62721e21c25afd,Ammersin Getränkeshop Margareten,48.18337862734759,16.36023720954222,4bf58dd8d48988d186941735,Liquor Store
Vienna,Nikolsdorf,48.1871818,16.3623106,4f35192ae4b0b9c464c7a6c0,Wald/4tler Stubn,48.18686205657654,16.36401239596192,4bf58dd8d48988d1c4941735,Restaurant
Vienna,Nikolsdorf,48.1871818,16.3623106,519a7c80498e1b5149891c91,Restaurant Homolje Grill,48.185652462715375,16.36305489304149,4bf58dd8d48988d1df931735,BBQ Joint
Vienna,Nikolsdorf,48.1871818,16.3623106,4cdc15b4a1bba35d785198e5,SPAR Gourmet,48.18888705601757,16.365542682249952,4bf58dd8d48988d118951735,Grocery Store
Vienna,Nikolsdorf,48.1871818,16.3623106,4e970de9722eef174f5e0065,Wallner,48.190284,16.366063,50aa9e744b90af0d42d5de0e,Health Food Store
Vienna,Nikolsdorf,48.1871818,16.3623106,4c3dedfa6faac9b6997d0d76,Gergely's,48.19116848906916,16.359441663310346,4bf58dd8d48988d1c4941735,Restaurant
Vienna,Nikolsdorf,48.1871818,16.3623106,53dcaa5b498e43c1f962e2fa,Omnom Burger,48.18327677853808,16.36037708120095,4bf58dd8d48988d16c941735,Burger Joint
Vienna,Nikolsdorf,48.1871818,16.3623106,4b6032bcf964a5208bd929e3,Koo,48.19040032837689,16.366238251953614,4bf58dd8d48988d142941735,Asian Restaurant
Vienna,Nikolsdorf,48.1871818,16.3623106,4ed3b90bd3e3521ce9863fb5,Asian Pocket,48.18844244660993,16.364760990170144,4bf58dd8d48988d142941735,Asian Restaurant
Vienna,Nikolsdorf,48.1871818,16.3623106,4cb6dabbe262b60c00b671e0,Hofer,48.18685049486944,16.362557321236864,52f2ab2ebcbc57f1066b8b46,Supermarket
Vienna,Nikolsdorf,48.1871818,16.3623106,4d8a05b699c2a1cdae3287d7,Suppan & Suppan Möbel & Interieur,48.190223200908285,16.362675214557072,4bf58dd8d48988d1f8941735,Furniture / Home Store
Vienna,Nikolsdorf,48.1871818,16.3623106,4b702499f964a520b2082de3,Carla Mittersteig - Caritas Wien,48.191433310632256,16.36289597122227,4bf58dd8d48988d101951735,Thrift / Vintage Store
Vienna,Nikolsdorf,48.1871818,16.3623106,4bbc7237e5b0d13a5c386f7c,Restaurant Ferdinand,48.18979529325961,16.363880151620602,52e81612bcbc57f1066b7a01,Austrian Restaurant
Vienna,Nikolsdorf,48.1871818,16.3623106,4cf134741d18a1439da551ec,BILLA,48.18317205906962,16.36414256001585,52f2ab2ebcbc57f1066b8b46,Supermarket
Vienna,Nikolsdorf,48.1871818,16.3623106,4d1482d26c8b54818f5ad7cc,BILLA,48.18754,16.36874,52f2ab2ebcbc57f1066b8b46,Supermarket
Vienna,Nikolsdorf,48.1871818,16.3623106,4bab091cf964a520ab923ae3,H Blechturmgasse,48.18359021191712,16.366191784556946,52f2ab2ebcbc57f1066b8b51,Tram Station
Vienna,Nikolsdorf,48.1871818,16.3623106,4e50b9e0c65bb313ba98df12,USTRAB Kliebergasse,48.183524994587714,16.366124244867574,4bf58dd8d48988d1fc931735,Light Rail Station
Vienna,Reinprechtsdorf,48.1891807,16.352930800000003,4bf034431f17ef3bbfbe9bc8,Woracziczky Gasthaus,48.189187366075984,16.353057580496237,52e81612bcbc57f1066b7a01,Austrian Restaurant
Vienna,Reinprechtsdorf,48.1891807,16.352930800000003,4c5db9b89b28d13a076f5a70,Senhor Vinho,48.187310784849124,16.353561343461788,4def73e84765ae376e57713a,Portuguese Restaurant
Vienna,Reinprechtsdorf,48.1891807,16.352930800000003,53adcb90498e4de5ea72bf17,Gerstäcker Wien GmbH,48.18868968829032,16.354263621969533,4bf58dd8d48988d127951735,Arts & Crafts Store
Vienna,Reinprechtsdorf,48.1891807,16.352930800000003,55e5e32a498ef60f1b00abc6,Wiental Terrasse,48.190716006849826,16.352648991701255,52e81612bcbc57f1066b7a25,Pedestrian Plaza
Vienna,Reinprechtsdorf,48.1891807,16.352930800000003,4ecbaaa9775b4671dbd1e920,Tabacchi,48.19036654925218,16.354973788867238,4bf58dd8d48988d116941735,Bar
Vienna,Reinprechtsdorf,48.1891807,16.352930800000003,4e1b67c41495517ce51b163a,pentahotel Vienna,48.1899725236352,16.35678380727768,4bf58dd8d48988d1fa931735,Hotel
Vienna,Reinprechtsdorf,48.1891807,16.352930800000003,4ca890cef47ea143e6207621,Gregors,48.191838515770655,16.356274871503736,4bf58dd8d48988d1d0941735,Dessert Shop
Vienna,Reinprechtsdorf,48.1891807,16.352930800000003,4fc8b88ce4b08eb1f5800a83,Nam-Nam Deli,48.18680266945639,16.353955372945002,4bf58dd8d48988d10f941735,Indian Restaurant
Vienna,Reinprechtsdorf,48.1891807,16.352930800000003,573765b6498ed9e514a470f9,stephan die gastwirtschaft,48.188749,16.348722,52e81612bcbc57f1066b7a01,Austrian Restaurant
Vienna,Reinprechtsdorf,48.1891807,16.352930800000003,4bcd9c1a937ca59387f3ac92,Stöger,48.19041312212512,16.354995925457768,52e81612bcbc57f1066b7a01,Austrian Restaurant
Vienna,Reinprechtsdorf,48.1891807,16.352930800000003,4ff46d28e4b033b23a534a29,Mini,48.19233601119701,16.348879903602022,52e81612bcbc57f1066b79fa,Hungarian Restaurant
Vienna,Reinprechtsdorf,48.1891807,16.352930800000003,4d21cdd12eb1f04dff08fbc1,Vietnam Bistro,48.189547565955856,16.35213134377913,4bf58dd8d48988d14a941735,Vietnamese Restaurant
Vienna,Reinprechtsdorf,48.1891807,16.352930800000003,51dda680498e84448f600461,Pizzeria Disco Volante,48.19132429513201,16.347587181444588,4bf58dd8d48988d1ca941735,Pizza Place
Vienna,Reinprechtsdorf,48.1891807,16.352930800000003,4c4afdd45609c9b614ae7d90,Kangmei Massage,48.19329451428113,16.35286929626859,52f2ab2ebcbc57f1066b8b3c,Massage Studio
Vienna,Reinprechtsdorf,48.1891807,16.352930800000003,4c1a1f0ff551ef3b0d524768,Rave Up Records,48.193098212814235,16.353804546660943,4bf58dd8d48988d10d951735,Record Shop
Vienna,Reinprechtsdorf,48.1891807,16.352930800000003,56c356afcd10b95471e6087f,FITINN Fitnessstudio,48.193155176601955,16.353366088624295,4bf58dd8d48988d175941735,Gym / Fitness Center
Vienna,Reinprechtsdorf,48.1891807,16.352930800000003,4cc948eeb127bfb7f42daa31,Edo Sushi,48.19185505300423,16.348225233782482,4bf58dd8d48988d1d2941735,Sushi Restaurant
Vienna,Reinprechtsdorf,48.1891807,16.352930800000003,52f4acf7498e6fa2ff6f7378,Budapest Bistro,48.19194925058666,16.35685570105555,52e81612bcbc57f1066b79f1,Bistro
Vienna,Reinprechtsdorf,48.1891807,16.352930800000003,4cab64ebf47ea143c4648b21,Schlossquadrat,48.19117921885869,16.358705057913873,4bf58dd8d48988d164941735,Plaza
Vienna,Reinprechtsdorf,48.1891807,16.352930800000003,4c39fc38ae2da593226103c6,Siebenbrunnenplatz,48.18565706517138,16.35391942553349,4bf58dd8d48988d164941735,Plaza
Vienna,Reinprechtsdorf,48.1891807,16.352930800000003,4af99ccdf964a520931222e3,werkzeugH,48.191163691517986,16.355876647670822,4bf58dd8d48988d116941735,Bar
Vienna,Reinprechtsdorf,48.1891807,16.352930800000003,4ce789620f196dcb893a3fae,Bäckerei Cafe Felzl,48.1927440162887,16.355081735960372,4bf58dd8d48988d16a941735,Bakery
Vienna,Reinprechtsdorf,48.1891807,16.352930800000003,5127787fe4b07724f9a7dd59,Mimoza,48.185452673285724,16.353397831057574,4bf58dd8d48988d115941735,Middle Eastern Restaurant
Vienna,Reinprechtsdorf,48.1891807,16.352930800000003,4c6578c79cb82d7f65db8dd2,Bacherpark,48.18779100996498,16.35524038072002,4bf58dd8d48988d163941735,Park
Vienna,Reinprechtsdorf,48.1891807,16.352930800000003,4ea4026929c2abc8df6fade1,Rori's Finest Sweets,48.19241441971276,16.355818804535907,4bf58dd8d48988d1d0941735,Dessert Shop
Vienna,Reinprechtsdorf,48.1891807,16.352930800000003,4c06f95ecf8c76b023653b65,La Vita è Bella,48.19219341318045,16.356217230172838,4bf58dd8d48988d110941735,Italian Restaurant
Vienna,Reinprechtsdorf,48.1891807,16.352930800000003,4eabced0d3e3846cbd3a54e3,Fleischerei Ringl,48.191562464634764,16.347761178968437,4bf58dd8d48988d11d951735,Butcher
Vienna,Reinprechtsdorf,48.1891807,16.352930800000003,4c40af3cff711b8d23c51005,Nam Nam,48.192306359231964,16.348290836912824,4bf58dd8d48988d10f941735,Indian Restaurant
Vienna,Reinprechtsdorf,48.1891807,16.352930800000003,4be6eef3cf200f47a905153c,La Gondola,48.18964215129951,16.35237801970138,4bf58dd8d48988d110941735,Italian Restaurant
Vienna,Reinprechtsdorf,48.1891807,16.352930800000003,59db51ce66611613978f9a41,Coffee Junkie,48.19192442462209,16.35689897794089,4bf58dd8d48988d1e0931735,Coffee Shop
Vienna,Reinprechtsdorf,48.1891807,16.352930800000003,4b571343f964a520662528e3,BILLA,48.18856077150452,16.34773405018713,52f2ab2ebcbc57f1066b8b46,Supermarket
Vienna,Reinprechtsdorf,48.1891807,16.352930800000003,4bf2dc746991c9b6bf9729e9,Sale e Pepe Ristorante,48.19239466342905,16.355900141347348,4bf58dd8d48988d110941735,Italian Restaurant
Vienna,Reinprechtsdorf,48.1891807,16.352930800000003,4c31947c3896e21ec642e790,Ristorante Maria-Rosa,48.185499241664,16.353533097158916,4bf58dd8d48988d110941735,Italian Restaurant
Vienna,Reinprechtsdorf,48.1891807,16.352930800000003,51f38a1c498e1493873cff49,Ströck,48.188800725066315,16.351609208902005,4bf58dd8d48988d16a941735,Bakery
Vienna,Reinprechtsdorf,48.1891807,16.352930800000003,4bb8e2e8314e9521c4e2489d,ibis Wien City,48.18894792230042,16.34950865893643,4bf58dd8d48988d1fa931735,Hotel
Vienna,Reinprechtsdorf,48.1891807,16.352930800000003,4bab6cf6f964a52081a83ae3,Gelateria Marcello,48.19154940565318,16.35805371305015,4bf58dd8d48988d1c9941735,Ice Cream Shop
Vienna,Reinprechtsdorf,48.1891807,16.352930800000003,4bf658c3bfeac928a6269436,Hofer,48.188911595077094,16.352544781620963,52f2ab2ebcbc57f1066b8b46,Supermarket
Vienna,Reinprechtsdorf,48.1891807,16.352930800000003,4d711f007c44a35d2a20227a,Noodles & More,48.192904973017015,16.35428187059239,4bf58dd8d48988d142941735,Asian Restaurant
Vienna,Reinprechtsdorf,48.1891807,16.352930800000003,4be276241dd22d7fb82e94bd,Cuadro,48.191213382649096,16.358485969903647,4bf58dd8d48988d16d941735,Café
Vienna,Reinprechtsdorf,48.1891807,16.352930800000003,4b50c786f964a5201d3227e3,Colombo Hoppers,48.18970693106047,16.350754501185783,4bf58dd8d48988d10f941735,Indian Restaurant
Vienna,Reinprechtsdorf,48.1891807,16.352930800000003,4b1ebc19f964a520b81e24e3,Cafe Siebenbrunnen,48.18567178317245,16.353982944828434,4bf58dd8d48988d16d941735,Café
Vienna,Reinprechtsdorf,48.1891807,16.352930800000003,4ddcf1d97d8b3654d50b62aa,MiniRestaurant,48.19238632438888,16.34907167378848,4bf58dd8d48988d1c4941735,Restaurant
Vienna,Reinprechtsdorf,48.1891807,16.352930800000003,4e0905677d8b2a018063aa13,Radis Würstelbox,48.19306721348278,16.354647870265953,56aa371ce4b08b9a8d57358e,Bratwurst Joint
Vienna,Reinprechtsdorf,48.1891807,16.352930800000003,4fd3995b0cd684d74fdaf7a2,Queens Apartments,48.18786671874693,16.347003873380864,4bf58dd8d48988d1fa931735,Hotel
Vienna,Reinprechtsdorf,48.1891807,16.352930800000003,4c03ffdd0d0e0f478555039a,Raymond's Aegidi Lounge & Bar,48.1914823166322,16.34735889664564,4bf58dd8d48988d116941735,Bar
Vienna,Reinprechtsdorf,48.1891807,16.352930800000003,514c98dfe4b0bcabea48a515,Dublin,48.192639589259024,16.348891921392504,52e81612bcbc57f1066b7a06,Irish Pub
Vienna,Reinprechtsdorf,48.1891807,16.352930800000003,4cb877d1035d236a373ccd4e,SPAR,48.19326642650545,16.35347977962124,52f2ab2ebcbc57f1066b8b46,Supermarket
Vienna,Reinprechtsdorf,48.1891807,16.352930800000003,515583c9e4b0654c9d2f94b9,le Pho,48.19214590851397,16.348469038500102,4bf58dd8d48988d14a941735,Vietnamese Restaurant
Vienna,Reinprechtsdorf,48.1891807,16.352930800000003,4c6eff32fa49a1cd57aaa1e3,neville brücke - grenzübergang,48.18887913572589,16.348740143123774,52f2ab2ebcbc57f1066b8b4b,Border Crossing
Vienna,Reinprechtsdorf,48.1891807,16.352930800000003,557b20c6498ebf798ab0dfb6,WOKwalk,48.192169189453125,16.348329544067383,4bf58dd8d48988d142941735,Asian Restaurant
Vienna,Reinprechtsdorf,48.1891807,16.352930800000003,4e1d41b6887794dc24905ca0,Neuber's Enkel,48.18981005814915,16.34816784095466,5745c2e4498e11e7bccabdbd,Drugstore
Vienna,Reinprechtsdorf,48.1891807,16.352930800000003,4c8c01baf0ce236ae54014ef,H Pilgramgasse,48.19283311704682,16.35430005933745,52f2ab2ebcbc57f1066b8b4f,Bus Stop
Vienna,Reinprechtsdorf,48.1891807,16.352930800000003,4c6ad070e503c9286c9046b3,Einsiedlerpark,48.185675252560664,16.349823021144964,4bf58dd8d48988d1e7941735,Playground
Vienna,Reinprechtsdorf,48.1891807,16.352930800000003,4c863b7d2f1c236a9c1c5b43,H Am Hundsturm (12A),48.18676523452666,16.347248554229736,52f2ab2ebcbc57f1066b8b4f,Bus Stop
Vienna,Gumpendorf,48.191204,16.3475419,4ff46d28e4b033b23a534a29,Mini,48.19233601119701,16.348879903602022,52e81612bcbc57f1066b79fa,Hungarian Restaurant
Vienna,Gumpendorf,48.191204,16.3475419,51dda680498e84448f600461,Pizzeria Disco Volante,48.19132429513201,16.347587181444588,4bf58dd8d48988d1ca941735,Pizza Place
Vienna,Gumpendorf,48.191204,16.3475419,588ce211f5bfab372c902760,Xin Chào,48.190556,16.344501,4bf58dd8d48988d14a941735,Vietnamese Restaurant
Vienna,Gumpendorf,48.191204,16.3475419,4cc948eeb127bfb7f42daa31,Edo Sushi,48.19185505300423,16.348225233782482,4bf58dd8d48988d1d2941735,Sushi Restaurant
Vienna,Gumpendorf,48.191204,16.3475419,50c0f99be4b08243a364e721,RABBIT EYE MOVEMENT Art Space,48.193208,16.349289,4bf58dd8d48988d1e2931735,Art Gallery
Vienna,Gumpendorf,48.191204,16.3475419,4bacfd57f964a520d9213be3,Thai Isaan,48.1930218719161,16.34908563193787,4bf58dd8d48988d149941735,Thai Restaurant
Vienna,Gumpendorf,48.191204,16.3475419,4f1d8bcae4b04ae0853fafcf,Gartencafe,48.19157394890198,16.34678929662678,4bf58dd8d48988d1e0931735,Coffee Shop
Vienna,Gumpendorf,48.191204,16.3475419,4bc051184cdfc9b6f2b59221,Laufsport Blutsch,48.19241,16.34413,4bf58dd8d48988d1f2941735,Sporting Goods Shop
Vienna,Gumpendorf,48.191204,16.3475419,573765b6498ed9e514a470f9,stephan die gastwirtschaft,48.188749,16.348722,52e81612bcbc57f1066b7a01,Austrian Restaurant
Vienna,Gumpendorf,48.191204,16.3475419,4c40af3cff711b8d23c51005,Nam Nam,48.192306359231964,16.348290836912824,4bf58dd8d48988d10f941735,Indian Restaurant
Vienna,Gumpendorf,48.191204,16.3475419,4eabced0d3e3846cbd3a54e3,Fleischerei Ringl,48.191562464634764,16.347761178968437,4bf58dd8d48988d11d951735,Butcher
Vienna,Gumpendorf,48.191204,16.3475419,4bf034431f17ef3bbfbe9bc8,Woracziczky Gasthaus,48.189187366075984,16.353057580496237,52e81612bcbc57f1066b7a01,Austrian Restaurant
Vienna,Gumpendorf,48.191204,16.3475419,5172bdfae4b0b77abaac9320,Brass Monkey,48.19498121064867,16.35078974091585,4bf58dd8d48988d1bc941735,Cupcake Shop
Vienna,Gumpendorf,48.191204,16.3475419,4c4afdd45609c9b614ae7d90,Kangmei Massage,48.19329451428113,16.35286929626859,52f2ab2ebcbc57f1066b8b3c,Massage Studio
Vienna,Gumpendorf,48.191204,16.3475419,55e5e32a498ef60f1b00abc6,Wiental Terrasse,48.190716006849826,16.352648991701255,52e81612bcbc57f1066b7a25,Pedestrian Plaza
Vienna,Gumpendorf,48.191204,16.3475419,4bf41bc794af2d7fd0303a72,Yak & Yeti,48.194009648249484,16.350786637087538,52af39fb3cf9994f4e043be9,Tibetan Restaurant
Vienna,Gumpendorf,48.191204,16.3475419,56533c74498ef83ba31fbf3d,Restaurant Mill,48.193928941810505,16.342681446814975,4bf58dd8d48988d1c4941735,Restaurant
Vienna,Gumpendorf,48.191204,16.3475419,4b058896f964a52035cf22e3,Gastwirtschaft Steman,48.19530727101086,16.349310575083784,52e81612bcbc57f1066b7a01,Austrian Restaurant
Vienna,Gumpendorf,48.191204,16.3475419,5a402d17898bdc16c1af4267,Oliver Apartments,48.190567,16.341442,4bf58dd8d48988d1fa931735,Hotel
Vienna,Gumpendorf,48.191204,16.3475419,4b08128cf964a520480323e3,Café Jelinek,48.19532384520028,16.349365782551697,4bf58dd8d48988d16d941735,Café
Vienna,Gumpendorf,48.191204,16.3475419,56c356afcd10b95471e6087f,FITINN Fitnessstudio,48.193155176601955,16.353366088624295,4bf58dd8d48988d175941735,Gym / Fitness Center
Vienna,Gumpendorf,48.191204,16.3475419,4c6e9413e6b7b1f76fe5ac8e,Loquaiplatz,48.194597209095406,16.34895728822228,4bf58dd8d48988d164941735,Plaza
Vienna,Gumpendorf,48.191204,16.3475419,5981e5901ffe976cb542c548,Mi Barrio,48.19445051901599,16.35205775499344,4bf58dd8d48988d1be941735,Latin American Restaurant
Vienna,Gumpendorf,48.191204,16.3475419,4c5547655b8395216fffe331,Haydnhaus Museum,48.19449220015243,16.34535706635913,4bf58dd8d48988d181941735,Museum
Vienna,Gumpendorf,48.191204,16.3475419,4b571343f964a520662528e3,BILLA,48.18856077150452,16.34773405018713,52f2ab2ebcbc57f1066b8b46,Supermarket
Vienna,Gumpendorf,48.191204,16.3475419,4d21cdd12eb1f04dff08fbc1,Vietnam Bistro,48.189547565955856,16.35213134377913,4bf58dd8d48988d14a941735,Vietnamese Restaurant
Vienna,Gumpendorf,48.191204,16.3475419,5596cc35498ed14c4e01992d,Aroi Thai,48.19455404348084,16.34406725975168,4bf58dd8d48988d149941735,Thai Restaurant
Vienna,Gumpendorf,48.191204,16.3475419,4b668d81f964a5200b242be3,Bruno-Kreisky-Park,48.18810015429603,16.343717037155518,4bf58dd8d48988d163941735,Park
Vienna,Gumpendorf,48.191204,16.3475419,4ddcf1d97d8b3654d50b62aa,MiniRestaurant,48.19238632438888,16.34907167378848,4bf58dd8d48988d1c4941735,Restaurant
Vienna,Gumpendorf,48.191204,16.3475419,56747da2498ebd5ba14439dc,Bits & Bites,48.19449102926206,16.34607060549286,4bf58dd8d48988d1c4941735,Restaurant
Vienna,Gumpendorf,48.191204,16.3475419,4c03ffdd0d0e0f478555039a,Raymond's Aegidi Lounge & Bar,48.1914823166322,16.34735889664564,4bf58dd8d48988d116941735,Bar
Vienna,Gumpendorf,48.191204,16.3475419,54bbd011498ea3c0de5e4901,Lemontree,48.194952333477005,16.350782860223532,4bf58dd8d48988d16d941735,Café
Vienna,Gumpendorf,48.191204,16.3475419,4c690bd98d22c928002eb645,Am Hundsturm,48.18796227184893,16.34568376841722,4bf58dd8d48988d164941735,Plaza
Vienna,Gumpendorf,48.191204,16.3475419,4bb8e2e8314e9521c4e2489d,ibis Wien City,48.18894792230042,16.34950865893643,4bf58dd8d48988d1fa931735,Hotel
Vienna,Gumpendorf,48.191204,16.3475419,4be6eef3cf200f47a905153c,La Gondola,48.18964215129951,16.35237801970138,4bf58dd8d48988d110941735,Italian Restaurant
Vienna,Gumpendorf,48.191204,16.3475419,4c1bb676b4e62d7f49d8d993,Yoo,48.19341561419427,16.345066887203973,4bf58dd8d48988d113941735,Korean Restaurant
Vienna,Gumpendorf,48.191204,16.3475419,4fd3995b0cd684d74fdaf7a2,Queens Apartments,48.18786671874693,16.347003873380864,4bf58dd8d48988d1fa931735,Hotel
Vienna,Gumpendorf,48.191204,16.3475419,514c98dfe4b0bcabea48a515,Dublin,48.192639589259024,16.348891921392504,52e81612bcbc57f1066b7a06,Irish Pub
Vienna,Gumpendorf,48.191204,16.3475419,4c9f226c2fb1a143691df140,G'schamster Diener,48.1927264,16.3457797,4bf58dd8d48988d1c4941735,Restaurant
Vienna,Gumpendorf,48.191204,16.3475419,51f38a1c498e1493873cff49,Ströck,48.188800725066315,16.351609208902005,4bf58dd8d48988d16a941735,Bakery
Vienna,Gumpendorf,48.191204,16.3475419,4b50c786f964a5201d3227e3,Colombo Hoppers,48.18970693106047,16.350754501185783,4bf58dd8d48988d10f941735,Indian Restaurant
Vienna,Gumpendorf,48.191204,16.3475419,515583c9e4b0654c9d2f94b9,le Pho,48.19214590851397,16.348469038500102,4bf58dd8d48988d14a941735,Vietnamese Restaurant
Vienna,Gumpendorf,48.191204,16.3475419,4bf658c3bfeac928a6269436,Hofer,48.188911595077094,16.352544781620963,52f2ab2ebcbc57f1066b8b46,Supermarket
Vienna,Gumpendorf,48.191204,16.3475419,557b20c6498ebf798ab0dfb6,WOKwalk,48.192169189453125,16.348329544067383,4bf58dd8d48988d142941735,Asian Restaurant
Vienna,Gumpendorf,48.191204,16.3475419,50e44f36e4b0b781c2ad3b9d,Hotel Mocca,48.19487361407646,16.350696538463144,4bf58dd8d48988d1fa931735,Hotel
Vienna,Gumpendorf,48.191204,16.3475419,4cb877d1035d236a373ccd4e,SPAR,48.19326642650545,16.35347977962124,52f2ab2ebcbc57f1066b8b46,Supermarket
Vienna,Gumpendorf,48.191204,16.3475419,4c2df1ed7d85a593696453f3,BILLA,48.19213,16.34159,52f2ab2ebcbc57f1066b8b46,Supermarket
Vienna,Laimgrube,48.1983912,16.359865,5645ceab498efd91f9b9ae70,BeerLovers,48.198890580700365,16.358247471049744,5370f356bcbc57f1066c94c2,Beer Store
Vienna,Laimgrube,48.1983912,16.359865,4d53a85fbdbea1cdd942de92,Wombat's City Hostel,48.196935,16.360889,4bf58dd8d48988d1ee931735,Hostel
Vienna,Laimgrube,48.1983912,16.359865,4af9b000f964a520561322e3,phil,48.200196163700625,16.36121911866486,4bf58dd8d48988d16d941735,Café
Vienna,Laimgrube,48.1983912,16.359865,4bf15b60dc0f0f4797c7f08d,Dr. Falafel,48.19769135416737,16.361708175812463,4bf58dd8d48988d10b941735,Falafel Restaurant
Vienna,Laimgrube,48.1983912,16.359865,4b5eeed4f964a520799e29e3,NENI am Naschmarkt,48.19797591822308,16.362156209912396,4bf58dd8d48988d115941735,Middle Eastern Restaurant
Vienna,Laimgrube,48.1983912,16.359865,4cde88a8db125481503a31ce,Lili Markt,48.197319867281635,16.36190662114121,4bf58dd8d48988d1f9941735,Food & Drink Shop
Vienna,Laimgrube,48.1983912,16.359865,4c41efea520fa593e461caac,Saint Charles Apotheke,48.198957456656466,16.358300786153944,4bf58dd8d48988d10f951735,Pharmacy
Vienna,Laimgrube,48.1983912,16.359865,4b2c0053f964a52053bf24e3,Mama Liu and Sons,48.19905374990505,16.35879084530415,4bf58dd8d48988d142941735,Asian Restaurant
Vienna,Laimgrube,48.1983912,16.359865,4c796bc581bca093c55cfd14,Nautilus Fischrestaurant,48.198494541049655,16.36315736656815,4bf58dd8d48988d1ce941735,Seafood Restaurant
Vienna,Laimgrube,48.1983912,16.359865,4b05889af964a520cacf22e3,Naschmarkt,48.198484162161876,16.363516685517293,50be8ee891d4fa8dcc7199a7,Market
Vienna,Laimgrube,48.1983912,16.359865,4b1180d0f964a520fa7d23e3,Corns n’ Pops,48.198776163124066,16.357884951006685,4bf58dd8d48988d1e0931735,Coffee Shop
Vienna,Laimgrube,48.1983912,16.359865,4c17a01971b09c74a25de244,RAG,48.20095152985375,16.3583096262313,4bf58dd8d48988d103951735,Clothing Store
Vienna,Laimgrube,48.1983912,16.359865,53526104498ea813eb6bfd68,Eis-Greissler,48.200394,16.356653,4bf58dd8d48988d1c9941735,Ice Cream Shop
Vienna,Laimgrube,48.1983912,16.359865,4c0f96d775f99c7480adecc4,Schallplattenhandlung Teuchtler,48.19961547313328,16.357212012233106,4bf58dd8d48988d10d951735,Record Shop
Vienna,Laimgrube,48.1983912,16.359865,4da198569935a0939423a36f,Hotel Das Tyrol,48.200965104669365,16.3593893033499,4bf58dd8d48988d1fa931735,Hotel
Vienna,Laimgrube,48.1983912,16.359865,4e1c399b52b1218fa01a7fea,Kaffeerösterei Alt Wien,48.19814,16.36402,4bf58dd8d48988d16d941735,Café
